---
name: "Andorra"
iso: "AD"
iso3: "AND"
code: "020"
capital: "Andorra la Vella"
area: 468.0
population: 84000
continent: "EU"
currencyCode: "EUR"
currencyName: "Euro"
phone: "376"
postalCodeFormat: "AD###"
postalCodeRegex: "^(?:AD)*(\\d{3})$"
languages: "ca"
neighbours: "ES,FR"
regions:
- name: "Ordino"
  cities:
  - name: "Ordino"
    latitude: 42.55623
    longitude: 1.53319
    population: 3066
    dem: 1296
    timezone: "Europe/Andorra"
- name: "Escaldes-Engordany"
  cities:
  - name: "les Escaldes"
    latitude: 42.50729
    longitude: 1.53414
    population: 15853
    dem: 1033
    timezone: "Europe/Andorra"
- name: "Andorra la Vella"
  cities:
  - name: "Andorra la Vella"
    latitude: 42.50779
    longitude: 1.52109
    population: 20430
    dem: 1037
    timezone: "Europe/Andorra"
- name: "La Massana"
  cities:
  - name: "la Massana"
    latitude: 42.54499
    longitude: 1.51483
    population: 7211
    dem: 1245
    timezone: "Europe/Andorra"
- name: "Sant Julia de Loria"
  cities:
  - name: "Sant Julia de Loria"
    latitude: 42.46372
    longitude: 1.49129
    population: 8022
    dem: 921
    timezone: "Europe/Andorra"
- name: "Encamp"
  cities:
  - name: "Encamp"
    latitude: 42.53474
    longitude: 1.58014
    population: 11223
    dem: 1257
    timezone: "Europe/Andorra"
- name: "Canillo"
  cities:
  - name: "Canillo"
    latitude: 42.5676
    longitude: 1.59756
    population: 3292
    dem: 1561
    timezone: "Europe/Andorra"
