---
name: "Austria"
iso: "AT"
iso3: "AUT"
code: "040"
capital: "Vienna"
area: 83858.0
population: 8205000
continent: "EU"
currencyCode: "EUR"
currencyName: "Euro"
phone: "43"
postalCodeFormat: "####"
postalCodeRegex: "^(\\d{4})$"
languages: "de-AT,hr,hu,sl"
neighbours: "CH,DE,HU,SK,CZ,IT,SI,LI"
regions:
- name: "Oberoesterreich"
  cities:
  - name: "Wimpassing"
    latitude: 48.16667
    longitude: 13.98333
    population: 5748
    dem: 332
    timezone: "Europe/Vienna"
  - name: "Wels"
    latitude: 48.16667
    longitude: 14.03333
    population: 16857
    dem: 317
    timezone: "Europe/Vienna"
  - name: "Vorchdorf"
    latitude: 48.00388
    longitude: 13.92122
    population: 7475
    dem: 410
    timezone: "Europe/Vienna"
  - name: "Traun"
    latitude: 48.22656
    longitude: 14.23459
    population: 11267
    dem: 271
    timezone: "Europe/Vienna"
  - name: "Steyr"
    latitude: 48.04274
    longitude: 14.42127
    population: 38331
    dem: 285
    timezone: "Europe/Vienna"
  - name: "Sankt Martin"
    latitude: 48.23091
    longitude: 14.26781
    population: 6984
    dem: 263
    timezone: "Europe/Vienna"
  - name: "Ried im Innkreis"
    latitude: 48.21123
    longitude: 13.48855
    population: 11903
    dem: 435
    timezone: "Europe/Vienna"
  - name: "Perg"
    latitude: 48.25
    longitude: 14.63333
    population: 5812
    dem: 252
    timezone: "Europe/Vienna"
  - name: "Neuzeug"
    latitude: 48.05
    longitude: 14.33333
    population: 5346
    dem: 334
    timezone: "Europe/Vienna"
  - name: "Neuhofen an der Krems"
    latitude: 48.13866
    longitude: 14.22764
    population: 6269
    dem: 302
    timezone: "Europe/Vienna"
  - name: "Micheldorf in Oberoesterreich"
    latitude: 47.87764
    longitude: 14.13357
    population: 5854
    elevation: 465
    dem: 459
    timezone: "Europe/Vienna"
  - name: "Mattighofen"
    latitude: 48.10732
    longitude: 13.15081
    population: 6524
    dem: 445
    timezone: "Europe/Vienna"
  - name: "Marchtrenk"
    latitude: 48.19275
    longitude: 14.11394
    population: 8394
    dem: 301
    timezone: "Europe/Vienna"
  - name: "Linz"
    latitude: 48.30639
    longitude: 14.28611
    population: 204846
    elevation: 266
    dem: 268
    timezone: "Europe/Vienna"
  - name: "Lichtenegg"
    latitude: 48.15
    longitude: 14.0
    population: 6163
    dem: 314
    timezone: "Europe/Vienna"
  - name: "Laakirchen"
    latitude: 47.98188
    longitude: 13.82166
    population: 9861
    dem: 439
    timezone: "Europe/Vienna"
  - name: "Kremsmuenster"
    latitude: 48.0529
    longitude: 14.12919
    population: 6585
    dem: 344
    timezone: "Europe/Vienna"
  - name: "Hart"
    latitude: 48.26526
    longitude: 14.25691
    population: 5610
    dem: 285
    timezone: "Europe/Vienna"
  - name: "Haid"
    latitude: 48.20477
    longitude: 14.25107
    population: 7424
    dem: 277
    timezone: "Europe/Vienna"
  - name: "Haag"
    latitude: 48.27063
    longitude: 14.26875
    population: 5273
    dem: 280
    timezone: "Europe/Vienna"
  - name: "Gmunden"
    latitude: 47.91839
    longitude: 13.79933
    population: 13191
    dem: 434
    timezone: "Europe/Vienna"
  - name: "Gallneukirchen"
    latitude: 48.35363
    longitude: 14.41604
    population: 6492
    dem: 339
    timezone: "Europe/Vienna"
  - name: "Freistadt"
    latitude: 48.51103
    longitude: 14.50453
    population: 7397
    dem: 565
    timezone: "Europe/Vienna"
  - name: "Enns"
    latitude: 48.21346
    longitude: 14.47612
    population: 9812
    dem: 268
    timezone: "Europe/Vienna"
  - name: "Bad Hall"
    latitude: 48.03832
    longitude: 14.20773
    population: 5296
    dem: 369
    timezone: "Europe/Vienna"
  - name: "Attnang-Puchheim"
    latitude: 48.00833
    longitude: 13.71667
    population: 8908
    dem: 417
    timezone: "Europe/Vienna"
  - name: "Oberhaid"
    latitude: 48.17593
    longitude: 14.01495
    population: 5100
    dem: 322
    timezone: "Europe/Vienna"
- name: "Tirol"
  cities:
  - name: "Zirl"
    latitude: 47.2741
    longitude: 11.23961
    population: 8162
    elevation: 622
    dem: 637
    timezone: "Europe/Vienna"
  - name: "Woergl"
    latitude: 47.48906
    longitude: 12.06174
    population: 13811
    dem: 506
    timezone: "Europe/Vienna"
  - name: "Wilten"
    latitude: 47.25829
    longitude: 11.38808
    population: 18142
    dem: 588
    timezone: "Europe/Vienna"
  - name: "Wattens"
    latitude: 47.29419
    longitude: 11.5907
    population: 7881
    dem: 555
    timezone: "Europe/Vienna"
  - name: "Voels"
    latitude: 47.25
    longitude: 11.33333
    population: 6738
    dem: 605
    timezone: "Europe/Vienna"
  - name: "Telfs"
    latitude: 47.30707
    longitude: 11.06817
    population: 15229
    dem: 637
    timezone: "Europe/Vienna"
  - name: "Hall in Tirol"
    latitude: 47.28333
    longitude: 11.51667
    population: 13334
    dem: 587
    timezone: "Europe/Vienna"
  - name: "Schwaz"
    latitude: 47.35169
    longitude: 11.71014
    population: 13728
    dem: 537
    timezone: "Europe/Vienna"
  - name: "Sankt Johann in Tirol"
    latitude: 47.5233
    longitude: 12.4232
    population: 9428
    dem: 659
    timezone: "Europe/Vienna"
  - name: "Rum"
    latitude: 47.28333
    longitude: 11.45
    population: 9190
    dem: 623
    timezone: "Europe/Vienna"
  - name: "Reutte"
    latitude: 47.48333
    longitude: 10.71667
    population: 6704
    dem: 856
    timezone: "Europe/Vienna"
  - name: "Pradl"
    latitude: 47.26539
    longitude: 11.4152
    population: 32588
    dem: 572
    timezone: "Europe/Vienna"
  - name: "Muehlau"
    latitude: 47.28333
    longitude: 11.4
    population: 5435
    dem: 698
    timezone: "Europe/Vienna"
  - name: "Lienz"
    latitude: 46.8289
    longitude: 12.76903
    population: 11572
    dem: 681
    timezone: "Europe/Vienna"
  - name: "Landeck"
    latitude: 47.13988
    longitude: 10.56593
    population: 7725
    dem: 789
    timezone: "Europe/Vienna"
  - name: "Kufstein"
    latitude: 47.58333
    longitude: 12.16667
    population: 9848
    dem: 483
    timezone: "Europe/Vienna"
  - name: "Kitzbuehel"
    latitude: 47.44637
    longitude: 12.39215
    population: 8272
    dem: 751
    timezone: "Europe/Vienna"
  - name: "Kirchberg in Tirol"
    latitude: 47.44539
    longitude: 12.31602
    population: 5245
    dem: 823
    timezone: "Europe/Vienna"
  - name: "Jenbach"
    latitude: 47.39173
    longitude: 11.77245
    population: 7120
    dem: 564
    timezone: "Europe/Vienna"
  - name: "Innsbruck"
    latitude: 47.26266
    longitude: 11.39454
    population: 132493
    elevation: 570
    dem: 587
    timezone: "Europe/Vienna"
  - name: "Imst"
    latitude: 47.24504
    longitude: 10.73974
    population: 10504
    dem: 823
    timezone: "Europe/Vienna"
  - name: "Hoetting"
    latitude: 47.26815
    longitude: 11.36868
    population: 35043
    dem: 636
    timezone: "Europe/Vienna"
  - name: "Axams"
    latitude: 47.23111
    longitude: 11.27892
    population: 5130
    dem: 876
    timezone: "Europe/Vienna"
  - name: "Arzl"
    latitude: 47.28333
    longitude: 11.43333
    population: 11082
    dem: 638
    timezone: "Europe/Vienna"
  - name: "Amras"
    latitude: 47.25
    longitude: 11.41667
    population: 5771
    dem: 781
    timezone: "Europe/Vienna"
  - name: "Absam"
    latitude: 47.29572
    longitude: 11.50593
    population: 7112
    dem: 650
    timezone: "Europe/Vienna"
  - name: "Kirchbichl"
    latitude: 47.51743
    longitude: 12.09629
    population: 5855
    dem: 529
    timezone: "Europe/Vienna"
- name: "Burgenland"
  cities:
  - name: "Pinkafeld"
    latitude: 47.36667
    longitude: 16.11667
    population: 5438
    dem: 389
    timezone: "Europe/Vienna"
  - name: "Oberwart"
    latitude: 47.28971
    longitude: 16.20595
    population: 7288
    dem: 316
    timezone: "Europe/Vienna"
  - name: "Neusiedl am See"
    latitude: 47.94901
    longitude: 16.8417
    population: 8235
    dem: 125
    timezone: "Europe/Vienna"
  - name: "Mattersburg"
    latitude: 47.73333
    longitude: 16.4
    population: 6577
    dem: 267
    timezone: "Europe/Vienna"
  - name: "Eisenstadt"
    latitude: 47.84565
    longitude: 16.52327
    population: 9217
    dem: 182
    timezone: "Europe/Vienna"
- name: "Wien"
  cities:
  - name: "Vienna"
    latitude: 48.20849
    longitude: 16.37208
    population: 1691468
    elevation: 171
    dem: 193
    timezone: "Europe/Vienna"
  - name: "Simmering"
    latitude: 48.18333
    longitude: 16.43333
    population: 101420
    dem: 163
    timezone: "Europe/Vienna"
  - name: "Ottakring"
    latitude: 48.21667
    longitude: 16.3
    population: 104627
    dem: 247
    timezone: "Europe/Vienna"
  - name: "Meidling"
    latitude: 48.16667
    longitude: 16.33333
    population: 97624
    dem: 212
    timezone: "Europe/Vienna"
  - name: "Innere Stadt"
    latitude: 48.20906
    longitude: 16.37135
    population: 16450
    elevation: 171
    dem: 190
    timezone: "Europe/Vienna"
  - name: "Hietzing"
    latitude: 48.18623
    longitude: 16.2965
    population: 54265
    dem: 201
    timezone: "Europe/Vienna"
  - name: "Hernals"
    latitude: 48.23333
    longitude: 16.26667
    population: 57546
    dem: 339
    timezone: "Europe/Vienna"
  - name: "Floridsdorf"
    latitude: 48.25
    longitude: 16.4
    population: 162779
    dem: 159
    timezone: "Europe/Vienna"
  - name: "Favoriten"
    latitude: 48.16116
    longitude: 16.38233
    population: 201882
    dem: 236
    timezone: "Europe/Vienna"
  - name: "Donaustadt"
    latitude: 48.2333
    longitude: 16.46002
    population: 187007
    dem: 149
    timezone: "Europe/Vienna"
- name: "Niederoesterreich"
  cities:
  - name: "Neu-Guntramsdorf"
    latitude: 48.0642
    longitude: 16.31573
    population: 9071
    dem: 192
    timezone: "Europe/Vienna"
  - name: "Wilhelmsburg"
    latitude: 48.10571
    longitude: 15.60539
    population: 6557
    dem: 320
    timezone: "Europe/Vienna"
  - name: "Wiener Neustadt"
    latitude: 47.80485
    longitude: 16.23196
    population: 44820
    dem: 270
    timezone: "Europe/Vienna"
  - name: "Wiener Neudorf"
    latitude: 48.08278
    longitude: 16.31384
    population: 9405
    dem: 202
    timezone: "Europe/Vienna"
  - name: "Weinzierl bei Krems"
    latitude: 48.4
    longitude: 15.6
    population: 24092
    dem: 207
    timezone: "Europe/Vienna"
  - name: "Voesendorf"
    latitude: 48.12107
    longitude: 16.34036
    population: 6990
    dem: 192
    timezone: "Europe/Vienna"
  - name: "Tulln"
    latitude: 48.32829
    longitude: 16.05858
    population: 12421
    dem: 175
    timezone: "Europe/Vienna"
  - name: "Traiskirchen"
    latitude: 48.01485
    longitude: 16.29324
    population: 6608
    dem: 204
    timezone: "Europe/Vienna"
  - name: "Ternitz"
    latitude: 47.71565
    longitude: 16.03575
    population: 7378
    dem: 395
    timezone: "Europe/Vienna"
  - name: "Strasshof an der Nordbahn"
    latitude: 48.31667
    longitude: 16.66667
    population: 10009
    dem: 161
    timezone: "Europe/Vienna"
  - name: "Stockerau"
    latitude: 48.38333
    longitude: 16.21667
    population: 16292
    dem: 171
    timezone: "Europe/Vienna"
  - name: "Spratzern"
    latitude: 48.17044
    longitude: 15.61844
    population: 6376
    dem: 286
    timezone: "Europe/Vienna"
  - name: "Sollenau"
    latitude: 47.89834
    longitude: 16.24833
    population: 5038
    dem: 261
    timezone: "Europe/Vienna"
  - name: "Schwechat"
    latitude: 48.13333
    longitude: 16.46667
    population: 12351
    dem: 163
    timezone: "Europe/Vienna"
  - name: "Sankt Valentin"
    latitude: 48.16667
    longitude: 14.51667
    population: 9340
    dem: 269
    timezone: "Europe/Vienna"
  - name: "Sankt Poelten"
    latitude: 48.2
    longitude: 15.63333
    population: 21911
    dem: 275
    timezone: "Europe/Vienna"
  - name: "Purkersdorf"
    latitude: 48.20769
    longitude: 16.17539
    population: 9701
    dem: 250
    timezone: "Europe/Vienna"
  - name: "Pressbaum"
    latitude: 48.18333
    longitude: 16.08333
    population: 6237
    dem: 317
    timezone: "Europe/Vienna"
  - name: "Perchtoldsdorf"
    latitude: 48.11935
    longitude: 16.26607
    population: 15047
    dem: 257
    timezone: "Europe/Vienna"
  - name: "Neunkirchen"
    latitude: 47.72096
    longitude: 16.08107
    population: 11461
    dem: 372
    timezone: "Europe/Vienna"
  - name: "Moedling"
    latitude: 48.08605
    longitude: 16.28921
    population: 20555
    dem: 222
    timezone: "Europe/Vienna"
  - name: "Mistelbach"
    latitude: 48.57
    longitude: 16.57667
    population: 6463
    dem: 228
    timezone: "Europe/Vienna"
  - name: "Maria Enzersdorf"
    latitude: 48.1
    longitude: 16.28333
    population: 8829
    dem: 223
    timezone: "Europe/Vienna"
  - name: "Leopoldsdorf"
    latitude: 48.11557
    longitude: 16.39126
    population: 5078
    dem: 185
    timezone: "Europe/Vienna"
  - name: "Langenzersdorf"
    latitude: 48.30432
    longitude: 16.36143
    population: 8137
    dem: 161
    timezone: "Europe/Vienna"
  - name: "Krems an der Donau"
    latitude: 48.40921
    longitude: 15.61415
    population: 14473
    dem: 195
    timezone: "Europe/Vienna"
  - name: "Kottingbrunn"
    latitude: 47.95096
    longitude: 16.22715
    population: 7417
    dem: 252
    timezone: "Europe/Vienna"
  - name: "Korneuburg"
    latitude: 48.35
    longitude: 16.33333
    population: 12986
    dem: 164
    timezone: "Europe/Vienna"
  - name: "Klosterneuburg"
    latitude: 48.30521
    longitude: 16.32522
    population: 15614
    dem: 192
    timezone: "Europe/Vienna"
  - name: "Horn"
    latitude: 48.66274
    longitude: 15.65663
    population: 5494
    dem: 307
    timezone: "Europe/Vienna"
  - name: "Hollabrunn"
    latitude: 48.55
    longitude: 16.08333
    population: 6882
    dem: 257
    timezone: "Europe/Vienna"
  - name: "Himberg"
    latitude: 48.08333
    longitude: 16.43333
    population: 5331
    dem: 168
    timezone: "Europe/Vienna"
  - name: "Hainburg an der Donau"
    latitude: 48.14627
    longitude: 16.94504
    population: 6570
    dem: 170
    timezone: "Europe/Vienna"
  - name: "Guntramsdorf"
    latitude: 48.04687
    longitude: 16.31384
    population: 9179
    dem: 188
    timezone: "Europe/Vienna"
  - name: "Gross-Enzersdorf"
    latitude: 48.20278
    longitude: 16.55083
    population: 6616
    elevation: 156
    dem: 157
    timezone: "Europe/Vienna"
  - name: "Gerasdorf bei Wien"
    latitude: 48.29447
    longitude: 16.46765
    population: 9442
    dem: 158
    timezone: "Europe/Vienna"
  - name: "Gaenserndorf"
    latitude: 48.33925
    longitude: 16.72016
    population: 11404
    dem: 164
    timezone: "Europe/Vienna"
  - name: "Ebreichsdorf"
    latitude: 47.95579
    longitude: 16.40705
    population: 5236
    dem: 199
    timezone: "Europe/Vienna"
  - name: "Deutsch-Wagram"
    latitude: 48.29972
    longitude: 16.56667
    population: 8651
    dem: 163
    timezone: "Europe/Vienna"
  - name: "Brunn am Gebirge"
    latitude: 48.10697
    longitude: 16.28466
    population: 11864
    dem: 223
    timezone: "Europe/Vienna"
  - name: "Bruck an der Leitha"
    latitude: 48.01667
    longitude: 16.76667
    population: 6882
    dem: 154
    timezone: "Europe/Vienna"
  - name: "Breitenfurt bei Wien"
    latitude: 48.13333
    longitude: 16.15
    population: 5853
    dem: 339
    timezone: "Europe/Vienna"
  - name: "Berndorf"
    latitude: 47.94567
    longitude: 16.10973
    population: 9064
    dem: 311
    timezone: "Europe/Vienna"
  - name: "Bad Voeslau"
    latitude: 47.96533
    longitude: 16.21359
    population: 7469
    dem: 262
    timezone: "Europe/Vienna"
  - name: "Baden"
    latitude: 48.00543
    longitude: 16.23264
    population: 26286
    dem: 230
    timezone: "Europe/Vienna"
  - name: "Amstetten"
    latitude: 48.1229
    longitude: 14.87206
    population: 15559
    dem: 277
    timezone: "Europe/Vienna"
- name: "Steiermark"
  cities:
  - name: "Wetzelsdorf"
    latitude: 47.05293
    longitude: 15.39923
    population: 15687
    dem: 362
    timezone: "Europe/Vienna"
  - name: "Weiz"
    latitude: 47.21667
    longitude: 15.61667
    population: 9221
    dem: 506
    timezone: "Europe/Vienna"
  - name: "Waltendorf"
    latitude: 47.06667
    longitude: 15.46667
    population: 11960
    dem: 377
    timezone: "Europe/Vienna"
  - name: "Voitsberg"
    latitude: 47.04445
    longitude: 15.15313
    population: 9403
    dem: 410
    timezone: "Europe/Vienna"
  - name: "Trofaiach"
    latitude: 47.42524
    longitude: 15.00681
    population: 7728
    dem: 660
    timezone: "Europe/Vienna"
  - name: "Strassgang"
    latitude: 47.03333
    longitude: 15.4
    population: 16268
    dem: 351
    timezone: "Europe/Vienna"
  - name: "Seiersberg"
    latitude: 47.0
    longitude: 15.4
    population: 7728
    dem: 342
    timezone: "Europe/Vienna"
  - name: "Sankt Peter"
    latitude: 47.05
    longitude: 15.46667
    population: 15187
    dem: 353
    timezone: "Europe/Vienna"
  - name: "Ries"
    latitude: 47.08315
    longitude: 15.485
    population: 5819
    dem: 398
    timezone: "Europe/Vienna"
  - name: "Puntigam"
    latitude: 47.03333
    longitude: 15.43333
    population: 8647
    dem: 348
    timezone: "Europe/Vienna"
  - name: "Muerzzuschlag"
    latitude: 47.6066
    longitude: 15.67226
    population: 5975
    elevation: 680
    dem: 716
    timezone: "Europe/Vienna"
  - name: "Mariatrost"
    latitude: 47.1
    longitude: 15.5
    population: 9631
    dem: 488
    timezone: "Europe/Vienna"
  - name: "Liezen"
    latitude: 47.56667
    longitude: 14.23333
    population: 6587
    dem: 642
    timezone: "Europe/Vienna"
  - name: "Liebenau"
    latitude: 47.03333
    longitude: 15.46667
    population: 14447
    dem: 344
    timezone: "Europe/Vienna"
  - name: "Leoben"
    latitude: 47.3765
    longitude: 15.09144
    population: 8264
    dem: 543
    timezone: "Europe/Vienna"
  - name: "Leibnitz"
    latitude: 46.78161
    longitude: 15.53836
    population: 8533
    dem: 273
    timezone: "Europe/Vienna"
  - name: "Knittelfeld"
    latitude: 47.21667
    longitude: 14.81667
    population: 11521
    dem: 654
    timezone: "Europe/Vienna"
  - name: "Kindberg"
    latitude: 47.5
    longitude: 15.45
    population: 5197
    dem: 584
    timezone: "Europe/Vienna"
  - name: "Kalsdorf bei Graz"
    latitude: 46.96528
    longitude: 15.48028
    population: 5171
    dem: 318
    timezone: "Europe/Vienna"
  - name: "Judendorf"
    latitude: 47.4
    longitude: 15.1
    population: 5475
    dem: 693
    timezone: "Europe/Vienna"
  - name: "Judenburg"
    latitude: 47.16667
    longitude: 14.66667
    population: 8481
    dem: 754
    timezone: "Europe/Vienna"
  - name: "Hafendorf"
    latitude: 47.45653
    longitude: 15.31837
    population: 6506
    dem: 525
    timezone: "Europe/Vienna"
  - name: "Graz"
    latitude: 47.06667
    longitude: 15.45
    population: 222326
    dem: 363
    timezone: "Europe/Vienna"
  - name: "Gratkorn"
    latitude: 47.13333
    longitude: 15.35
    population: 6806
    dem: 386
    timezone: "Europe/Vienna"
  - name: "Goesting"
    latitude: 47.09788
    longitude: 15.39777
    population: 11255
    dem: 376
    timezone: "Europe/Vienna"
  - name: "Gleisdorf"
    latitude: 47.10559
    longitude: 15.71011
    population: 6418
    dem: 362
    timezone: "Europe/Vienna"
  - name: "Fuerstenfeld"
    latitude: 47.05
    longitude: 16.08333
    population: 6327
    dem: 255
    timezone: "Europe/Vienna"
  - name: "Eggenberg"
    latitude: 47.07
    longitude: 15.39871
    population: 20511
    dem: 369
    timezone: "Europe/Vienna"
  - name: "Deutschlandsberg"
    latitude: 46.81528
    longitude: 15.22222
    population: 8429
    dem: 362
    timezone: "Europe/Vienna"
  - name: "Deuchendorf"
    latitude: 47.46593
    longitude: 15.32172
    population: 5507
    dem: 545
    timezone: "Europe/Vienna"
  - name: "Bruck an der Mur"
    latitude: 47.41667
    longitude: 15.28333
    population: 9093
    dem: 572
    timezone: "Europe/Vienna"
  - name: "Kirchenviertel"
    latitude: 47.13124
    longitude: 15.34764
    population: 5791
    dem: 376
    timezone: "Europe/Vienna"
  - name: "Jakomini"
    latitude: 47.05441
    longitude: 15.44984
    population: 32912
    dem: 344
    timezone: "Europe/Vienna"
  - name: "Lend"
    latitude: 47.08256
    longitude: 15.41589
    population: 31147
    dem: 352
    timezone: "Europe/Vienna"
  - name: "Geidorf"
    latitude: 47.08393
    longitude: 15.444
    population: 24767
    dem: 397
    timezone: "Europe/Vienna"
  - name: "Sankt Leonhard"
    latitude: 47.06924
    longitude: 15.45784
    population: 15853
    dem: 365
    timezone: "Europe/Vienna"
  - name: "Andritz"
    latitude: 47.11387
    longitude: 15.42348
    population: 19020
    dem: 366
    timezone: "Europe/Vienna"
  - name: "Gries"
    latitude: 47.06236
    longitude: 15.42421
    population: 29363
    dem: 342
    timezone: "Europe/Vienna"
- name: "Salzburg"
  cities:
  - name: "Zell am See"
    latitude: 47.32556
    longitude: 12.79444
    population: 7619
    dem: 784
    timezone: "Europe/Vienna"
  - name: "Salzburg"
    latitude: 47.79941
    longitude: 13.04399
    population: 153377
    elevation: 424
    dem: 435
    timezone: "Europe/Vienna"
  - name: "Saalfelden am Steinernen Meer"
    latitude: 47.42681
    longitude: 12.848
    population: 8688
    dem: 742
    timezone: "Europe/Vienna"
  - name: "Oberndorf bei Salzburg"
    latitude: 47.95
    longitude: 12.93333
    population: 5794
    dem: 430
    timezone: "Europe/Vienna"
  - name: "Hallein"
    latitude: 47.68333
    longitude: 13.1
    population: 7208
    dem: 447
    timezone: "Europe/Vienna"
  - name: "Bischofshofen"
    latitude: 47.41667
    longitude: 13.21667
    population: 7457
    dem: 558
    timezone: "Europe/Vienna"
- name: "Vorarlberg"
  cities:
  - name: "Wolfurt"
    latitude: 47.46667
    longitude: 9.75
    population: 8446
    dem: 413
    timezone: "Europe/Vienna"
  - name: "Rankweil"
    latitude: 47.27108
    longitude: 9.64308
    population: 11855
    dem: 471
    timezone: "Europe/Vienna"
  - name: "Lustenau"
    latitude: 47.42642
    longitude: 9.65851
    population: 22821
    dem: 405
    timezone: "Europe/Vienna"
  - name: "Lochau"
    latitude: 47.53333
    longitude: 9.75
    population: 5747
    dem: 415
    timezone: "Europe/Vienna"
  - name: "Lauterach"
    latitude: 47.47572
    longitude: 9.72941
    population: 10267
    dem: 410
    timezone: "Europe/Vienna"
  - name: "Hoerbranz"
    latitude: 47.55
    longitude: 9.75
    population: 6346
    dem: 416
    timezone: "Europe/Vienna"
  - name: "Hohenems"
    latitude: 47.36667
    longitude: 9.68306
    population: 16317
    dem: 417
    timezone: "Europe/Vienna"
  - name: "Hoechst"
    latitude: 47.45934
    longitude: 9.6405
    population: 7995
    dem: 402
    timezone: "Europe/Vienna"
  - name: "Hard"
    latitude: 47.48306
    longitude: 9.68306
    population: 13495
    dem: 396
    timezone: "Europe/Vienna"
  - name: "Goetzis"
    latitude: 47.33306
    longitude: 9.63306
    population: 11473
    dem: 427
    timezone: "Europe/Vienna"
  - name: "Feldkirch"
    latitude: 47.23306
    longitude: 9.6
    population: 33420
    dem: 475
    timezone: "Europe/Vienna"
  - name: "Dornbirn"
    latitude: 47.41427
    longitude: 9.74195
    population: 49278
    dem: 437
    timezone: "Europe/Vienna"
  - name: "Bregenz"
    latitude: 47.50311
    longitude: 9.7471
    population: 29471
    dem: 405
    timezone: "Europe/Vienna"
  - name: "Bludenz"
    latitude: 47.15476
    longitude: 9.82255
    population: 13534
    dem: 567
    timezone: "Europe/Vienna"
  - name: "Altach"
    latitude: 47.35
    longitude: 9.65
    population: 6624
    dem: 410
    timezone: "Europe/Vienna"
  - name: "Frastanz"
    latitude: 47.21735
    longitude: 9.62995
    population: 6434
    dem: 494
    timezone: "Europe/Vienna"
- name: "Kaernten"
  cities:
  - name: "Woelfnitz"
    latitude: 46.66639
    longitude: 14.25806
    population: 5316
    dem: 458
    timezone: "Europe/Vienna"
  - name: "Voelkendorf"
    latitude: 46.60806
    longitude: 13.83153
    population: 5474
    dem: 520
    timezone: "Europe/Vienna"
  - name: "Villach"
    latitude: 46.61028
    longitude: 13.85583
    population: 58882
    dem: 494
    timezone: "Europe/Vienna"
  - name: "Viktring"
    latitude: 46.59194
    longitude: 14.26917
    population: 9407
    dem: 458
    timezone: "Europe/Vienna"
  - name: "Spittal an der Drau"
    latitude: 46.8
    longitude: 13.5
    population: 12880
    dem: 553
    timezone: "Europe/Vienna"
  - name: "Sankt Veit an der Glan"
    latitude: 46.76806
    longitude: 14.36028
    population: 10841
    dem: 485
    timezone: "Europe/Vienna"
  - name: "Sankt Ruprecht"
    latitude: 46.6
    longitude: 14.31667
    population: 7442
    dem: 438
    timezone: "Europe/Vienna"
  - name: "Sankt Peter"
    latitude: 46.62978
    longitude: 14.34016
    population: 20320
    dem: 438
    timezone: "Europe/Vienna"
  - name: "Sankt Martin"
    latitude: 46.61667
    longitude: 14.28333
    population: 20000
    dem: 443
    timezone: "Europe/Vienna"
  - name: "Klagenfurt am Woerthersee"
    latitude: 46.62472
    longitude: 14.30528
    population: 90610
    dem: 450
    timezone: "Europe/Vienna"
  - name: "Annabichl"
    latitude: 46.65
    longitude: 14.31667
    population: 11374
    dem: 454
    timezone: "Europe/Vienna"
  - name: "Finkenstein am Faaker See"
    latitude: 46.57904
    longitude: 13.93496
    population: 8406
    dem: 557
    timezone: "Europe/Vienna"
  - name: "Auen"
    latitude: 46.59963
    longitude: 13.84389
    population: 6563
    dem: 492
    timezone: "Europe/Vienna"
  - name: "Villacher Vorstadt"
    latitude: 46.62368
    longitude: 14.28892
    population: 8421
    dem: 448
    timezone: "Europe/Vienna"
  - name: "Lind"
    latitude: 46.62244
    longitude: 13.84715
    population: 5252
    dem: 513
    timezone: "Europe/Vienna"
  - name: "Villach-Innere Stadt"
    latitude: 46.61275
    longitude: 13.84638
    population: 8189
    dem: 506
    timezone: "Europe/Vienna"
