---
name: "Burkina Faso"
iso: "BF"
iso3: "BFA"
code: "854"
capital: "Ouagadougou"
area: 274200.0
population: 16241811
continent: "AF"
currencyCode: "XOF"
currencyName: "Franc"
phone: "226"
languages: "fr-BF,mos"
neighbours: "NE,BJ,GH,CI,TG,ML"
regions:
- name: "High-Basins Region"
  cities:
  - name: "Hounde"
    latitude: 11.5
    longitude: -3.51667
    population: 36593
    dem: 349
    timezone: "Africa/Ouagadougou"
  - name: "Bobo-Dioulasso"
    latitude: 11.17715
    longitude: -4.2979
    population: 360106
    dem: 423
    timezone: "Africa/Ouagadougou"
- name: "Est"
  cities:
  - name: "Pama"
    latitude: 11.24972
    longitude: 0.7075
    population: 8902
    dem: 222
    timezone: "Africa/Ouagadougou"
  - name: "Fada Ngourma"
    latitude: 12.06157
    longitude: 0.35843
    population: 33910
    dem: 298
    timezone: "Africa/Ouagadougou"
  - name: "Diapaga"
    latitude: 12.07305
    longitude: 1.78838
    population: 26013
    dem: 273
    timezone: "Africa/Ouagadougou"
  - name: "Bogande"
    latitude: 12.9704
    longitude: -0.14953
    population: 9854
    dem: 287
    timezone: "Africa/Ouagadougou"
- name: "Cascades Region"
  cities:
  - name: "Banfora"
    latitude: 10.63333
    longitude: -4.76667
    population: 60288
    dem: 299
    timezone: "Africa/Ouagadougou"
- name: "Centre-Nord"
  cities:
  - name: "Kongoussi"
    latitude: 13.32583
    longitude: -1.53472
    population: 26338
    dem: 330
    timezone: "Africa/Ouagadougou"
  - name: "Kaya"
    latitude: 13.09167
    longitude: -1.08444
    population: 39229
    dem: 341
    timezone: "Africa/Ouagadougou"
  - name: "Boulsa"
    latitude: 12.66664
    longitude: -0.57469
    population: 17489
    dem: 313
    timezone: "Africa/Ouagadougou"
- name: "Plateau-Central"
  cities:
  - name: "Zorgo"
    latitude: 12.24922
    longitude: -0.61527
    population: 23892
    dem: 312
    timezone: "Africa/Ouagadougou"
  - name: "Ziniare"
    latitude: 12.58186
    longitude: -1.2971
    population: 12703
    dem: 303
    timezone: "Africa/Ouagadougou"
  - name: "Bousse"
    latitude: 12.66121
    longitude: -1.89515
    population: 15868
    dem: 319
    timezone: "Africa/Ouagadougou"
- name: "Nord"
  cities:
  - name: "Yako"
    latitude: 12.9591
    longitude: -2.26075
    population: 22904
    dem: 332
    timezone: "Africa/Ouagadougou"
  - name: "Titao"
    latitude: 13.76667
    longitude: -2.06667
    population: 19131
    dem: 326
    timezone: "Africa/Ouagadougou"
  - name: "Ouahigouya"
    latitude: 13.58278
    longitude: -2.42158
    population: 61096
    dem: 328
    timezone: "Africa/Ouagadougou"
  - name: "Gourcy"
    latitude: 13.20776
    longitude: -2.35893
    population: 16765
    dem: 331
    timezone: "Africa/Ouagadougou"
- name: "Centre-Est"
  cities:
  - name: "Tenkodogo"
    latitude: 11.78
    longitude: -0.36972
    population: 37658
    dem: 304
    timezone: "Africa/Ouagadougou"
  - name: "Ouargaye"
    latitude: 11.50202
    longitude: 0.05886
    population: 10103
    dem: 292
    timezone: "Africa/Ouagadougou"
  - name: "Koupela"
    latitude: 12.17864
    longitude: -0.35103
    population: 32052
    dem: 306
    timezone: "Africa/Ouagadougou"
  - name: "Garango"
    latitude: 11.8
    longitude: -0.55056
    population: 29076
    dem: 304
    timezone: "Africa/Ouagadougou"
- name: "Centre-Sud"
  cities:
  - name: "Po"
    latitude: 11.16972
    longitude: -1.145
    population: 17924
    dem: 319
    timezone: "Africa/Ouagadougou"
  - name: "Manga"
    latitude: 11.66361
    longitude: -1.07306
    population: 15173
    dem: 286
    timezone: "Africa/Ouagadougou"
  - name: "Kombissiri"
    latitude: 12.06884
    longitude: -1.33644
    population: 30137
    dem: 304
    timezone: "Africa/Ouagadougou"
- name: "Southwest Region"
  cities:
  - name: "Diebougou"
    latitude: 10.96209
    longitude: -3.24967
    population: 12732
    dem: 290
    timezone: "Africa/Ouagadougou"
  - name: "Dano"
    latitude: 11.1464
    longitude: -3.05784
    population: 11153
    dem: 285
    timezone: "Africa/Ouagadougou"
  - name: "Batie"
    latitude: 9.88333
    longitude: -2.91667
    population: 6483
    dem: 307
    timezone: "Africa/Ouagadougou"
- name: "Boucle du Mouhoun Region"
  cities:
  - name: "Tougan"
    latitude: 13.0725
    longitude: -3.0694
    population: 17590
    dem: 300
    timezone: "Africa/Ouagadougou"
  - name: "Toma"
    latitude: 12.75844
    longitude: -2.89879
    population: 12401
    dem: 287
    timezone: "Africa/Ouagadougou"
  - name: "Salanso"
    latitude: 12.17423
    longitude: -4.08477
    population: 10385
    dem: 316
    timezone: "Africa/Ouagadougou"
  - name: "Nouna"
    latitude: 12.72939
    longitude: -3.86305
    population: 29048
    dem: 277
    timezone: "Africa/Ouagadougou"
  - name: "Dedougou"
    latitude: 12.46338
    longitude: -3.46075
    population: 45341
    dem: 302
    timezone: "Africa/Ouagadougou"
  - name: "Boromo"
    latitude: 11.74542
    longitude: -2.93006
    population: 13157
    dem: 263
    timezone: "Africa/Ouagadougou"
- name: "Centre"
  cities:
  - name: "Ouagadougou"
    latitude: 12.36566
    longitude: -1.53388
    population: 1086505
    dem: 299
    timezone: "Africa/Ouagadougou"
- name: "Centre-Ouest"
  cities:
  - name: "Reo"
    latitude: 12.31963
    longitude: -2.47094
    population: 37535
    dem: 300
    timezone: "Africa/Ouagadougou"
  - name: "Pitmoaga"
    latitude: 12.24564
    longitude: -1.88148
    population: 7991
    dem: 331
    timezone: "Africa/Ouagadougou"
  - name: "Leo"
    latitude: 11.10033
    longitude: -2.10654
    population: 26884
    dem: 349
    timezone: "Africa/Ouagadougou"
  - name: "Koudougou"
    latitude: 12.25263
    longitude: -2.36272
    population: 87347
    dem: 303
    timezone: "Africa/Ouagadougou"
  - name: "Kokologo"
    latitude: 12.19392
    longitude: -1.87687
    population: 25958
    dem: 342
    timezone: "Africa/Ouagadougou"
  - name: "Gouloure"
    latitude: 12.23484
    longitude: -1.93394
    population: 6677
    dem: 325
    timezone: "Africa/Ouagadougou"
- name: "Sahel"
  cities:
  - name: "Gorom-Gorom"
    latitude: 14.4429
    longitude: -0.23468
    population: 6691
    dem: 274
    timezone: "Africa/Ouagadougou"
  - name: "Dori"
    latitude: 14.0354
    longitude: -0.0345
    population: 37806
    dem: 282
    timezone: "Africa/Ouagadougou"
  - name: "Djibo"
    latitude: 14.0994
    longitude: -1.62554
    population: 22223
    dem: 301
    timezone: "Africa/Ouagadougou"
