---
name: "Brazil"
iso: "BR"
iso3: "BRA"
code: "076"
capital: "Brasilia"
area: 8511965.0
population: 201103330
continent: "SA"
currencyCode: "BRL"
currencyName: "Real"
phone: "55"
postalCodeFormat: "#####-###"
postalCodeRegex: "^\\d{5}-\\d{3}$"
languages: "pt-BR,es,en,fr"
neighbours: "SR,PE,BO,UY,GY,PY,GF,VE,CO,AR"
regions:
- name: "Rio Grande do Sul"
  cities:
  - name: "Viamao"
    latitude: -30.08111
    longitude: -51.02333
    population: 285269
    dem: 108
    timezone: "America/Sao_Paulo"
  - name: "Veranopolis"
    latitude: -28.93611
    longitude: -51.54944
    population: 19861
    dem: 669
    timezone: "America/Sao_Paulo"
  - name: "Venancio Aires"
    latitude: -29.60639
    longitude: -52.19194
    population: 40627
    dem: 43
    timezone: "America/Sao_Paulo"
  - name: "Vacaria"
    latitude: -28.51222
    longitude: -50.93389
    population: 56765
    dem: 970
    timezone: "America/Sao_Paulo"
  - name: "Uruguaiana"
    latitude: -29.75472
    longitude: -57.08833
    population: 123480
    dem: 79
    timezone: "America/Sao_Paulo"
  - name: "Tupancireta"
    latitude: -29.08056
    longitude: -53.83583
    population: 17488
    dem: 464
    timezone: "America/Sao_Paulo"
  - name: "Triunfo"
    latitude: -29.94333
    longitude: -51.71806
    population: 14749
    dem: 22
    timezone: "America/Sao_Paulo"
  - name: "Tres Passos"
    latitude: -27.45556
    longitude: -53.93194
    population: 17286
    dem: 449
    timezone: "America/Sao_Paulo"
  - name: "Tres de Maio"
    latitude: -27.77333
    longitude: -54.24
    population: 18278
    dem: 351
    timezone: "America/Sao_Paulo"
  - name: "Tres Coroas"
    latitude: -29.51694
    longitude: -50.77778
    population: 21051
    dem: 53
    timezone: "America/Sao_Paulo"
  - name: "Tramandai"
    latitude: -29.98472
    longitude: -50.13361
    population: 34734
    dem: 9
    timezone: "America/Sao_Paulo"
  - name: "Torres"
    latitude: -29.33528
    longitude: -49.72694
    population: 32791
    dem: 8
    timezone: "America/Sao_Paulo"
  - name: "Teutonia"
    latitude: -29.44806
    longitude: -51.80639
    population: 21834
    dem: 93
    timezone: "America/Sao_Paulo"
  - name: "Taquari"
    latitude: -29.79972
    longitude: -51.86444
    population: 27107
    dem: 57
    timezone: "America/Sao_Paulo"
  - name: "Taquara"
    latitude: -29.65056
    longitude: -50.78056
    population: 48051
    dem: 33
    timezone: "America/Sao_Paulo"
  - name: "Tapes"
    latitude: -30.67333
    longitude: -51.39583
    population: 18570
    dem: 9
    timezone: "America/Sao_Paulo"
  - name: "Tapejara"
    latitude: -28.06806
    longitude: -52.01389
    population: 14064
    dem: 666
    timezone: "America/Sao_Paulo"
  - name: "Soledade"
    latitude: -28.81833
    longitude: -52.51028
    population: 24791
    dem: 717
    timezone: "America/Sao_Paulo"
  - name: "Sarandi"
    latitude: -27.94389
    longitude: -52.92306
    population: 15158
    dem: 505
    timezone: "America/Sao_Paulo"
  - name: "Sapucaia"
    latitude: -29.83333
    longitude: -51.15
    population: 130937
    dem: 37
    timezone: "America/Sao_Paulo"
  - name: "Sapiranga"
    latitude: -29.63806
    longitude: -51.00694
    population: 76051
    dem: 36
    timezone: "America/Sao_Paulo"
  - name: "Sao Sepe"
    latitude: -30.16056
    longitude: -53.56528
    population: 19181
    dem: 96
    timezone: "America/Sao_Paulo"
  - name: "Sao Sebastiao do Cai"
    latitude: -29.58667
    longitude: -51.37556
    population: 19012
    dem: 16
    timezone: "America/Sao_Paulo"
  - name: "Sao Pedro do Sul"
    latitude: -29.62056
    longitude: -54.17889
    population: 12137
    dem: 185
    timezone: "America/Sao_Paulo"
  - name: "Sao Marcos"
    latitude: -28.97111
    longitude: -51.06806
    population: 18591
    dem: 741
    timezone: "America/Sao_Paulo"
  - name: "Sao Luiz Gonzaga"
    latitude: -28.40833
    longitude: -54.96083
    population: 31798
    dem: 264
    timezone: "America/Sao_Paulo"
  - name: "Sao Lourenco do Sul"
    latitude: -31.36528
    longitude: -51.97833
    population: 25340
    dem: 13
    timezone: "America/Sao_Paulo"
  - name: "Sao Leopoldo"
    latitude: -29.76028
    longitude: -51.14722
    population: 209229
    dem: 10
    timezone: "America/Sao_Paulo"
  - name: "Sao Jeronimo"
    latitude: -29.95917
    longitude: -51.72222
    population: 17056
    dem: 18
    timezone: "America/Sao_Paulo"
  - name: "Sao Gabriel"
    latitude: -30.33639
    longitude: -54.32
    population: 55434
    dem: 119
    timezone: "America/Sao_Paulo"
  - name: "Sao Francisco de Paula"
    latitude: -29.44806
    longitude: -50.58361
    population: 13292
    dem: 900
    timezone: "America/Sao_Paulo"
  - name: "Sao Francisco de Assis"
    latitude: -29.55028
    longitude: -55.13111
    population: 14305
    dem: 134
    timezone: "America/Sao_Paulo"
  - name: "Sao Borja"
    latitude: -28.66056
    longitude: -56.00444
    population: 59613
    dem: 98
    timezone: "America/Sao_Paulo"
  - name: "Santo Augusto"
    latitude: -27.85083
    longitude: -53.77722
    population: 10305
    dem: 533
    timezone: "America/Sao_Paulo"
  - name: "Santo Angelo"
    latitude: -28.29917
    longitude: -54.26306
    population: 64606
    dem: 295
    timezone: "America/Sao_Paulo"
  - name: "Santiago"
    latitude: -29.19167
    longitude: -54.86722
    population: 46611
    dem: 426
    timezone: "America/Sao_Paulo"
  - name: "Santa Vitoria do Palmar"
    latitude: -33.51889
    longitude: -53.36806
    population: 27775
    dem: 22
    timezone: "America/Sao_Paulo"
  - name: "Santa Rosa"
    latitude: -27.87083
    longitude: -54.48139
    population: 58957
    dem: 284
    timezone: "America/Sao_Paulo"
  - name: "Santana do Livramento"
    latitude: -30.89083
    longitude: -55.53278
    population: 89694
    dem: 213
    timezone: "America/Sao_Paulo"
  - name: "Santa Maria"
    latitude: -29.68417
    longitude: -53.80694
    population: 249219
    dem: 146
    timezone: "America/Sao_Paulo"
  - name: "Santa Cruz do Sul"
    latitude: -29.7175
    longitude: -52.42583
    population: 106113
    dem: 69
    timezone: "America/Sao_Paulo"
  - name: "Sananduva"
    latitude: -27.94972
    longitude: -51.80667
    population: 9601
    dem: 655
    timezone: "America/Sao_Paulo"
  - name: "Rosario do Sul"
    latitude: -30.25833
    longitude: -54.91417
    population: 36721
    dem: 123
    timezone: "America/Sao_Paulo"
  - name: "Rolante"
    latitude: -29.65056
    longitude: -50.57583
    population: 15594
    dem: 47
    timezone: "America/Sao_Paulo"
  - name: "Rio Pardo"
    latitude: -29.98972
    longitude: -52.37806
    population: 26998
    dem: 36
    timezone: "America/Sao_Paulo"
  - name: "Rio Grande"
    latitude: -32.035
    longitude: -52.09861
    population: 187838
    dem: 7
    timezone: "America/Sao_Paulo"
  - name: "Quarai"
    latitude: -30.3875
    longitude: -56.45139
    population: 23229
    dem: 115
    timezone: "America/Sao_Paulo"
  - name: "Porto Alegre"
    latitude: -30.03283
    longitude: -51.23019
    population: 1372741
    dem: 1
    timezone: "America/Sao_Paulo"
  - name: "Portao"
    latitude: -29.70167
    longitude: -51.24194
    population: 21051
    dem: 49
    timezone: "America/Sao_Paulo"
  - name: "Pinheiro Machado"
    latitude: -31.57833
    longitude: -53.38111
    population: 11176
    dem: 437
    timezone: "America/Sao_Paulo"
  - name: "Pelotas"
    latitude: -31.76997
    longitude: -52.34101
    population: 320674
    dem: 6
    timezone: "America/Sao_Paulo"
  - name: "Passo Fundo"
    latitude: -28.26278
    longitude: -52.40667
    population: 179529
    dem: 689
    timezone: "America/Sao_Paulo"
  - name: "Parobe"
    latitude: -29.62861
    longitude: -50.83472
    population: 48559
    dem: 55
    timezone: "America/Sao_Paulo"
  - name: "Panambi"
    latitude: -28.2925
    longitude: -53.50167
    population: 30407
    dem: 421
    timezone: "America/Sao_Paulo"
  - name: "Palmeira das Missoes"
    latitude: -27.89944
    longitude: -53.31361
    population: 30954
    dem: 623
    timezone: "America/Sao_Paulo"
  - name: "Palmares do Sul"
    latitude: -30.25778
    longitude: -50.50972
    population: 8392
    dem: 5
    timezone: "America/Sao_Paulo"
  - name: "Osorio"
    latitude: -29.88667
    longitude: -50.26972
    population: 34628
    dem: 18
    timezone: "America/Sao_Paulo"
  - name: "Novo Hamburgo"
    latitude: -29.67833
    longitude: -51.13056
    population: 253841
    dem: 56
    timezone: "America/Sao_Paulo"
  - name: "Nova Prata"
    latitude: -28.78389
    longitude: -51.61
    population: 17943
    dem: 658
    timezone: "America/Sao_Paulo"
  - name: "Nova Petropolis"
    latitude: -29.37639
    longitude: -51.11444
    population: 16049
    dem: 589
    timezone: "America/Sao_Paulo"
  - name: "Nao Me Toque"
    latitude: -28.45917
    longitude: -52.82083
    population: 12555
    dem: 524
    timezone: "America/Sao_Paulo"
  - name: "Montenegro"
    latitude: -29.68861
    longitude: -51.46111
    population: 54057
    dem: 21
    timezone: "America/Sao_Paulo"
  - name: "Marau"
    latitude: -28.44917
    longitude: -52.2
    population: 26860
    dem: 553
    timezone: "America/Sao_Paulo"
  - name: "Lajeado"
    latitude: -29.46694
    longitude: -51.96139
    population: 65407
    dem: 28
    timezone: "America/Sao_Paulo"
  - name: "Lagoa Vermelha"
    latitude: -28.20861
    longitude: -51.52583
    population: 24445
    dem: 793
    timezone: "America/Sao_Paulo"
  - name: "Julio de Castilhos"
    latitude: -29.22694
    longitude: -53.68167
    population: 20388
    elevation: 529
    dem: 518
    timezone: "America/Sao_Paulo"
  - name: "Jaguarao"
    latitude: -32.56611
    longitude: -53.37583
    population: 29613
    dem: 19
    timezone: "America/Sao_Paulo"
  - name: "Ivoti"
    latitude: -29.59111
    longitude: -51.16056
    population: 18171
    dem: 125
    timezone: "America/Sao_Paulo"
  - name: "Itaqui"
    latitude: -29.12528
    longitude: -56.55306
    population: 34631
    dem: 61
    timezone: "America/Sao_Paulo"
  - name: "Ijui"
    latitude: -28.38778
    longitude: -53.91472
    population: 71202
    dem: 329
    timezone: "America/Sao_Paulo"
  - name: "Igrejinha"
    latitude: -29.57444
    longitude: -50.79028
    population: 28679
    dem: 36
    timezone: "America/Sao_Paulo"
  - name: "Ibiruba"
    latitude: -28.6275
    longitude: -53.08972
    population: 14180
    dem: 404
    timezone: "America/Sao_Paulo"
  - name: "Horizontina"
    latitude: -27.62583
    longitude: -54.30778
    population: 14416
    dem: 323
    timezone: "America/Sao_Paulo"
  - name: "Herval"
    latitude: -32.02361
    longitude: -53.39556
    population: 18063
    dem: 283
    timezone: "America/Sao_Paulo"
  - name: "Guapore"
    latitude: -28.84556
    longitude: -51.89028
    population: 20050
    dem: 482
    timezone: "America/Sao_Paulo"
  - name: "Gravatai"
    latitude: -29.94218
    longitude: -50.99278
    population: 238778
    dem: 41
    timezone: "America/Sao_Paulo"
  - name: "Girua"
    latitude: -28.02833
    longitude: -54.34972
    population: 12168
    dem: 432
    timezone: "America/Sao_Paulo"
  - name: "Garibaldi"
    latitude: -29.25611
    longitude: -51.53361
    population: 30364
    dem: 607
    timezone: "America/Sao_Paulo"
  - name: "Frederico Westphalen"
    latitude: -27.35917
    longitude: -53.39444
    population: 20896
    dem: 528
    timezone: "America/Sao_Paulo"
  - name: "Flores da Cunha"
    latitude: -29.02889
    longitude: -51.18167
    population: 20521
    dem: 748
    timezone: "America/Sao_Paulo"
  - name: "Farroupilha"
    latitude: -29.225
    longitude: -51.34778
    population: 57650
    dem: 773
    timezone: "America/Sao_Paulo"
  - name: "Estrela"
    latitude: -28.06111
    longitude: -50.93833
    population: 24200
    dem: 910
    timezone: "America/Sao_Paulo"
  - name: "Esteio"
    latitude: -29.86139
    longitude: -51.17917
    population: 84902
    dem: 12
    timezone: "America/Sao_Paulo"
  - name: "Estancia Velha"
    latitude: -29.64833
    longitude: -51.17389
    population: 40390
    dem: 43
    timezone: "America/Sao_Paulo"
  - name: "Espumoso"
    latitude: -28.72472
    longitude: -52.84972
    population: 10340
    dem: 366
    timezone: "America/Sao_Paulo"
  - name: "Erechim"
    latitude: -27.63461
    longitude: -52.2754
    population: 96087
    elevation: 786
    dem: 790
    timezone: "America/Sao_Paulo"
  - name: "Encruzilhada do Sul"
    latitude: -30.54389
    longitude: -52.52194
    population: 17199
    dem: 431
    timezone: "America/Sao_Paulo"
  - name: "Encantado"
    latitude: -29.23611
    longitude: -51.86972
    population: 16637
    dem: 73
    timezone: "America/Sao_Paulo"
  - name: "Dom Pedrito"
    latitude: -30.98278
    longitude: -54.67306
    population: 36911
    dem: 144
    timezone: "America/Sao_Paulo"
  - name: "Cruz Alta"
    latitude: -28.64397
    longitude: -53.60633
    population: 65275
    dem: 475
    timezone: "America/Sao_Paulo"
  - name: "Cidreira"
    latitude: -30.18111
    longitude: -50.20556
    population: 8965
    dem: 5
    timezone: "America/Sao_Paulo"
  - name: "Chui"
    latitude: -33.69111
    longitude: -53.45667
    population: 6605
    dem: 20
    timezone: "America/Sao_Paulo"
  - name: "Charqueadas"
    latitude: -29.95472
    longitude: -51.62528
    population: 32076
    dem: 22
    timezone: "America/Sao_Paulo"
  - name: "Cerro Largo"
    latitude: -28.14861
    longitude: -54.73806
    population: 9548
    dem: 200
    timezone: "America/Sao_Paulo"
  - name: "Caxias do Sul"
    latitude: -29.16806
    longitude: -51.17944
    population: 381270
    dem: 787
    timezone: "America/Sao_Paulo"
  - name: "Carlos Barbosa"
    latitude: -29.2975
    longitude: -51.50361
    population: 19105
    dem: 680
    timezone: "America/Sao_Paulo"
  - name: "Carazinho"
    latitude: -28.28389
    longitude: -52.78639
    population: 59417
    dem: 605
    timezone: "America/Sao_Paulo"
  - name: "Capao da Canoa"
    latitude: -29.74556
    longitude: -50.00972
    population: 35896
    dem: 6
    timezone: "America/Sao_Paulo"
  - name: "Canoas"
    latitude: -29.91778
    longitude: -51.18361
    population: 328291
    dem: 25
    timezone: "America/Sao_Paulo"
  - name: "Cangucu"
    latitude: -31.395
    longitude: -52.67556
    population: 20134
    dem: 406
    timezone: "America/Sao_Paulo"
  - name: "Canela"
    latitude: -29.35622
    longitude: -50.81357
    population: 33528
    dem: 826
    timezone: "America/Sao_Paulo"
  - name: "Candelaria"
    latitude: -29.66917
    longitude: -52.78889
    population: 30171
    dem: 53
    timezone: "America/Sao_Paulo"
  - name: "Camaqua"
    latitude: -30.85111
    longitude: -51.81222
    population: 53169
    dem: 39
    timezone: "America/Sao_Paulo"
  - name: "Cachoeirinha"
    latitude: -29.95111
    longitude: -51.09389
    population: 121084
    dem: 15
    timezone: "America/Sao_Paulo"
  - name: "Cachoeira do Sul"
    latitude: -30.03917
    longitude: -52.89389
    population: 74694
    dem: 77
    timezone: "America/Sao_Paulo"
  - name: "Cacequi"
    latitude: -29.88361
    longitude: -54.825
    population: 12867
    dem: 112
    timezone: "America/Sao_Paulo"
  - name: "Cacapava do Sul"
    latitude: -30.51436
    longitude: -53.48496
    population: 17522
    dem: 426
    timezone: "America/Sao_Paulo"
  - name: "Butia"
    latitude: -30.11972
    longitude: -51.96222
    population: 19494
    dem: 71
    timezone: "America/Sao_Paulo"
  - name: "Bento Goncalves"
    latitude: -29.17139
    longitude: -51.51917
    population: 90852
    dem: 673
    timezone: "America/Sao_Paulo"
  - name: "Bage"
    latitude: -31.33139
    longitude: -54.10694
    population: 98940
    dem: 206
    timezone: "America/Sao_Paulo"
  - name: "Arroio Grande"
    latitude: -32.2375
    longitude: -53.08694
    population: 16117
    dem: 31
    timezone: "America/Sao_Paulo"
  - name: "Arroio dos Ratos"
    latitude: -30.07722
    longitude: -51.72917
    population: 13404
    dem: 70
    timezone: "America/Sao_Paulo"
  - name: "Arroio do Meio"
    latitude: -29.40111
    longitude: -51.945
    population: 16331
    dem: 45
    timezone: "America/Sao_Paulo"
  - name: "Alegrete"
    latitude: -29.78306
    longitude: -55.79194
    population: 87236
    elevation: 102
    dem: 107
    timezone: "America/Sao_Paulo"
  - name: "Guaiba"
    latitude: -30.11389
    longitude: -51.325
    population: 101024
    dem: 22
    timezone: "America/Sao_Paulo"
- name: "Paraiba"
  cities:
  - name: "Conde"
    latitude: -7.25972
    longitude: -34.9075
    population: 15859
    dem: 116
    timezone: "America/Fortaleza"
  - name: "Uirauna"
    latitude: -6.51833
    longitude: -38.41222
    population: 7823
    dem: 298
    timezone: "America/Fortaleza"
  - name: "Teixeira"
    latitude: -7.22278
    longitude: -37.25417
    population: 9954
    dem: 780
    timezone: "America/Fortaleza"
  - name: "Taperoa"
    latitude: -7.2075
    longitude: -36.82667
    population: 8879
    dem: 533
    timezone: "America/Fortaleza"
  - name: "Sume"
    latitude: -7.67167
    longitude: -36.88
    population: 10440
    dem: 518
    timezone: "America/Fortaleza"
  - name: "Sousa"
    latitude: -6.75917
    longitude: -38.22806
    population: 47927
    dem: 229
    timezone: "America/Fortaleza"
  - name: "Soledade"
    latitude: -7.05722
    longitude: -36.36278
    population: 8090
    dem: 526
    timezone: "America/Fortaleza"
  - name: "Solanea"
    latitude: -6.755
    longitude: -35.54
    population: 17030
    dem: 188
    timezone: "America/Fortaleza"
  - name: "Serra Branca"
    latitude: -6.53333
    longitude: -38.26667
    population: 8765
    dem: 327
    timezone: "America/Fortaleza"
  - name: "Sao Jose de Piranhas"
    latitude: -7.12056
    longitude: -38.50194
    population: 7628
    dem: 344
    timezone: "America/Fortaleza"
  - name: "Sao Bento"
    latitude: -6.28333
    longitude: -37.75
    population: 24749
    dem: 476
    timezone: "America/Fortaleza"
  - name: "Santa Rita"
    latitude: -7.11389
    longitude: -34.97806
    population: 119893
    dem: 6
    timezone: "America/Fortaleza"
  - name: "Santa Luzia"
    latitude: -6.87222
    longitude: -36.91861
    population: 13243
    dem: 304
    timezone: "America/Fortaleza"
  - name: "Rio Tinto"
    latitude: -6.80306
    longitude: -35.08056
    population: 11804
    dem: 35
    timezone: "America/Fortaleza"
  - name: "Remigio"
    latitude: -6.94646
    longitude: -35.78039
    population: 9659
    dem: 561
    timezone: "America/Fortaleza"
  - name: "Princesa Isabel"
    latitude: -7.73667
    longitude: -37.99333
    population: 12616
    dem: 686
    timezone: "America/Fortaleza"
  - name: "Pombal"
    latitude: -6.77028
    longitude: -37.80167
    population: 21751
    dem: 185
    timezone: "America/Fortaleza"
  - name: "Pocinhos"
    latitude: -7.07667
    longitude: -36.06111
    population: 7803
    dem: 633
    timezone: "America/Fortaleza"
  - name: "Pitimbu"
    latitude: -7.47056
    longitude: -34.80861
    population: 7862
    dem: 12
    timezone: "America/Fortaleza"
  - name: "Pirpirituba"
    latitude: -6.78
    longitude: -35.49861
    population: 8355
    dem: 107
    timezone: "America/Fortaleza"
  - name: "Pilar"
    latitude: -7.26722
    longitude: -35.26
    population: 7588
    dem: 38
    timezone: "America/Fortaleza"
  - name: "Picui"
    latitude: -6.51056
    longitude: -36.34694
    population: 10779
    dem: 445
    timezone: "America/Fortaleza"
  - name: "Pianco"
    latitude: -7.19806
    longitude: -37.92917
    population: 10481
    dem: 268
    timezone: "America/Fortaleza"
  - name: "Pedras de Fogo"
    latitude: -7.40194
    longitude: -35.11639
    population: 13894
    dem: 174
    timezone: "America/Recife"
  - name: "Patos"
    latitude: -7.02444
    longitude: -37.28
    population: 92575
    dem: 243
    timezone: "America/Fortaleza"
  - name: "Nova Floresta"
    latitude: -6.45528
    longitude: -36.20333
    population: 8623
    dem: 670
    timezone: "America/Fortaleza"
  - name: "Monteiro"
    latitude: -7.88944
    longitude: -37.12
    population: 17726
    dem: 600
    timezone: "America/Fortaleza"
  - name: "Mari"
    latitude: -7.06
    longitude: -35.31944
    population: 17535
    dem: 149
    timezone: "America/Fortaleza"
  - name: "Mamanguape"
    latitude: -6.83861
    longitude: -35.12611
    population: 27606
    dem: 39
    timezone: "America/Fortaleza"
  - name: "Lagoa Seca"
    latitude: -7.17083
    longitude: -35.85361
    population: 8103
    dem: 631
    timezone: "America/Fortaleza"
  - name: "Juripiranga"
    latitude: -7.37333
    longitude: -35.23806
    population: 8320
    dem: 117
    timezone: "America/Fortaleza"
  - name: "Juazeirinho"
    latitude: -6.81667
    longitude: -38.05
    population: 8846
    dem: 222
    timezone: "America/Fortaleza"
  - name: "Joao Pessoa"
    latitude: -7.115
    longitude: -34.86306
    population: 650883
    dem: 45
    timezone: "America/Fortaleza"
  - name: "Jacarau"
    latitude: -6.61222
    longitude: -35.29278
    population: 7035
    dem: 173
    timezone: "America/Fortaleza"
  - name: "Itaporanga"
    latitude: -7.30444
    longitude: -38.15028
    population: 15890
    dem: 295
    timezone: "America/Fortaleza"
  - name: "Itabaiana"
    latitude: -7.32861
    longitude: -35.3325
    population: 19100
    dem: 47
    timezone: "America/Fortaleza"
  - name: "Inga"
    latitude: -7.28083
    longitude: -35.60444
    population: 8751
    dem: 155
    timezone: "America/Fortaleza"
  - name: "Gurinhem"
    latitude: -7.12389
    longitude: -35.42444
    population: 5618
    dem: 98
    timezone: "America/Fortaleza"
  - name: "Guarabira"
    latitude: -6.85472
    longitude: -35.49
    population: 43749
    dem: 94
    timezone: "America/Fortaleza"
  - name: "Fagundes"
    latitude: -7.355
    longitude: -35.775
    population: 5137
    dem: 468
    timezone: "America/Fortaleza"
  - name: "Esperanca"
    latitude: -7.03306
    longitude: -35.85722
    population: 18817
    dem: 610
    timezone: "America/Fortaleza"
  - name: "Desterro"
    latitude: -7.29056
    longitude: -37.09389
    population: 5374
    dem: 611
    timezone: "America/Fortaleza"
  - name: "Cuite"
    latitude: -6.48361
    longitude: -36.15361
    population: 11391
    dem: 670
    timezone: "America/Fortaleza"
  - name: "Cruz do Espirito Santo"
    latitude: -7.14
    longitude: -35.08639
    population: 5812
    dem: 19
    timezone: "America/Fortaleza"
  - name: "Coremas"
    latitude: -7.01444
    longitude: -37.94583
    population: 11897
    dem: 218
    timezone: "America/Fortaleza"
  - name: "Catole do Rocha"
    latitude: -6.34389
    longitude: -37.74667
    population: 19812
    dem: 303
    timezone: "America/Fortaleza"
  - name: "Campina Grande"
    latitude: -7.23056
    longitude: -35.88111
    population: 348936
    dem: 508
    timezone: "America/Fortaleza"
  - name: "Cajazeiras"
    latitude: -6.89028
    longitude: -38.55528
    population: 43913
    dem: 305
    timezone: "America/Fortaleza"
  - name: "Cacimba de Dentro"
    latitude: -6.64167
    longitude: -35.79
    population: 7447
    dem: 529
    timezone: "America/Fortaleza"
  - name: "Cabedelo"
    latitude: -6.98111
    longitude: -34.83389
    population: 54839
    dem: 7
    timezone: "America/Fortaleza"
  - name: "Caapora"
    latitude: -7.51556
    longitude: -34.90833
    population: 13769
    dem: 32
    timezone: "America/Fortaleza"
  - name: "Boqueirao"
    latitude: -7.48237
    longitude: -36.13422
    population: 11566
    dem: 367
    timezone: "America/Fortaleza"
  - name: "Belem do Brejo do Cruz"
    latitude: -6.18861
    longitude: -37.53583
    population: 8777
    dem: 184
    timezone: "America/Fortaleza"
  - name: "Belem"
    latitude: -6.69167
    longitude: -35.53333
    population: 15550
    dem: 140
    timezone: "America/Fortaleza"
  - name: "Bayeux"
    latitude: -7.125
    longitude: -34.93222
    population: 91056
    dem: 12
    timezone: "America/Fortaleza"
  - name: "Bananeiras"
    latitude: -6.75
    longitude: -35.63333
    population: 7371
    dem: 556
    timezone: "America/Fortaleza"
  - name: "Aroeiras"
    latitude: -7.54528
    longitude: -35.7075
    population: 7019
    dem: 341
    timezone: "America/Fortaleza"
  - name: "Areia"
    latitude: -6.96333
    longitude: -35.69167
    population: 13824
    dem: 546
    timezone: "America/Fortaleza"
  - name: "Araruna"
    latitude: -6.55833
    longitude: -35.74167
    population: 7667
    dem: 496
    timezone: "America/Fortaleza"
  - name: "Arara"
    latitude: -6.82833
    longitude: -35.75833
    population: 7641
    dem: 461
    timezone: "America/Fortaleza"
  - name: "Alhandra"
    latitude: -7.43861
    longitude: -34.91444
    population: 10788
    dem: 39
    timezone: "America/Fortaleza"
  - name: "Alagoinha"
    latitude: -6.95
    longitude: -35.545
    population: 7474
    dem: 136
    timezone: "America/Fortaleza"
  - name: "Alagoa Nova"
    latitude: -7.07083
    longitude: -35.75833
    population: 9182
    dem: 440
    timezone: "America/Fortaleza"
  - name: "Alagoa Grande"
    latitude: -7.15833
    longitude: -35.63
    population: 16406
    dem: 334
    timezone: "America/Fortaleza"
- name: "Mato Grosso do Sul"
  cities:
  - name: "Tres Lagoas"
    latitude: -20.78765
    longitude: -51.70338
    population: 78712
    dem: 328
    timezone: "America/Campo_Grande"
  - name: "Terenos"
    latitude: -20.44222
    longitude: -54.86028
    population: 6086
    dem: 429
    timezone: "America/Campo_Grande"
  - name: "Sidrolandia"
    latitude: -20.93194
    longitude: -54.96139
    population: 16878
    dem: 491
    timezone: "America/Campo_Grande"
  - name: "Rio Verde de Mato Grosso"
    latitude: -18.91806
    longitude: -54.84417
    population: 16613
    dem: 335
    timezone: "America/Campo_Grande"
  - name: "Rio Brilhante"
    latitude: -21.80194
    longitude: -54.54639
    population: 18837
    dem: 319
    timezone: "America/Campo_Grande"
  - name: "Ribas do Rio Pardo"
    latitude: -20.44306
    longitude: -53.75917
    population: 11934
    dem: 382
    timezone: "America/Campo_Grande"
  - name: "Porto Murtinho"
    latitude: -21.69889
    longitude: -57.8825
    population: 12667
    dem: 79
    timezone: "America/Campo_Grande"
  - name: "Porto Barra do Ivinheima"
    latitude: -22.96667
    longitude: -53.66667
    population: 14527
    dem: 234
    timezone: "America/Campo_Grande"
  - name: "Ponta Pora"
    latitude: -22.53611
    longitude: -55.72556
    population: 55763
    dem: 659
    timezone: "America/Campo_Grande"
  - name: "Paranhos"
    latitude: -23.89278
    longitude: -55.43111
    population: 6516
    dem: 417
    timezone: "America/Campo_Grande"
  - name: "Paranaiba"
    latitude: -19.67722
    longitude: -51.19083
    population: 32217
    dem: 383
    timezone: "America/Campo_Grande"
  - name: "Navirai"
    latitude: -23.065
    longitude: -54.19056
    population: 36452
    dem: 366
    timezone: "America/Campo_Grande"
  - name: "Miranda"
    latitude: -20.24056
    longitude: -56.37833
    population: 13189
    dem: 131
    timezone: "America/Campo_Grande"
  - name: "Maracaju"
    latitude: -21.61444
    longitude: -55.16833
    population: 22690
    dem: 381
    timezone: "America/Campo_Grande"
  - name: "Ladario"
    latitude: -19.00472
    longitude: -57.60167
    population: 15790
    dem: 126
    timezone: "America/Campo_Grande"
  - name: "Jardim"
    latitude: -21.48028
    longitude: -56.13806
    population: 23780
    dem: 256
    timezone: "America/Campo_Grande"
  - name: "Iguatemi"
    latitude: -23.68028
    longitude: -54.56111
    population: 9619
    dem: 342
    timezone: "America/Campo_Grande"
  - name: "Guia Lopes da Laguna"
    latitude: -21.45778
    longitude: -56.11417
    population: 9681
    dem: 246
    timezone: "America/Campo_Grande"
  - name: "Eldorado"
    latitude: -23.78694
    longitude: -54.28361
    population: 9075
    dem: 350
    timezone: "America/Campo_Grande"
  - name: "Dourados"
    latitude: -22.22111
    longitude: -54.80556
    population: 162202
    dem: 445
    timezone: "America/Campo_Grande"
  - name: "Coxim"
    latitude: -18.50667
    longitude: -54.76
    population: 30215
    dem: 205
    timezone: "America/Campo_Grande"
  - name: "Costa Rica"
    latitude: -23.41667
    longitude: -54.65
    population: 12930
    dem: 394
    timezone: "America/Campo_Grande"
  - name: "Corumba"
    latitude: -19.00917
    longitude: -57.65333
    population: 96520
    dem: 152
    timezone: "America/Campo_Grande"
  - name: "Cassilandia"
    latitude: -19.11333
    longitude: -51.73417
    population: 18497
    dem: 475
    timezone: "America/Campo_Grande"
  - name: "Caarapo"
    latitude: -22.63417
    longitude: -54.82222
    population: 13863
    dem: 469
    timezone: "America/Campo_Grande"
  - name: "Campo Verde"
    latitude: -20.41667
    longitude: -54.06667
    population: 22806
    dem: 471
    timezone: "America/Campo_Grande"
  - name: "Campo Grande"
    latitude: -20.44278
    longitude: -54.64639
    population: 729151
    dem: 592
    timezone: "America/Campo_Grande"
  - name: "Camapua"
    latitude: -19.53139
    longitude: -54.04389
    population: 11118
    dem: 410
    timezone: "America/Campo_Grande"
  - name: "Bonito"
    latitude: -21.12111
    longitude: -56.48194
    population: 14504
    dem: 306
    timezone: "America/Campo_Grande"
  - name: "Bela Vista"
    latitude: -22.10889
    longitude: -56.52111
    population: 18127
    dem: 190
    timezone: "America/Campo_Grande"
  - name: "Bataipora"
    latitude: -22.29528
    longitude: -53.27111
    population: 7346
    dem: 326
    timezone: "America/Campo_Grande"
  - name: "Aquidauana"
    latitude: -20.47111
    longitude: -55.78722
    population: 35303
    dem: 157
    timezone: "America/Campo_Grande"
  - name: "Aparecida do Taboado"
    latitude: -20.08667
    longitude: -51.09361
    population: 17332
    dem: 379
    timezone: "America/Campo_Grande"
  - name: "Anastacio"
    latitude: -20.48361
    longitude: -55.80694
    population: 18817
    dem: 170
    timezone: "America/Campo_Grande"
- name: "Bahia"
  cities:
  - name: "Uaua"
    latitude: -9.84139
    longitude: -39.48167
    population: 11425
    dem: 440
    timezone: "America/Bahia"
  - name: "Paulo Afonso"
    latitude: -9.40611
    longitude: -38.21472
    population: 85350
    dem: 245
    timezone: "America/Bahia"
  - name: "Curaca"
    latitude: -8.99028
    longitude: -39.90944
    population: 11858
    dem: 359
    timezone: "America/Bahia"
  - name: "Xique Xique"
    latitude: -10.82294
    longitude: -42.72815
    population: 35433
    dem: 406
    timezone: "America/Bahia"
  - name: "Vitoria da Conquista"
    latitude: -14.86611
    longitude: -40.83944
    population: 253137
    dem: 876
    timezone: "America/Bahia"
  - name: "Vera Cruz"
    latitude: -12.63333
    longitude: -41.03333
    population: 30556
    dem: 533
    timezone: "America/Bahia"
  - name: "Valente"
    latitude: -11.41222
    longitude: -39.46194
    population: 12588
    dem: 357
    timezone: "America/Bahia"
  - name: "Valenca"
    latitude: -13.37028
    longitude: -39.07306
    population: 63231
    dem: 9
    timezone: "America/Bahia"
  - name: "Urucuca"
    latitude: -14.59306
    longitude: -39.28444
    population: 24409
    dem: 95
    timezone: "America/Bahia"
  - name: "Una"
    latitude: -15.29333
    longitude: -39.07528
    population: 22613
    dem: 16
    timezone: "America/Bahia"
  - name: "Ubata"
    latitude: -14.20906
    longitude: -39.52641
    population: 15604
    dem: 112
    timezone: "America/Bahia"
  - name: "Ubaitaba"
    latitude: -14.3125
    longitude: -39.32333
    population: 28375
    dem: 47
    timezone: "America/Bahia"
  - name: "Ubaira"
    latitude: -13.26806
    longitude: -39.66278
    population: 8069
    dem: 339
    timezone: "America/Bahia"
  - name: "Tucano"
    latitude: -10.95817
    longitude: -38.79084
    population: 31203
    dem: 222
    timezone: "America/Bahia"
  - name: "Terra Nova"
    latitude: -12.36667
    longitude: -40.66667
    population: 11169
    dem: 604
    timezone: "America/Bahia"
  - name: "Tapiramuta"
    latitude: -11.84722
    longitude: -40.79139
    population: 16544
    dem: 825
    timezone: "America/Bahia"
  - name: "Taperoa"
    latitude: -13.53806
    longitude: -39.09861
    population: 8095
    dem: 6
    timezone: "America/Bahia"
  - name: "Tanhacu"
    latitude: -14.02139
    longitude: -41.24806
    population: 6620
    dem: 433
    timezone: "America/Bahia"
  - name: "Sobradinho"
    latitude: -12.83333
    longitude: -39.1
    population: 19304
    dem: 167
    timezone: "America/Bahia"
  - name: "Serrinha"
    latitude: -11.66417
    longitude: -39.0075
    population: 49078
    dem: 368
    timezone: "America/Bahia"
  - name: "Senhor do Bonfim"
    latitude: -10.46139
    longitude: -40.18944
    population: 48471
    dem: 544
    timezone: "America/Bahia"
  - name: "Seabra"
    latitude: -12.41713
    longitude: -41.77049
    population: 16764
    dem: 823
    timezone: "America/Bahia"
  - name: "Saubara"
    latitude: -12.7375
    longitude: -38.76861
    population: 15662
    dem: 20
    timezone: "America/Bahia"
  - name: "Sao Sebastiao do Passe"
    latitude: -12.5125
    longitude: -38.49528
    population: 31049
    dem: 51
    timezone: "America/Bahia"
  - name: "Sao Goncalo dos Campos"
    latitude: -12.43333
    longitude: -38.96667
    population: 14822
    dem: 228
    timezone: "America/Bahia"
  - name: "Sao Francisco do Conde"
    latitude: -12.6275
    longitude: -38.68
    population: 24614
    dem: 21
    timezone: "America/Bahia"
  - name: "Sao Felipe"
    latitude: -14.8386
    longitude: -41.39174
    population: 9574
    dem: 463
    timezone: "America/Bahia"
  - name: "Sao Desiderio"
    latitude: -12.36333
    longitude: -44.97333
    population: 7295
    dem: 503
    timezone: "America/Bahia"
  - name: "Santo Estevao"
    latitude: -12.43028
    longitude: -39.25139
    population: 27279
    dem: 242
    timezone: "America/Bahia"
  - name: "Santo Antonio de Jesus"
    latitude: -12.96889
    longitude: -39.26139
    population: 73957
    dem: 214
    timezone: "America/Bahia"
  - name: "Santo Amaro"
    latitude: -12.54667
    longitude: -38.71194
    population: 46748
    dem: 11
    timezone: "America/Bahia"
  - name: "Santana"
    latitude: -14.46667
    longitude: -41.8
    population: 12628
    dem: 519
    timezone: "America/Bahia"
  - name: "Santa Maria da Vitoria"
    latitude: -13.38814
    longitude: -44.19868
    population: 23488
    dem: 464
    timezone: "America/Bahia"
  - name: "Santaluz"
    latitude: -11.25583
    longitude: -39.37472
    population: 24739
    dem: 361
    timezone: "America/Bahia"
  - name: "Santa Ines"
    latitude: -13.29222
    longitude: -39.81889
    population: 10520
    dem: 400
    timezone: "America/Bahia"
  - name: "Santa Cruz Cabralia"
    latitude: -16.27806
    longitude: -39.02472
    population: 19545
    dem: 43
    timezone: "America/Bahia"
  - name: "Salvador"
    latitude: -12.97111
    longitude: -38.51083
    population: 2711840
    dem: 10
    timezone: "America/Bahia"
  - name: "Ruy Barbosa"
    latitude: -12.28389
    longitude: -40.49389
    population: 21093
    dem: 344
    timezone: "America/Bahia"
  - name: "Rio Real"
    latitude: -11.48472
    longitude: -37.93278
    population: 24005
    dem: 170
    timezone: "America/Bahia"
  - name: "Ribeira do Pombal"
    latitude: -10.83444
    longitude: -38.53583
    population: 28235
    dem: 221
    timezone: "America/Bahia"
  - name: "Riacho de Santana"
    latitude: -13.60917
    longitude: -42.93889
    population: 12657
    dem: 626
    timezone: "America/Bahia"
  - name: "Riachao do Jacuipe"
    latitude: -11.80694
    longitude: -39.38556
    population: 16911
    dem: 217
    timezone: "America/Bahia"
  - name: "Riachao das Neves"
    latitude: -11.74611
    longitude: -44.91
    population: 11236
    dem: 503
    timezone: "America/Bahia"
  - name: "Queimadas"
    latitude: -10.97833
    longitude: -39.62639
    population: 10439
    dem: 291
    timezone: "America/Bahia"
  - name: "Prado"
    latitude: -17.34111
    longitude: -39.22083
    population: 15464
    dem: 11
    timezone: "America/Bahia"
  - name: "Porto Seguro"
    latitude: -16.44972
    longitude: -39.06472
    population: 123173
    dem: 4
    timezone: "America/Bahia"
  - name: "Ponto Novo"
    latitude: -10.86278
    longitude: -40.13361
    population: 7141
    dem: 370
    timezone: "America/Bahia"
  - name: "Pocoes"
    latitude: -14.52972
    longitude: -40.36528
    population: 35254
    dem: 764
    timezone: "America/Bahia"
  - name: "Piritiba"
    latitude: -11.73028
    longitude: -40.55528
    population: 16230
    dem: 542
    timezone: "America/Bahia"
  - name: "Pindobacu"
    latitude: -10.74167
    longitude: -40.36083
    population: 17229
    dem: 435
    timezone: "America/Bahia"
  - name: "Pau Brasil"
    latitude: -15.46417
    longitude: -39.65111
    population: 8136
    dem: 180
    timezone: "America/Bahia"
  - name: "Paripiranga"
    latitude: -10.6875
    longitude: -37.86167
    population: 6965
    dem: 439
    timezone: "America/Bahia"
  - name: "Paratinga"
    latitude: -12.69056
    longitude: -43.18417
    population: 10261
    dem: 429
    timezone: "America/Bahia"
  - name: "Paramirim"
    latitude: -13.4425
    longitude: -42.23889
    population: 7421
    dem: 611
    timezone: "America/Bahia"
  - name: "Palmas de Monte Alto"
    latitude: -14.26722
    longitude: -43.16194
    population: 7091
    dem: 565
    timezone: "America/Bahia"
  - name: "Oliveira dos Brejinhos"
    latitude: -12.31694
    longitude: -42.89611
    population: 5596
    dem: 572
    timezone: "America/Bahia"
  - name: "Olindina"
    latitude: -11.36667
    longitude: -38.33333
    population: 12316
    dem: 166
    timezone: "America/Bahia"
  - name: "Nova Vicosa"
    latitude: -17.89194
    longitude: -39.37194
    population: 55980
    dem: 8
    timezone: "America/Bahia"
  - name: "Nova Soure"
    latitude: -11.23333
    longitude: -38.48333
    population: 11340
    dem: 164
    timezone: "America/Bahia"
  - name: "Nazare"
    latitude: -13.035
    longitude: -39.01444
    population: 25604
    dem: 12
    timezone: "America/Bahia"
  - name: "Mutuipe"
    latitude: -13.22861
    longitude: -39.50472
    population: 10016
    dem: 219
    timezone: "America/Bahia"
  - name: "Muritiba"
    latitude: -12.91667
    longitude: -39.25
    population: 22388
    dem: 219
    timezone: "America/Bahia"
  - name: "Mundo Novo"
    latitude: -11.85889
    longitude: -40.4725
    population: 11912
    dem: 522
    timezone: "America/Bahia"
  - name: "Mucuri"
    latitude: -18.08639
    longitude: -39.55083
    population: 26775
    dem: 7
    timezone: "America/Bahia"
  - name: "Morro do Chapeu"
    latitude: -11.54852
    longitude: -41.15804
    population: 21670
    dem: 1019
    timezone: "America/Bahia"
  - name: "Monte Santo"
    latitude: -10.43778
    longitude: -39.33278
    population: 7398
    dem: 483
    timezone: "America/Bahia"
  - name: "Miguel Calmon"
    latitude: -11.42889
    longitude: -40.595
    population: 13747
    dem: 543
    timezone: "America/Bahia"
  - name: "Medeiros Neto"
    latitude: -17.37389
    longitude: -40.22056
    population: 15254
    dem: 150
    timezone: "America/Bahia"
  - name: "Mata de Sao Joao"
    latitude: -12.53028
    longitude: -38.29917
    population: 26679
    dem: 35
    timezone: "America/Bahia"
  - name: "Mascote"
    latitude: -15.56306
    longitude: -39.3025
    population: 18863
    dem: 56
    timezone: "America/Bahia"
  - name: "Maragogipe"
    latitude: -12.77778
    longitude: -38.91944
    population: 20921
    dem: 13
    timezone: "America/Bahia"
  - name: "Maracas"
    latitude: -13.44111
    longitude: -40.43083
    population: 22049
    dem: 963
    timezone: "America/Bahia"
  - name: "Mairi"
    latitude: -11.71139
    longitude: -40.14889
    population: 13471
    dem: 471
    timezone: "America/Bahia"
  - name: "Madre de Deus"
    latitude: -12.74083
    longitude: -38.62083
    population: 14887
    dem: 2
    timezone: "America/Bahia"
  - name: "Macaubas"
    latitude: -13.01944
    longitude: -42.69861
    population: 14597
    dem: 695
    timezone: "America/Bahia"
  - name: "Livramento do Brumado"
    latitude: -13.65145
    longitude: -41.84564
    population: 19914
    dem: 465
    timezone: "America/Bahia"
  - name: "Lapao"
    latitude: -11.38333
    longitude: -41.83194
    population: 11252
    dem: 775
    timezone: "America/Bahia"
  - name: "Jitauna"
    latitude: -14.01274
    longitude: -39.89833
    population: 11619
    dem: 170
    timezone: "America/Bahia"
  - name: "Jeremoabo"
    latitude: -10.075
    longitude: -38.48083
    population: 16642
    dem: 334
    timezone: "America/Bahia"
  - name: "Jequie"
    latitude: -13.85875
    longitude: -40.08512
    population: 127475
    dem: 223
    timezone: "America/Bahia"
  - name: "Jaguarari"
    latitude: -10.26389
    longitude: -40.19583
    population: 22612
    dem: 660
    timezone: "America/Bahia"
  - name: "Jaguaquara"
    latitude: -13.53056
    longitude: -39.97083
    population: 41498
    dem: 675
    timezone: "America/Bahia"
  - name: "Jacobina"
    latitude: -11.18143
    longitude: -40.51372
    population: 47637
    dem: 476
    timezone: "America/Bahia"
  - name: "Itubera"
    latitude: -13.73538
    longitude: -39.14785
    population: 19887
    dem: 7
    timezone: "America/Bahia"
  - name: "Itororo"
    latitude: -15.11694
    longitude: -40.07028
    population: 17324
    dem: 253
    timezone: "America/Bahia"
  - name: "Itirucu"
    latitude: -13.53167
    longitude: -40.15028
    population: 11498
    dem: 824
    timezone: "America/Bahia"
  - name: "Itarantim"
    latitude: -15.65972
    longitude: -40.06556
    population: 12369
    dem: 255
    timezone: "America/Bahia"
  - name: "Itapetinga"
    latitude: -15.24889
    longitude: -40.24778
    population: 59721
    dem: 282
    timezone: "America/Bahia"
  - name: "Itaparica"
    latitude: -12.88833
    longitude: -38.67861
    population: 20100
    dem: 20
    timezone: "America/Bahia"
  - name: "Itanhem"
    latitude: -17.16639
    longitude: -40.33
    population: 13517
    dem: 189
    timezone: "America/Bahia"
  - name: "Itambe"
    latitude: -15.245
    longitude: -40.62444
    population: 23558
    dem: 357
    timezone: "America/Bahia"
  - name: "Itamaraju"
    latitude: -17.03917
    longitude: -39.53111
    population: 47628
    dem: 89
    timezone: "America/Bahia"
  - name: "Itajuipe"
    latitude: -14.67806
    longitude: -39.375
    population: 15516
    dem: 94
    timezone: "America/Bahia"
  - name: "Itagiba"
    latitude: -14.28361
    longitude: -39.84278
    population: 9843
    dem: 192
    timezone: "America/Bahia"
  - name: "Itagi"
    latitude: -14.16278
    longitude: -40.00611
    population: 10533
    dem: 220
    timezone: "America/Bahia"
  - name: "Itacare"
    latitude: -14.2789
    longitude: -38.99584
    population: 12484
    dem: 23
    timezone: "America/Bahia"
  - name: "Itabuna"
    latitude: -14.78556
    longitude: -39.28028
    population: 205660
    dem: 69
    timezone: "America/Bahia"
  - name: "Itaberaba"
    latitude: -12.5275
    longitude: -40.30694
    population: 47301
    dem: 274
    timezone: "America/Bahia"
  - name: "Irece"
    latitude: -11.30417
    longitude: -41.85583
    population: 63626
    dem: 730
    timezone: "America/Bahia"
  - name: "Irara"
    latitude: -12.05
    longitude: -38.76667
    population: 9099
    dem: 274
    timezone: "America/Bahia"
  - name: "Iraquara"
    latitude: -12.24861
    longitude: -41.61944
    population: 5131
    dem: 699
    timezone: "America/Bahia"
  - name: "Ipira"
    latitude: -12.15833
    longitude: -39.73722
    population: 27217
    dem: 331
    timezone: "America/Bahia"
  - name: "Ipiau"
    latitude: -14.13449
    longitude: -39.73948
    population: 38762
    dem: 140
    timezone: "America/Bahia"
  - name: "Inhambupe"
    latitude: -11.78444
    longitude: -38.35306
    population: 14735
    dem: 169
    timezone: "America/Bahia"
  - name: "Ilheus"
    latitude: -14.79364
    longitude: -39.03949
    population: 155499
    dem: 26
    timezone: "America/Bahia"
  - name: "Iguai"
    latitude: -14.75639
    longitude: -40.08917
    population: 14217
    dem: 354
    timezone: "America/Bahia"
  - name: "Ibotirama"
    latitude: -12.18528
    longitude: -43.22056
    population: 17354
    dem: 426
    timezone: "America/Bahia"
  - name: "Ibirataia"
    latitude: -14.06694
    longitude: -39.64056
    population: 19942
    dem: 151
    timezone: "America/Bahia"
  - name: "Ibirapitanga"
    latitude: -14.16417
    longitude: -39.37361
    population: 7302
    dem: 109
    timezone: "America/Bahia"
  - name: "Ibipeba"
    latitude: -11.64083
    longitude: -42.01111
    population: 14428
    dem: 697
    timezone: "America/Bahia"
  - name: "Ibicui"
    latitude: -14.84167
    longitude: -39.98667
    population: 10639
    dem: 362
    timezone: "America/Bahia"
  - name: "Ibicarai"
    latitude: -14.865
    longitude: -39.5875
    population: 19574
    dem: 163
    timezone: "America/Bahia"
  - name: "Iacu"
    latitude: -12.76722
    longitude: -40.21167
    population: 22664
    dem: 240
    timezone: "America/Bahia"
  - name: "Guaratinga"
    latitude: -16.58564
    longitude: -39.78189
    population: 9519
    dem: 171
    timezone: "America/Bahia"
  - name: "Guanambi"
    latitude: -14.22333
    longitude: -42.78139
    population: 58877
    dem: 531
    timezone: "America/Bahia"
  - name: "Gandu"
    latitude: -13.74389
    longitude: -39.48667
    population: 21565
    dem: 159
    timezone: "America/Bahia"
  - name: "Formosa do Rio Preto"
    latitude: -11.04833
    longitude: -45.19306
    population: 14354
    dem: 495
    timezone: "America/Bahia"
  - name: "Feira de Santana"
    latitude: -12.26667
    longitude: -38.96667
    population: 481911
    dem: 223
    timezone: "America/Bahia"
  - name: "Eunapolis"
    latitude: -16.3775
    longitude: -39.58028
    population: 114275
    dem: 173
    timezone: "America/Bahia"
  - name: "Euclides da Cunha"
    latitude: -10.5075
    longitude: -39.01583
    population: 29738
    dem: 478
    timezone: "America/Bahia"
  - name: "Esplanada"
    latitude: -11.79611
    longitude: -37.945
    population: 18859
    dem: 156
    timezone: "America/Bahia"
  - name: "Entre Rios"
    latitude: -11.94194
    longitude: -38.08444
    population: 27405
    dem: 165
    timezone: "America/Bahia"
  - name: "Cruz das Almas"
    latitude: -12.67
    longitude: -39.10194
    population: 47844
    dem: 224
    timezone: "America/Bahia"
  - name: "Correntina"
    latitude: -13.34333
    longitude: -44.63667
    population: 13186
    dem: 584
    timezone: "America/Bahia"
  - name: "Coracao de Maria"
    latitude: -12.23333
    longitude: -38.75
    population: 6571
    dem: 216
    timezone: "America/Bahia"
  - name: "Conde"
    latitude: -11.81361
    longitude: -37.61056
    population: 15557
    dem: 9
    timezone: "America/Bahia"
  - name: "Conceicao do Coite"
    latitude: -11.56389
    longitude: -39.28278
    population: 35171
    dem: 431
    timezone: "America/Bahia"
  - name: "Conceicao do Almeida"
    latitude: -12.77944
    longitude: -39.17
    population: 9690
    dem: 219
    timezone: "America/Bahia"
  - name: "Conceicao do Jacuipe"
    latitude: -12.31667
    longitude: -38.76667
    population: 21597
    dem: 212
    timezone: "America/Bahia"
  - name: "Conceicao da Feira"
    latitude: -12.50583
    longitude: -38.99861
    population: 15834
    dem: 219
    timezone: "America/Bahia"
  - name: "Coaraci"
    latitude: -14.64083
    longitude: -39.55111
    population: 32344
    dem: 206
    timezone: "America/Bahia"
  - name: "Cipo"
    latitude: -11.09972
    longitude: -38.51361
    population: 10821
    dem: 132
    timezone: "America/Bahia"
  - name: "Cicero Dantas"
    latitude: -10.6
    longitude: -38.38333
    population: 18317
    dem: 399
    timezone: "America/Bahia"
  - name: "Catu"
    latitude: -12.35306
    longitude: -38.37889
    population: 39932
    dem: 79
    timezone: "America/Bahia"
  - name: "Castro Alves"
    latitude: -12.76556
    longitude: -39.42833
    population: 13868
    dem: 255
    timezone: "America/Bahia"
  - name: "Carinhanha"
    latitude: -14.30472
    longitude: -43.765
    population: 11407
    dem: 451
    timezone: "America/Bahia"
  - name: "Capim Grosso"
    latitude: -11.38111
    longitude: -40.01278
    population: 17322
    dem: 416
    timezone: "America/Bahia"
  - name: "Canavieiras"
    latitude: -15.675
    longitude: -38.94722
    population: 26375
    dem: 9
    timezone: "America/Bahia"
  - name: "Canarana"
    latitude: -11.68472
    longitude: -41.76889
    population: 10785
    dem: 696
    timezone: "America/Bahia"
  - name: "Campo Formoso"
    latitude: -10.5075
    longitude: -40.32139
    population: 23920
    dem: 580
    timezone: "America/Bahia"
  - name: "Camamu"
    latitude: -13.94472
    longitude: -39.10389
    population: 13924
    dem: 37
    timezone: "America/Bahia"
  - name: "Camacari"
    latitude: -12.6975
    longitude: -38.32417
    population: 188758
    dem: 29
    timezone: "America/Bahia"
  - name: "Cafarnaum"
    latitude: -11.69361
    longitude: -41.46833
    population: 12937
    dem: 763
    timezone: "America/Bahia"
  - name: "Caetite"
    latitude: -14.06944
    longitude: -42.475
    population: 27187
    dem: 818
    timezone: "America/Bahia"
  - name: "Cacule"
    latitude: -14.50333
    longitude: -42.22222
    population: 12143
    dem: 584
    timezone: "America/Bahia"
  - name: "Cachoeira"
    latitude: -12.60139
    longitude: -38.96576
    population: 16145
    dem: 8
    timezone: "America/Bahia"
  - name: "Buerarema"
    latitude: -14.95944
    longitude: -39.29972
    population: 16001
    dem: 111
    timezone: "America/Bahia"
  - name: "Brumado"
    latitude: -14.20361
    longitude: -41.66528
    population: 41989
    dem: 427
    timezone: "America/Bahia"
  - name: "Boquira"
    latitude: -12.82306
    longitude: -42.73056
    population: 6306
    dem: 645
    timezone: "America/Bahia"
  - name: "Bom Jesus da Lapa"
    latitude: -13.255
    longitude: -43.41806
    population: 40691
    dem: 439
    timezone: "America/Bahia"
  - name: "Belmonte"
    latitude: -15.86126
    longitude: -38.87982
    population: 9806
    dem: 1
    timezone: "America/Bahia"
  - name: "Barro Alto"
    latitude: -11.76083
    longitude: -41.91167
    population: 14172
    dem: 701
    timezone: "America/Bahia"
  - name: "Barreiras"
    latitude: -12.15278
    longitude: -44.99
    population: 158292
    dem: 472
    timezone: "America/Bahia"
  - name: "Barra da Estiva"
    latitude: -13.62611
    longitude: -41.32694
    population: 12614
    dem: 1030
    timezone: "America/Bahia"
  - name: "Barra"
    latitude: -11.08944
    longitude: -43.14167
    population: 20894
    dem: 411
    timezone: "America/Bahia"
  - name: "Baixa Grande"
    latitude: -11.95972
    longitude: -40.16806
    population: 7534
    dem: 367
    timezone: "America/Bahia"
  - name: "Araci"
    latitude: -11.33333
    longitude: -38.96667
    population: 15088
    dem: 257
    timezone: "America/Bahia"
  - name: "Anguera"
    latitude: -12.15111
    longitude: -39.24639
    population: 10242
    dem: 238
    timezone: "America/Bahia"
  - name: "America Dourada"
    latitude: -11.45528
    longitude: -41.43611
    population: 14015
    dem: 665
    timezone: "America/Bahia"
  - name: "Amargosa"
    latitude: -13.03028
    longitude: -39.60472
    population: 22530
    dem: 412
    timezone: "America/Bahia"
  - name: "Alagoinhas"
    latitude: -12.13556
    longitude: -38.41917
    population: 122688
    dem: 158
    timezone: "America/Bahia"
  - name: "Acajutiba"
    latitude: -11.66222
    longitude: -38.01722
    population: 14348
    dem: 183
    timezone: "America/Bahia"
  - name: "Lauro de Freitas"
    latitude: -12.89444
    longitude: -38.32722
    population: 141280
    dem: 10
    timezone: "America/Bahia"
  - name: "Simoes Filho"
    latitude: -12.78444
    longitude: -38.40389
    population: 116662
    dem: 33
    timezone: "America/Bahia"
- name: "Santa Catarina"
  cities:
  - name: "Xanxere"
    latitude: -26.87694
    longitude: -52.40417
    population: 32957
    dem: 796
    timezone: "America/Sao_Paulo"
  - name: "Videira"
    latitude: -27.00833
    longitude: -51.15167
    population: 42440
    dem: 747
    timezone: "America/Sao_Paulo"
  - name: "Urussanga"
    latitude: -28.51778
    longitude: -49.32083
    population: 10669
    dem: 49
    timezone: "America/Sao_Paulo"
  - name: "Tubarao"
    latitude: -28.46667
    longitude: -49.00694
    population: 67245
    dem: 7
    timezone: "America/Sao_Paulo"
  - name: "Tres Barras"
    latitude: -26.10639
    longitude: -50.32222
    population: 14855
    dem: 767
    timezone: "America/Sao_Paulo"
  - name: "Timbo"
    latitude: -26.82333
    longitude: -49.27167
    population: 33765
    dem: 69
    timezone: "America/Sao_Paulo"
  - name: "Tijucas"
    latitude: -27.24139
    longitude: -48.63361
    population: 22481
    dem: 5
    timezone: "America/Sao_Paulo"
  - name: "Sombrio"
    latitude: -29.11389
    longitude: -49.61667
    population: 14864
    dem: 2
    timezone: "America/Sao_Paulo"
  - name: "Sideropolis"
    latitude: -28.59778
    longitude: -49.42444
    population: 8536
    dem: 115
    timezone: "America/Sao_Paulo"
  - name: "Schroeder"
    latitude: -26.4125
    longitude: -49.07306
    population: 15505
    dem: 46
    timezone: "America/Sao_Paulo"
  - name: "Sao Lourenco do Oeste"
    latitude: -26.35917
    longitude: -52.85111
    population: 14871
    dem: 881
    timezone: "America/Sao_Paulo"
  - name: "Sao Jose"
    latitude: -28.21171
    longitude: -49.1632
    population: 200000
    dem: 80
    timezone: "America/Sao_Paulo"
  - name: "Sao Joaquim"
    latitude: -28.29389
    longitude: -49.93167
    population: 16250
    dem: 1353
    timezone: "America/Sao_Paulo"
  - name: "Sao Joao Batista"
    latitude: -27.27611
    longitude: -48.84944
    population: 14538
    dem: 32
    timezone: "America/Sao_Paulo"
  - name: "Sao Francisco do Sul"
    latitude: -26.24333
    longitude: -48.63806
    population: 36224
    dem: 16
    timezone: "America/Sao_Paulo"
  - name: "Sao Bento do Sul"
    latitude: -26.25028
    longitude: -49.37861
    population: 77597
    dem: 863
    timezone: "America/Sao_Paulo"
  - name: "Santo Amaro da Imperatriz"
    latitude: -27.68806
    longitude: -48.77861
    population: 18418
    dem: 29
    timezone: "America/Sao_Paulo"
  - name: "Santa Cecilia"
    latitude: -26.96083
    longitude: -50.42694
    population: 15092
    dem: 1097
    timezone: "America/Sao_Paulo"
  - name: "Rio Negrinho"
    latitude: -26.25444
    longitude: -49.51833
    population: 41914
    dem: 793
    timezone: "America/Sao_Paulo"
  - name: "Rio do Sul"
    latitude: -27.21417
    longitude: -49.64306
    population: 51944
    dem: 346
    timezone: "America/Sao_Paulo"
  - name: "Ribeirao da Ilha"
    latitude: -27.69934
    longitude: -48.53219
    population: 21000
    elevation: 2
    dem: 9
    timezone: "America/Sao_Paulo"
  - name: "Porto Uniao"
    latitude: -26.23806
    longitude: -51.07833
    population: 28907
    dem: 783
    timezone: "America/Sao_Paulo"
  - name: "Porto Belo"
    latitude: -27.15778
    longitude: -48.55306
    population: 14720
    dem: 3
    timezone: "America/Sao_Paulo"
  - name: "Pomerode"
    latitude: -26.74056
    longitude: -49.17694
    population: 21898
    dem: 64
    timezone: "America/Sao_Paulo"
  - name: "Penha"
    latitude: -26.76944
    longitude: -48.64583
    population: 20096
    dem: 24
    timezone: "America/Sao_Paulo"
  - name: "Palhoca"
    latitude: -27.64528
    longitude: -48.66778
    population: 122423
    dem: 5
    timezone: "America/Sao_Paulo"
  - name: "Otacilio Costa"
    latitude: -27.48306
    longitude: -50.12194
    population: 14557
    dem: 877
    timezone: "America/Sao_Paulo"
  - name: "Orleans"
    latitude: -28.35889
    longitude: -49.29139
    population: 16422
    dem: 131
    timezone: "America/Sao_Paulo"
  - name: "Navegantes"
    latitude: -26.89889
    longitude: -48.65417
    population: 47781
    dem: 7
    timezone: "America/Sao_Paulo"
  - name: "Morro da Fumaca"
    latitude: -28.65083
    longitude: -49.21
    population: 13951
    dem: 21
    timezone: "America/Sao_Paulo"
  - name: "Mafra"
    latitude: -26.11139
    longitude: -49.80528
    population: 40081
    dem: 806
    timezone: "America/Sao_Paulo"
  - name: "Lauro Muller"
    latitude: -28.39278
    longitude: -49.39667
    population: 10035
    dem: 218
    timezone: "America/Sao_Paulo"
  - name: "Lages"
    latitude: -27.81611
    longitude: -50.32611
    population: 164676
    dem: 917
    timezone: "America/Sao_Paulo"
  - name: "Laguna"
    latitude: -28.4825
    longitude: -48.78083
    population: 39711
    dem: 7
    timezone: "America/Sao_Paulo"
  - name: "Lagoa"
    latitude: -27.60491
    longitude: -48.46713
    population: 5200
    elevation: 2
    dem: 4
    timezone: "America/Sao_Paulo"
  - name: "Joinville"
    latitude: -26.30444
    longitude: -48.84556
    population: 461304
    dem: 9
    timezone: "America/Sao_Paulo"
  - name: "Joacaba"
    latitude: -27.17806
    longitude: -51.50472
    population: 23516
    dem: 551
    timezone: "America/Sao_Paulo"
  - name: "Jaragua do Sul"
    latitude: -26.48611
    longitude: -49.06667
    population: 130130
    dem: 27
    timezone: "America/Sao_Paulo"
  - name: "Jaguaruna"
    latitude: -28.62145
    longitude: -49.02529
    population: 11649
    dem: 16
    timezone: "America/Sao_Paulo"
  - name: "Itapema"
    latitude: -27.09028
    longitude: -48.61139
    population: 36761
    dem: 4
    timezone: "America/Sao_Paulo"
  - name: "Itajai"
    latitude: -26.90778
    longitude: -48.66194
    population: 155716
    dem: 6
    timezone: "America/Sao_Paulo"
  - name: "Indaial"
    latitude: -26.89778
    longitude: -49.23167
    population: 44359
    dem: 66
    timezone: "America/Sao_Paulo"
  - name: "Imbituba"
    latitude: -28.24
    longitude: -48.67028
    population: 43450
    dem: 22
    timezone: "America/Sao_Paulo"
  - name: "Icara"
    latitude: -28.71333
    longitude: -49.3
    population: 51454
    dem: 43
    timezone: "America/Sao_Paulo"
  - name: "Ibirama"
    latitude: -27.05694
    longitude: -49.51778
    population: 18357
    dem: 156
    timezone: "America/Sao_Paulo"
  - name: "Guaramirim"
    latitude: -26.47306
    longitude: -49.00278
    population: 21422
    dem: 34
    timezone: "America/Sao_Paulo"
  - name: "Gaspar"
    latitude: -26.93139
    longitude: -48.95889
    population: 33658
    dem: 12
    timezone: "America/Sao_Paulo"
  - name: "Forquilhinha"
    latitude: -28.7475
    longitude: -49.47222
    population: 22998
    dem: 28
    timezone: "America/Sao_Paulo"
  - name: "Florianopolis"
    latitude: -27.59667
    longitude: -48.54917
    population: 412724
    dem: 26
    timezone: "America/Sao_Paulo"
  - name: "Curitibanos"
    latitude: -27.28278
    longitude: -50.58444
    population: 32141
    dem: 1002
    timezone: "America/Sao_Paulo"
  - name: "Criciuma"
    latitude: -28.6775
    longitude: -49.36972
    population: 161954
    dem: 50
    timezone: "America/Sao_Paulo"
  - name: "Corupa"
    latitude: -26.42528
    longitude: -49.24306
    population: 12600
    dem: 66
    timezone: "America/Sao_Paulo"
  - name: "Correia Pinto"
    latitude: -27.58472
    longitude: -50.36111
    population: 13752
    dem: 838
    timezone: "America/Sao_Paulo"
  - name: "Concordia"
    latitude: -27.23417
    longitude: -52.02778
    population: 55367
    dem: 592
    timezone: "America/Sao_Paulo"
  - name: "Cocal"
    latitude: -28.60321
    longitude: -49.32767
    population: 13303
    dem: 73
    timezone: "America/Sao_Paulo"
  - name: "Chapeco"
    latitude: -27.09639
    longitude: -52.61833
    population: 160157
    dem: 668
    timezone: "America/Sao_Paulo"
  - name: "Celso Ramos"
    latitude: -27.63444
    longitude: -51.33639
    population: 15162
    dem: 753
    timezone: "America/Sao_Paulo"
  - name: "Capinzal"
    latitude: -27.34361
    longitude: -51.61194
    population: 23795
    dem: 459
    timezone: "America/Sao_Paulo"
  - name: "Canoinhas"
    latitude: -26.17722
    longitude: -50.39
    population: 38862
    dem: 779
    timezone: "America/Sao_Paulo"
  - name: "Campos Novos"
    latitude: -27.40167
    longitude: -51.225
    population: 22563
    dem: 937
    timezone: "America/Sao_Paulo"
  - name: "Cacador"
    latitude: -26.77528
    longitude: -51.015
    population: 63726
    dem: 916
    timezone: "America/Sao_Paulo"
  - name: "Brusque"
    latitude: -27.09795
    longitude: -48.91281
    population: 88284
    dem: 22
    timezone: "America/Sao_Paulo"
  - name: "Braco do Norte"
    latitude: -28.275
    longitude: -49.16556
    population: 22374
    dem: 69
    timezone: "America/Sao_Paulo"
  - name: "Blumenau"
    latitude: -26.91944
    longitude: -49.06611
    population: 293949
    dem: 20
    timezone: "America/Sao_Paulo"
  - name: "Biguacu"
    latitude: -27.49417
    longitude: -48.65556
    population: 51992
    dem: 6
    timezone: "America/Sao_Paulo"
  - name: "Barra Velha"
    latitude: -26.63222
    longitude: -48.68472
    population: 17665
    dem: 14
    timezone: "America/Sao_Paulo"
  - name: "Balneario Camboriu"
    latitude: -26.99056
    longitude: -48.63472
    population: 49100
    dem: 12
    timezone: "America/Sao_Paulo"
  - name: "Ararangua"
    latitude: -28.93575
    longitude: -49.49538
    population: 43444
    dem: 5
    timezone: "America/Sao_Paulo"
  - name: "Campinas"
    latitude: -27.59444
    longitude: -48.60694
    population: 20000
    dem: 8
    timezone: "America/Sao_Paulo"
  - name: "Itacorubi"
    latitude: -27.58315
    longitude: -48.49503
    population: 12000
    elevation: 10
    dem: 38
    timezone: "America/Sao_Paulo"
  - name: "Santa Monica"
    latitude: -27.59137
    longitude: -48.50756
    population: 5100
    elevation: 5
    dem: 5
    timezone: "America/Sao_Paulo"
  - name: "Trindade"
    latitude: -27.58612
    longitude: -48.52335
    population: 15100
    elevation: 20
    dem: 10
    timezone: "America/Sao_Paulo"
  - name: "Saco dos Limoes"
    latitude: -27.60864
    longitude: -48.53605
    population: 14000
    elevation: 20
    dem: 7
    timezone: "America/Sao_Paulo"
  - name: "Costeira do Pirajubae"
    latitude: -27.63586
    longitude: -48.5212
    population: 9300
    elevation: 10
    dem: 40
    timezone: "America/Sao_Paulo"
  - name: "Freguesia do Ribeirao da Ilha"
    latitude: -27.71773
    longitude: -48.56266
    population: 21000
    elevation: 3
    dem: 13
    timezone: "America/Sao_Paulo"
  - name: "Residencia Moacir PU5BHV"
    latitude: -26.90967
    longitude: -49.36547
    population: 10000
    elevation: 88
    dem: 96
    timezone: "America/Sao_Paulo"
- name: "Piaui"
  cities:
  - name: "Valenca do Piaui"
    latitude: -6.4075
    longitude: -41.74556
    population: 15881
    dem: 336
    timezone: "America/Fortaleza"
  - name: "Urucui"
    latitude: -7.22944
    longitude: -44.55611
    population: 12243
    dem: 173
    timezone: "America/Fortaleza"
  - name: "Uniao"
    latitude: -4.58583
    longitude: -42.86417
    population: 15677
    dem: 60
    timezone: "America/Fortaleza"
  - name: "Teresina"
    latitude: -5.08917
    longitude: -42.80194
    population: 744512
    dem: 87
    timezone: "America/Fortaleza"
  - name: "Simplicio Mendes"
    latitude: -7.85389
    longitude: -41.91028
    population: 7076
    dem: 292
    timezone: "America/Fortaleza"
  - name: "Sao Raimundo Nonato"
    latitude: -9.01528
    longitude: -42.69944
    population: 19569
    dem: 354
    timezone: "America/Fortaleza"
  - name: "Sao Pedro do Piaui"
    latitude: -5.92944
    longitude: -42.71861
    population: 7408
    dem: 263
    timezone: "America/Fortaleza"
  - name: "Sao Miguel do Tapuio"
    latitude: -5.50361
    longitude: -41.32333
    population: 7964
    dem: 283
    timezone: "America/Fortaleza"
  - name: "Sao Joao do Piaui"
    latitude: -8.35806
    longitude: -42.24667
    population: 12688
    dem: 219
    timezone: "America/Fortaleza"
  - name: "Regeneracao"
    latitude: -6.23122
    longitude: -42.68691
    population: 13608
    dem: 177
    timezone: "America/Fortaleza"
  - name: "Porto"
    latitude: -3.89333
    longitude: -42.71
    population: 6535
    dem: 40
    timezone: "America/Fortaleza"
  - name: "Piripiri"
    latitude: -4.27333
    longitude: -41.77694
    population: 44864
    dem: 164
    timezone: "America/Fortaleza"
  - name: "Piracuruca"
    latitude: -3.92806
    longitude: -41.70917
    population: 18852
    dem: 75
    timezone: "America/Fortaleza"
  - name: "Picos"
    latitude: -7.07694
    longitude: -41.46694
    population: 57495
    dem: 203
    timezone: "America/Fortaleza"
  - name: "Pedro II"
    latitude: -4.42472
    longitude: -41.45861
    population: 22038
    dem: 608
    timezone: "America/Fortaleza"
  - name: "Parnaiba"
    latitude: -2.90472
    longitude: -41.77667
    population: 138008
    dem: 9
    timezone: "America/Fortaleza"
  - name: "Oeiras"
    latitude: -7.02528
    longitude: -42.13111
    population: 21071
    dem: 181
    timezone: "America/Fortaleza"
  - name: "Miguel Alves"
    latitude: -4.16556
    longitude: -42.89528
    population: 10438
    dem: 46
    timezone: "America/Fortaleza"
  - name: "Luzilandia"
    latitude: -3.45778
    longitude: -42.37028
    population: 12999
    dem: 39
    timezone: "America/Fortaleza"
  - name: "Luis Correia"
    latitude: -2.87917
    longitude: -41.66694
    population: 11479
    dem: 3
    timezone: "America/Fortaleza"
  - name: "Jose de Freitas"
    latitude: -4.75639
    longitude: -42.57556
    population: 21432
    dem: 131
    timezone: "America/Fortaleza"
  - name: "Jaicos"
    latitude: -7.35917
    longitude: -41.13778
    population: 7107
    dem: 290
    timezone: "America/Fortaleza"
  - name: "Itaueira"
    latitude: -7.60333
    longitude: -43.02556
    population: 5146
    dem: 264
    timezone: "America/Fortaleza"
  - name: "Ipueiras"
    latitude: -7.03333
    longitude: -40.45
    population: 17111
    dem: 558
    timezone: "America/Fortaleza"
  - name: "Inhuma"
    latitude: -6.66833
    longitude: -41.70778
    population: 7056
    dem: 391
    timezone: "America/Fortaleza"
  - name: "Floriano"
    latitude: -6.76694
    longitude: -43.0225
    population: 48587
    dem: 114
    timezone: "America/Fortaleza"
  - name: "Esperantina"
    latitude: -3.90167
    longitude: -42.23361
    population: 21044
    dem: 63
    timezone: "America/Fortaleza"
  - name: "Elesbao Veloso"
    latitude: -6.20194
    longitude: -42.14028
    population: 10430
    dem: 196
    timezone: "America/Fortaleza"
  - name: "Demerval Lobao"
    latitude: -5.35833
    longitude: -42.67639
    population: 15265
    dem: 116
    timezone: "America/Fortaleza"
  - name: "Cocal"
    latitude: -3.47194
    longitude: -41.5575
    population: 12097
    dem: 129
    timezone: "America/Fortaleza"
  - name: "Castelo do Piaui"
    latitude: -5.32222
    longitude: -41.5525
    population: 8589
    dem: 241
    timezone: "America/Fortaleza"
  - name: "Canto do Buriti"
    latitude: -8.11
    longitude: -42.94444
    population: 11714
    dem: 272
    timezone: "America/Fortaleza"
  - name: "Campo Maior"
    latitude: -4.82778
    longitude: -42.16861
    population: 31739
    dem: 128
    timezone: "America/Fortaleza"
  - name: "Buriti dos Lopes"
    latitude: -3.175
    longitude: -41.86694
    population: 9475
    dem: 23
    timezone: "America/Fortaleza"
  - name: "Bom Jesus"
    latitude: -9.07444
    longitude: -44.35861
    population: 12666
    dem: 281
    timezone: "America/Fortaleza"
  - name: "Beneditinos"
    latitude: -5.45
    longitude: -42.36667
    population: 5005
    dem: 118
    timezone: "America/Fortaleza"
  - name: "Batalha"
    latitude: -4.025
    longitude: -42.075
    population: 8744
    dem: 119
    timezone: "America/Fortaleza"
  - name: "Barras"
    latitude: -4.24444
    longitude: -42.29444
    population: 21597
    dem: 89
    timezone: "America/Fortaleza"
  - name: "Amarante"
    latitude: -6.24316
    longitude: -42.84544
    population: 8828
    dem: 102
    timezone: "America/Fortaleza"
  - name: "Altos"
    latitude: -5.03806
    longitude: -42.46
    population: 28768
    dem: 192
    timezone: "America/Fortaleza"
  - name: "Agua Branca"
    latitude: -5.89222
    longitude: -42.63611
    population: 13912
    dem: 247
    timezone: "America/Fortaleza"
- name: "Mato Grosso"
  cities:
  - name: "Varzea Grande"
    latitude: -15.64667
    longitude: -56.1325
    population: 249752
    dem: 197
    timezone: "America/Cuiaba"
  - name: "Santo Antonio do Leverger"
    latitude: -15.86556
    longitude: -56.07667
    population: 6387
    dem: 150
    timezone: "America/Cuiaba"
  - name: "Rosario Oeste"
    latitude: -14.83611
    longitude: -56.4275
    population: 10468
    dem: 201
    timezone: "America/Cuiaba"
  - name: "Rondonopolis"
    latitude: -16.47083
    longitude: -54.63556
    population: 152912
    dem: 230
    timezone: "America/Cuiaba"
  - name: "Poxoreo"
    latitude: -15.83722
    longitude: -54.38917
    population: 12475
    dem: 364
    timezone: "America/Cuiaba"
  - name: "Pontes e Lacerda"
    latitude: -15.22611
    longitude: -59.33528
    population: 29381
    dem: 247
    timezone: "America/Cuiaba"
  - name: "Pocone"
    latitude: -16.25667
    longitude: -56.62278
    population: 21484
    dem: 150
    timezone: "America/Cuiaba"
  - name: "Nova Olimpia"
    latitude: -14.79722
    longitude: -57.28806
    population: 19274
    dem: 183
    timezone: "America/Cuiaba"
  - name: "Nortelandia"
    latitude: -14.45472
    longitude: -56.80278
    population: 9634
    dem: 230
    timezone: "America/Cuiaba"
  - name: "Nobres"
    latitude: -14.72028
    longitude: -56.3275
    population: 12009
    dem: 200
    timezone: "America/Cuiaba"
  - name: "Lucas"
    latitude: -16.33333
    longitude: -55.93333
    population: 27665
    dem: 134
    timezone: "America/Cuiaba"
  - name: "Jaciara"
    latitude: -15.96528
    longitude: -54.96833
    population: 22737
    dem: 362
    timezone: "America/Cuiaba"
  - name: "Guiratinga"
    latitude: -16.34534
    longitude: -53.76177
    population: 10934
    dem: 508
    timezone: "America/Cuiaba"
  - name: "Diamantino"
    latitude: -14.40861
    longitude: -56.44611
    population: 15699
    dem: 282
    timezone: "America/Cuiaba"
  - name: "Cuiaba"
    latitude: -15.59611
    longitude: -56.09667
    population: 521934
    dem: 193
    timezone: "America/Cuiaba"
  - name: "Nova Xavantina"
    latitude: -14.66463
    longitude: -52.35558
    population: 20639
    dem: 271
    timezone: "America/Cuiaba"
  - name: "Chapada dos Guimaraes"
    latitude: -15.46056
    longitude: -55.74972
    population: 13650
    dem: 827
    timezone: "America/Cuiaba"
  - name: "Barra do Garcas"
    latitude: -15.89
    longitude: -52.25667
    population: 52398
    dem: 302
    timezone: "America/Cuiaba"
  - name: "Barra do Bugres"
    latitude: -15.0725
    longitude: -57.18111
    population: 31311
    dem: 183
    timezone: "America/Cuiaba"
  - name: "Arenapolis"
    latitude: -14.45028
    longitude: -56.84611
    population: 9059
    dem: 231
    timezone: "America/Cuiaba"
  - name: "Alto Araguaia"
    latitude: -17.31472
    longitude: -53.21528
    population: 8780
    dem: 672
    timezone: "America/Cuiaba"
  - name: "Aripuana"
    latitude: -9.16667
    longitude: -60.63333
    population: 26983
    dem: 144
    timezone: "America/Cuiaba"
  - name: "Sinop"
    latitude: -11.86417
    longitude: -55.5025
    population: 116013
    dem: 378
    timezone: "America/Cuiaba"
- name: "Espirito Santo"
  cities:
  - name: "Vitoria"
    latitude: -20.31944
    longitude: -40.33778
    population: 312656
    dem: 16
    timezone: "America/Sao_Paulo"
  - name: "Vila Velha"
    latitude: -20.32972
    longitude: -40.2925
    population: 394930
    dem: 5
    timezone: "America/Sao_Paulo"
  - name: "Viana"
    latitude: -20.39028
    longitude: -40.49611
    population: 55122
    dem: 35
    timezone: "America/Sao_Paulo"
  - name: "Serra"
    latitude: -20.12861
    longitude: -40.30778
    population: 394153
    dem: 57
    timezone: "America/Sao_Paulo"
  - name: "Sao Mateus"
    latitude: -18.72011
    longitude: -39.85891
    population: 77117
    dem: 38
    timezone: "America/Sao_Paulo"
  - name: "Sao Jose do Calcado"
    latitude: -21.02528
    longitude: -41.65444
    population: 7442
    dem: 327
    timezone: "America/Sao_Paulo"
  - name: "Santa Teresa"
    latitude: -19.93556
    longitude: -40.60028
    population: 9156
    dem: 656
    timezone: "America/Sao_Paulo"
  - name: "Rio Novo do Sul"
    latitude: -20.8625
    longitude: -40.93639
    population: 6717
    dem: 68
    timezone: "America/Sao_Paulo"
  - name: "Piuma"
    latitude: -20.83778
    longitude: -40.72194
    population: 17634
    dem: 2
    timezone: "America/Sao_Paulo"
  - name: "Pancas"
    latitude: -19.225
    longitude: -40.85139
    population: 8183
    dem: 119
    timezone: "America/Sao_Paulo"
  - name: "Nova Venecia"
    latitude: -18.71056
    longitude: -40.40056
    population: 28362
    dem: 80
    timezone: "America/Sao_Paulo"
  - name: "Muniz Freire"
    latitude: -20.46417
    longitude: -41.41306
    population: 8312
    dem: 555
    timezone: "America/Sao_Paulo"
  - name: "Mucurici"
    latitude: -18.09333
    longitude: -40.51583
    population: 9524
    dem: 223
    timezone: "America/Sao_Paulo"
  - name: "Montanha"
    latitude: -18.12694
    longitude: -40.36333
    population: 11934
    dem: 191
    timezone: "America/Sao_Paulo"
  - name: "Mimoso do Sul"
    latitude: -21.06417
    longitude: -41.36639
    population: 14044
    dem: 74
    timezone: "America/Sao_Paulo"
  - name: "Marechal Floriano"
    latitude: -20.41278
    longitude: -40.68306
    population: 5869
    dem: 555
    timezone: "America/Sao_Paulo"
  - name: "Marataizes"
    latitude: -21.04333
    longitude: -40.82444
    population: 25397
    dem: 7
    timezone: "America/Sao_Paulo"
  - name: "Mantenopolis"
    latitude: -18.8625
    longitude: -41.12278
    population: 8547
    dem: 413
    timezone: "America/Sao_Paulo"
  - name: "Linhares"
    latitude: -19.39111
    longitude: -40.07222
    population: 105075
    dem: 36
    timezone: "America/Sao_Paulo"
  - name: "Joao Neiva"
    latitude: -19.7575
    longitude: -40.38556
    population: 10383
    dem: 57
    timezone: "America/Sao_Paulo"
  - name: "Jetiba"
    latitude: -20.02069
    longitude: -40.68145
    population: 5883
    dem: 678
    timezone: "America/Sao_Paulo"
  - name: "Jeronimo Monteiro"
    latitude: -20.78944
    longitude: -41.395
    population: 6902
    dem: 118
    timezone: "America/Sao_Paulo"
  - name: "Iuna"
    latitude: -20.34583
    longitude: -41.53583
    population: 14290
    dem: 670
    timezone: "America/Sao_Paulo"
  - name: "Itapemirim"
    latitude: -21.01111
    longitude: -40.83389
    population: 17536
    dem: 9
    timezone: "America/Sao_Paulo"
  - name: "Itaguacu"
    latitude: -19.80194
    longitude: -40.85556
    population: 8201
    dem: 134
    timezone: "America/Sao_Paulo"
  - name: "Iconha"
    latitude: -20.79306
    longitude: -40.81111
    population: 5051
    dem: 29
    timezone: "America/Sao_Paulo"
  - name: "Ibiracu"
    latitude: -19.83194
    longitude: -40.36972
    population: 8921
    dem: 58
    timezone: "America/Sao_Paulo"
  - name: "Ibatiba"
    latitude: -20.23389
    longitude: -41.51056
    population: 12265
    dem: 750
    timezone: "America/Sao_Paulo"
  - name: "Guarapari"
    latitude: -20.67182
    longitude: -40.50196
    population: 100925
    dem: 5
    timezone: "America/Sao_Paulo"
  - name: "Guacui"
    latitude: -20.77556
    longitude: -41.67944
    population: 19786
    dem: 597
    timezone: "America/Sao_Paulo"
  - name: "Fundao"
    latitude: -19.93408
    longitude: -40.40473
    population: 12714
    dem: 37
    timezone: "America/Sao_Paulo"
  - name: "Ecoporanga"
    latitude: -18.37333
    longitude: -40.83056
    population: 13774
    dem: 230
    timezone: "America/Sao_Paulo"
  - name: "Domingos Martins"
    latitude: -20.36333
    longitude: -40.65917
    population: 6061
    dem: 525
    timezone: "America/Sao_Paulo"
  - name: "Conceicao da Barra"
    latitude: -18.59333
    longitude: -39.73222
    population: 19309
    dem: 8
    timezone: "America/Sao_Paulo"
  - name: "Colatina"
    latitude: -19.53944
    longitude: -40.63056
    population: 101190
    dem: 82
    timezone: "America/Sao_Paulo"
  - name: "Castelo"
    latitude: -20.60361
    longitude: -41.18472
    population: 20198
    dem: 129
    timezone: "America/Sao_Paulo"
  - name: "Cachoeiro de Itapemirim"
    latitude: -20.84889
    longitude: -41.11278
    population: 187019
    dem: 39
    timezone: "America/Sao_Paulo"
  - name: "Boa Esperanca"
    latitude: -18.54
    longitude: -40.29583
    population: 9254
    dem: 132
    timezone: "America/Sao_Paulo"
  - name: "Barra de Sao Francisco"
    latitude: -18.755
    longitude: -40.89083
    population: 20743
    dem: 197
    timezone: "America/Sao_Paulo"
  - name: "Baixo Guandu"
    latitude: -19.51889
    longitude: -41.01583
    population: 19292
    dem: 78
    timezone: "America/Sao_Paulo"
  - name: "Aracruz"
    latitude: -19.82028
    longitude: -40.27333
    population: 58271
    dem: 73
    timezone: "America/Sao_Paulo"
  - name: "Alfredo Chaves"
    latitude: -20.635
    longitude: -40.74972
    population: 6422
    dem: 19
    timezone: "America/Sao_Paulo"
  - name: "Alegre"
    latitude: -20.76361
    longitude: -41.53306
    population: 19757
    dem: 248
    timezone: "America/Sao_Paulo"
  - name: "Afonso Claudio"
    latitude: -20.07417
    longitude: -41.12389
    population: 13543
    dem: 368
    timezone: "America/Sao_Paulo"
  - name: "Santa Maria de Jetiba"
    latitude: -20.02745
    longitude: -40.74336
    population: 13090
    dem: 819
    timezone: "America/Sao_Paulo"
- name: "Goias"
  cities:
  - name: "Vianopolis"
    latitude: -16.74194
    longitude: -48.51639
    population: 7807
    dem: 1006
    timezone: "America/Sao_Paulo"
  - name: "Uruana"
    latitude: -15.5036
    longitude: -49.68266
    population: 10258
    dem: 595
    timezone: "America/Sao_Paulo"
  - name: "Uruacu"
    latitude: -14.52472
    longitude: -49.14083
    population: 30088
    dem: 524
    timezone: "America/Sao_Paulo"
  - name: "Trindade"
    latitude: -16.64944
    longitude: -49.48889
    population: 97521
    dem: 768
    timezone: "America/Sao_Paulo"
  - name: "Silvania"
    latitude: -16.65889
    longitude: -48.60806
    population: 11377
    dem: 903
    timezone: "America/Sao_Paulo"
  - name: "Senador Canedo"
    latitude: -16.70806
    longitude: -49.09306
    population: 61800
    dem: 800
    timezone: "America/Sao_Paulo"
  - name: "Sao Miguel do Araguaia"
    latitude: -13.275
    longitude: -50.16278
    population: 18809
    dem: 336
    timezone: "America/Sao_Paulo"
  - name: "Sao Luis de Montes Belos"
    latitude: -16.525
    longitude: -50.37222
    population: 23619
    dem: 579
    timezone: "America/Sao_Paulo"
  - name: "Santa Helena de Goias"
    latitude: -17.81361
    longitude: -50.59694
    population: 34254
    dem: 566
    timezone: "America/Sao_Paulo"
  - name: "Rubiataba"
    latitude: -15.16444
    longitude: -49.80333
    population: 16128
    dem: 638
    timezone: "America/Sao_Paulo"
  - name: "Rialma"
    latitude: -15.315
    longitude: -49.58444
    population: 9270
    dem: 574
    timezone: "America/Sao_Paulo"
  - name: "Quirinopolis"
    latitude: -18.44833
    longitude: -50.45167
    population: 32104
    dem: 531
    timezone: "America/Sao_Paulo"
  - name: "Posse"
    latitude: -14.09306
    longitude: -46.36944
    population: 20003
    dem: 815
    timezone: "America/Sao_Paulo"
  - name: "Porangatu"
    latitude: -13.44083
    longitude: -49.14861
    population: 32758
    dem: 407
    timezone: "America/Sao_Paulo"
  - name: "Pontalina"
    latitude: -17.525
    longitude: -49.44722
    population: 13639
    dem: 627
    timezone: "America/Sao_Paulo"
  - name: "Planaltina"
    latitude: -15.45278
    longitude: -47.61417
    population: 88853
    dem: 1038
    timezone: "America/Sao_Paulo"
  - name: "Pires do Rio"
    latitude: -17.29972
    longitude: -48.27944
    population: 24822
    dem: 770
    timezone: "America/Sao_Paulo"
  - name: "Pirenopolis"
    latitude: -15.85072
    longitude: -48.96087
    population: 13615
    dem: 751
    timezone: "America/Sao_Paulo"
  - name: "Piranhas"
    latitude: -16.42694
    longitude: -51.82222
    population: 9886
    dem: 366
    timezone: "America/Sao_Paulo"
  - name: "Piracanjuba"
    latitude: -17.30278
    longitude: -49.01667
    population: 16736
    dem: 737
    timezone: "America/Sao_Paulo"
  - name: "Petrolina de Goias"
    latitude: -16.095
    longitude: -49.33806
    population: 7710
    dem: 720
    timezone: "America/Sao_Paulo"
  - name: "Parauna"
    latitude: -16.94778
    longitude: -50.44861
    population: 9731
    dem: 679
    timezone: "America/Sao_Paulo"
  - name: "Palmeiras de Goias"
    latitude: -16.805
    longitude: -49.92583
    population: 13572
    dem: 608
    timezone: "America/Sao_Paulo"
  - name: "Padre Bernardo"
    latitude: -15.16595
    longitude: -48.28281
    population: 16118
    dem: 642
    timezone: "America/Sao_Paulo"
  - name: "Orizona"
    latitude: -17.03139
    longitude: -48.29583
    population: 7583
    dem: 810
    timezone: "America/Sao_Paulo"
  - name: "Niquelandia"
    latitude: -14.47389
    longitude: -48.45972
    population: 27541
    dem: 580
    timezone: "America/Sao_Paulo"
  - name: "Neropolis"
    latitude: -16.40639
    longitude: -49.21861
    population: 21870
    dem: 822
    timezone: "America/Sao_Paulo"
  - name: "Mozarlandia"
    latitude: -14.74472
    longitude: -50.57056
    population: 11251
    dem: 300
    timezone: "America/Sao_Paulo"
  - name: "Morrinhos"
    latitude: -17.73111
    longitude: -49.09944
    population: 34143
    dem: 751
    timezone: "America/Sao_Paulo"
  - name: "Mineiros"
    latitude: -17.56944
    longitude: -52.55111
    population: 38951
    dem: 766
    timezone: "America/Sao_Paulo"
  - name: "Luziania"
    latitude: -16.2525
    longitude: -47.95028
    population: 143601
    dem: 932
    timezone: "America/Sao_Paulo"
  - name: "Jatai"
    latitude: -17.87939
    longitude: -51.72166
    population: 76547
    dem: 741
    timezone: "America/Sao_Paulo"
  - name: "Jaragua"
    latitude: -15.75694
    longitude: -49.33444
    population: 30409
    dem: 655
    timezone: "America/Sao_Paulo"
  - name: "Itumbiara"
    latitude: -18.41917
    longitude: -49.21528
    population: 79582
    dem: 450
    timezone: "America/Sao_Paulo"
  - name: "Itapuranga"
    latitude: -15.56222
    longitude: -49.94861
    population: 19709
    dem: 652
    timezone: "America/Sao_Paulo"
  - name: "Itapirapua"
    latitude: -15.82333
    longitude: -50.61333
    population: 7923
    dem: 351
    timezone: "America/Sao_Paulo"
  - name: "Itapaci"
    latitude: -14.95083
    longitude: -49.54944
    population: 16117
    dem: 555
    timezone: "America/Sao_Paulo"
  - name: "Itaberai"
    latitude: -16.02028
    longitude: -49.81028
    population: 22129
    dem: 705
    timezone: "America/Sao_Paulo"
  - name: "Ipora"
    latitude: -16.44194
    longitude: -51.11778
    population: 28254
    dem: 594
    timezone: "America/Sao_Paulo"
  - name: "Ipameri"
    latitude: -17.72194
    longitude: -48.15972
    population: 18607
    dem: 773
    timezone: "America/Sao_Paulo"
  - name: "Inhumas"
    latitude: -16.35778
    longitude: -49.49611
    population: 44058
    dem: 763
    timezone: "America/Sao_Paulo"
  - name: "Iaciara"
    latitude: -14.09583
    longitude: -46.63167
    population: 9207
    dem: 579
    timezone: "America/Sao_Paulo"
  - name: "Hidrolandia"
    latitude: -16.96222
    longitude: -49.22806
    population: 7082
    dem: 824
    timezone: "America/Sao_Paulo"
  - name: "Guapo"
    latitude: -16.83056
    longitude: -49.53194
    population: 10075
    dem: 710
    timezone: "America/Sao_Paulo"
  - name: "Goiatuba"
    latitude: -18.0125
    longitude: -49.35472
    population: 25925
    dem: 768
    timezone: "America/Sao_Paulo"
  - name: "Goias"
    latitude: -15.93444
    longitude: -50.14028
    population: 19098
    dem: 496
    timezone: "America/Sao_Paulo"
  - name: "Goianira"
    latitude: -16.49611
    longitude: -49.42639
    population: 22822
    dem: 760
    timezone: "America/Sao_Paulo"
  - name: "Goiania"
    latitude: -16.67861
    longitude: -49.25389
    population: 1171195
    dem: 766
    timezone: "America/Sao_Paulo"
  - name: "Goianesia"
    latitude: -15.3175
    longitude: -49.1175
    population: 47883
    dem: 649
    timezone: "America/Sao_Paulo"
  - name: "Goianapolis"
    latitude: -16.51056
    longitude: -49.02389
    population: 10114
    dem: 975
    timezone: "America/Sao_Paulo"
  - name: "Formosa"
    latitude: -15.53722
    longitude: -47.33444
    population: 81232
    dem: 915
    timezone: "America/Sao_Paulo"
  - name: "Firminopolis"
    latitude: -16.58194
    longitude: -50.305
    population: 9084
    dem: 678
    timezone: "America/Sao_Paulo"
  - name: "Edeia"
    latitude: -17.33833
    longitude: -49.93139
    population: 9838
    dem: 579
    timezone: "America/Sao_Paulo"
  - name: "Crixas"
    latitude: -14.54889
    longitude: -49.96917
    population: 11559
    dem: 382
    timezone: "America/Sao_Paulo"
  - name: "Cristalina"
    latitude: -16.76769
    longitude: -47.6153
    population: 36531
    dem: 1229
    timezone: "America/Sao_Paulo"
  - name: "Ceres"
    latitude: -15.30833
    longitude: -49.59833
    population: 18759
    dem: 586
    timezone: "America/Sao_Paulo"
  - name: "Catalao"
    latitude: -18.16583
    longitude: -47.94639
    population: 63544
    dem: 843
    timezone: "America/Sao_Paulo"
  - name: "Carmo do Rio Verde"
    latitude: -15.35361
    longitude: -49.7075
    population: 6053
    dem: 611
    timezone: "America/Sao_Paulo"
  - name: "Campos Belos"
    latitude: -13.03667
    longitude: -46.77167
    population: 15582
    dem: 629
    timezone: "America/Sao_Paulo"
  - name: "Caldas Novas"
    latitude: -17.74431
    longitude: -48.62789
    population: 63675
    dem: 695
    timezone: "America/Sao_Paulo"
  - name: "Caiaponia"
    latitude: -16.95667
    longitude: -51.81028
    population: 10947
    dem: 720
    timezone: "America/Sao_Paulo"
  - name: "Cacu"
    latitude: -18.55667
    longitude: -51.13083
    population: 10098
    dem: 482
    timezone: "America/Sao_Paulo"
  - name: "Buriti Alegre"
    latitude: -18.14
    longitude: -49.04028
    population: 9427
    dem: 802
    timezone: "America/Sao_Paulo"
  - name: "Bela Vista de Goias"
    latitude: -16.97278
    longitude: -48.95333
    population: 14289
    dem: 803
    timezone: "America/Sao_Paulo"
  - name: "Barro Alto"
    latitude: -14.97083
    longitude: -48.91583
    population: 7633
    dem: 605
    timezone: "America/Sao_Paulo"
  - name: "Aragarcas"
    latitude: -15.8975
    longitude: -52.25083
    population: 16781
    dem: 306
    timezone: "America/Sao_Paulo"
  - name: "Anicuns"
    latitude: -16.46111
    longitude: -49.96167
    population: 15684
    dem: 708
    timezone: "America/Sao_Paulo"
  - name: "Anapolis"
    latitude: -16.32667
    longitude: -48.95278
    population: 319587
    dem: 1003
    timezone: "America/Sao_Paulo"
  - name: "Abadiania"
    latitude: -16.20417
    longitude: -48.70694
    population: 7062
    dem: 1057
    timezone: "America/Sao_Paulo"
  - name: "Aparecida de Goiania"
    latitude: -16.82333
    longitude: -49.24389
    population: 510770
    dem: 829
    timezone: "America/Sao_Paulo"
- name: "Alagoas"
  cities:
  - name: "Vicosa"
    latitude: -9.37139
    longitude: -36.24083
    population: 19573
    dem: 227
    timezone: "America/Maceio"
  - name: "Uniao dos Palmares"
    latitude: -9.16278
    longitude: -36.03194
    population: 41178
    dem: 154
    timezone: "America/Maceio"
  - name: "Traipu"
    latitude: -9.97056
    longitude: -37.00333
    population: 8427
    dem: 30
    timezone: "America/Maceio"
  - name: "Taquarana"
    latitude: -9.645
    longitude: -36.49722
    population: 5288
    dem: 242
    timezone: "America/Maceio"
  - name: "Satuba"
    latitude: -9.56333
    longitude: -35.82444
    population: 15887
    dem: 48
    timezone: "America/Maceio"
  - name: "Sao Sebastiao"
    latitude: -9.93361
    longitude: -36.55417
    population: 9551
    dem: 204
    timezone: "America/Maceio"
  - name: "Sao Miguel dos Campos"
    latitude: -9.78111
    longitude: -36.09361
    population: 40890
    dem: 13
    timezone: "America/Maceio"
  - name: "Sao Luis do Quitunde"
    latitude: -9.31833
    longitude: -35.56111
    population: 20563
    dem: 7
    timezone: "America/Maceio"
  - name: "Sao Jose da Tapera"
    latitude: -9.55833
    longitude: -37.38111
    population: 12391
    dem: 252
    timezone: "America/Maceio"
  - name: "Sao Jose da Laje"
    latitude: -9.00972
    longitude: -36.05833
    population: 12810
    dem: 265
    timezone: "America/Maceio"
  - name: "Santana do Mundau"
    latitude: -9.16806
    longitude: -36.22222
    population: 6439
    dem: 229
    timezone: "America/Maceio"
  - name: "Santana do Ipanema"
    latitude: -9.37833
    longitude: -37.24528
    population: 26146
    dem: 240
    timezone: "America/Maceio"
  - name: "Rio Largo"
    latitude: -9.47833
    longitude: -35.85333
    population: 63387
    dem: 97
    timezone: "America/Maceio"
  - name: "Quebrangulo"
    latitude: -9.31889
    longitude: -36.47111
    population: 6587
    dem: 370
    timezone: "America/Maceio"
  - name: "Porto Calvo"
    latitude: -9.045
    longitude: -35.39833
    population: 17346
    dem: 20
    timezone: "America/Maceio"
  - name: "Pilar"
    latitude: -9.59722
    longitude: -35.95667
    population: 30617
    dem: 125
    timezone: "America/Maceio"
  - name: "Pao de Acucar"
    latitude: -9.74833
    longitude: -37.43667
    population: 11497
    dem: 23
    timezone: "America/Maceio"
  - name: "Novo Lino"
    latitude: -8.915
    longitude: -35.64667
    population: 5538
    dem: 187
    timezone: "America/Maceio"
  - name: "Murici"
    latitude: -9.30667
    longitude: -35.94333
    population: 20419
    dem: 98
    timezone: "America/Maceio"
  - name: "Messias"
    latitude: -9.38333
    longitude: -35.84167
    population: 12375
    dem: 127
    timezone: "America/Maceio"
  - name: "Matriz de Camaragibe"
    latitude: -9.15167
    longitude: -35.53333
    population: 18705
    dem: 10
    timezone: "America/Maceio"
  - name: "Maribondo"
    latitude: -9.57722
    longitude: -36.30528
    population: 10475
    dem: 160
    timezone: "America/Maceio"
  - name: "Marechal Deodoro"
    latitude: -9.71028
    longitude: -35.895
    population: 50571
    dem: 12
    timezone: "America/Maceio"
  - name: "Maragogi"
    latitude: -9.01222
    longitude: -35.2225
    population: 16066
    dem: 16
    timezone: "America/Maceio"
  - name: "Major Isidoro"
    latitude: -9.53222
    longitude: -36.985
    population: 8507
    dem: 191
    timezone: "America/Maceio"
  - name: "Maceio"
    latitude: -9.66583
    longitude: -35.73528
    population: 954991
    dem: 11
    timezone: "America/Maceio"
  - name: "Lagoa da Canoa"
    latitude: -9.82972
    longitude: -36.73778
    population: 13422
    dem: 289
    timezone: "America/Maceio"
  - name: "Junqueiro"
    latitude: -9.92528
    longitude: -36.47583
    population: 7740
    dem: 186
    timezone: "America/Maceio"
  - name: "Girau do Ponciano"
    latitude: -9.88417
    longitude: -36.82889
    population: 9606
    dem: 248
    timezone: "America/Maceio"
  - name: "Inhapi"
    latitude: -9.22139
    longitude: -37.74861
    population: 7550
    dem: 407
    timezone: "America/Maceio"
  - name: "Igaci"
    latitude: -9.53694
    longitude: -36.63361
    population: 6480
    dem: 250
    timezone: "America/Maceio"
  - name: "Ibateguara"
    latitude: -8.9725
    longitude: -35.93944
    population: 8755
    dem: 440
    timezone: "America/Maceio"
  - name: "Flexeiras"
    latitude: -9.1975
    longitude: -35.78083
    population: 7782
    dem: 132
    timezone: "America/Maceio"
  - name: "Delmiro Gouveia"
    latitude: -9.38861
    longitude: -37.99917
    population: 35259
    dem: 246
    timezone: "America/Maceio"
  - name: "Capela"
    latitude: -9.4075
    longitude: -36.07361
    population: 12520
    dem: 87
    timezone: "America/Maceio"
  - name: "Campo Alegre"
    latitude: -9.78194
    longitude: -36.35083
    population: 16785
    dem: 181
    timezone: "America/Maceio"
  - name: "Cajueiro"
    latitude: -9.71667
    longitude: -36.45
    population: 15062
    dem: 215
    timezone: "America/Maceio"
  - name: "Batalha"
    latitude: -9.67778
    longitude: -37.12472
    population: 11820
    dem: 120
    timezone: "America/Maceio"
  - name: "Barra de Santo Antonio"
    latitude: -9.40472
    longitude: -35.50722
    population: 10057
    dem: 29
    timezone: "America/Maceio"
  - name: "Atalaia"
    latitude: -9.50194
    longitude: -36.02278
    population: 18908
    dem: 61
    timezone: "America/Maceio"
  - name: "Arapiraca"
    latitude: -9.7525
    longitude: -36.66111
    population: 166562
    dem: 275
    timezone: "America/Maceio"
  - name: "Anadia"
    latitude: -9.68444
    longitude: -36.30417
    population: 9574
    dem: 147
    timezone: "America/Maceio"
  - name: "Agua Branca"
    latitude: -9.26083
    longitude: -37.93611
    population: 5160
    dem: 569
    timezone: "America/Maceio"
  - name: "Porto Real do Colegio"
    latitude: -10.18583
    longitude: -36.84
    population: 6001
    dem: 10
    timezone: "America/Maceio"
  - name: "Piacabucu"
    latitude: -10.40556
    longitude: -36.43444
    population: 9861
    dem: 6
    timezone: "America/Maceio"
  - name: "Penedo"
    latitude: -10.29028
    longitude: -36.58639
    population: 42097
    dem: 12
    timezone: "America/Maceio"
  - name: "Coruripe"
    latitude: -10.12556
    longitude: -36.17556
    population: 31427
    dem: 19
    timezone: "America/Maceio"
- name: "Tocantins"
  cities:
  - name: "Araguaina"
    latitude: -7.19111
    longitude: -48.20722
    population: 105019
    dem: 237
    timezone: "America/Araguaina"
  - name: "Taguatinga"
    latitude: -12.40389
    longitude: -46.43611
    population: 13711
    dem: 599
    timezone: "America/Araguaina"
  - name: "Gurupi"
    latitude: -11.72917
    longitude: -49.06861
    population: 64789
    dem: 299
    timezone: "America/Araguaina"
  - name: "Alvorada"
    latitude: -12.48
    longitude: -49.12472
    population: 10232
    dem: 298
    timezone: "America/Araguaina"
  - name: "Palmas"
    latitude: -10.16745
    longitude: -48.32766
    population: 196272
    dem: 271
    timezone: "America/Araguaina"
- name: "Maranhao"
  cities:
  - name: "Vitorino Freire"
    latitude: -4.04238
    longitude: -45.23777
    population: 13267
    dem: 44
    timezone: "America/Fortaleza"
  - name: "Vitoria do Mearim"
    latitude: -3.46222
    longitude: -44.87056
    population: 15775
    dem: 15
    timezone: "America/Fortaleza"
  - name: "Viana"
    latitude: -3.22028
    longitude: -45.00361
    population: 26689
    dem: 13
    timezone: "America/Fortaleza"
  - name: "Vargem Grande"
    latitude: -3.54306
    longitude: -43.91583
    population: 21419
    dem: 44
    timezone: "America/Fortaleza"
  - name: "Urbano Santos"
    latitude: -3.20778
    longitude: -43.40361
    population: 12268
    dem: 42
    timezone: "America/Fortaleza"
  - name: "Tutoia"
    latitude: -2.76194
    longitude: -42.27444
    population: 12212
    dem: 5
    timezone: "America/Fortaleza"
  - name: "Turiacu"
    latitude: -1.66333
    longitude: -45.37167
    population: 10471
    dem: 34
    timezone: "America/Fortaleza"
  - name: "Tuntum"
    latitude: -5.25806
    longitude: -44.64889
    population: 16402
    dem: 109
    timezone: "America/Fortaleza"
  - name: "Timon"
    latitude: -5.09417
    longitude: -42.83667
    population: 124427
    dem: 76
    timezone: "America/Fortaleza"
  - name: "Timbiras"
    latitude: -4.25528
    longitude: -43.94056
    population: 17875
    dem: 36
    timezone: "America/Fortaleza"
  - name: "Sao Raimundo das Mangabeiras"
    latitude: -7.02194
    longitude: -45.48111
    population: 10216
    dem: 241
    timezone: "America/Fortaleza"
  - name: "Sao Mateus do Maranhao"
    latitude: -4.04167
    longitude: -44.475
    population: 28233
    dem: 47
    timezone: "America/Fortaleza"
  - name: "Sao Luis"
    latitude: -2.52972
    longitude: -44.30278
    population: 917237
    dem: 29
    timezone: "America/Fortaleza"
  - name: "Sao Jose de Ribamar"
    latitude: -2.56194
    longitude: -44.05417
    population: 27777
    dem: -9999
    timezone: "America/Fortaleza"
  - name: "Sao Joao dos Patos"
    latitude: -6.495
    longitude: -43.70222
    population: 19538
    dem: 346
    timezone: "America/Fortaleza"
  - name: "Sao Domingos do Maranhao"
    latitude: -5.57583
    longitude: -44.38528
    population: 18275
    dem: 179
    timezone: "America/Fortaleza"
  - name: "Sao Bernardo"
    latitude: -3.36139
    longitude: -42.41778
    population: 11171
    dem: 29
    timezone: "America/Fortaleza"
  - name: "Sao Bento"
    latitude: -2.69583
    longitude: -44.82139
    population: 17245
    dem: 10
    timezone: "America/Fortaleza"
  - name: "Sao Benedito do Rio Preto"
    latitude: -3.33361
    longitude: -43.52833
    population: 12079
    dem: 34
    timezone: "America/Fortaleza"
  - name: "Santa Rita"
    latitude: -3.86358
    longitude: -43.85999
    population: 13224
    dem: 44
    timezone: "America/Fortaleza"
  - name: "Santa Quiteria do Maranhao"
    latitude: -3.51556
    longitude: -42.54667
    population: 17174
    dem: 29
    timezone: "America/Fortaleza"
  - name: "Santa Luzia"
    latitude: -7.64265
    longitude: -47.21738
    population: 22909
    dem: 197
    timezone: "America/Fortaleza"
  - name: "Santa Ines"
    latitude: -3.66667
    longitude: -45.38
    population: 67424
    dem: 31
    timezone: "America/Fortaleza"
  - name: "Santa Helena"
    latitude: -2.23111
    longitude: -45.3
    population: 16045
    dem: 12
    timezone: "America/Fortaleza"
  - name: "Riachao"
    latitude: -7.36194
    longitude: -46.61722
    population: 12427
    dem: 385
    timezone: "America/Fortaleza"
  - name: "Raposa"
    latitude: -6.51667
    longitude: -44.18333
    population: 11883
    dem: 387
    timezone: "America/Fortaleza"
  - name: "Presidente Dutra"
    latitude: -5.29
    longitude: -44.49
    population: 30330
    dem: 108
    timezone: "America/Fortaleza"
  - name: "Porto Franco"
    latitude: -6.33833
    longitude: -47.39917
    population: 14873
    dem: 165
    timezone: "America/Araguaina"
