---
name: "Faroe Islands"
iso: "FO"
iso3: "FRO"
code: "234"
capital: "Torshavn"
area: 1399.0
population: 48228
continent: "EU"
currencyCode: "DKK"
currencyName: "Krone"
phone: "298"
postalCodeFormat: "###"
postalCodeRegex: "^(?:FO)*(\\d{3})$"
languages: "fo,da-FO"
regions:
- name: "Nordoyar sysla"
  cities:
  - name: "Klaksvik"
    latitude: 62.22655
    longitude: -6.58901
    population: 4664
    dem: 88
    timezone: "Atlantic/Faroe"
- name: "Suduroyar sysla"
  cities:
  - name: "Tvoroyri"
    latitude: 61.55557
    longitude: -6.81109
    population: 1230
    dem: 46
    timezone: "Atlantic/Faroe"
- name: "Eysturoyar sysla"
  cities:
  - name: "Fuglafjordur"
    latitude: 62.24398
    longitude: -6.81395
    population: 1542
    dem: 30
    timezone: "Atlantic/Faroe"
- name: "Streymoyar Sysla"
  cities:
  - name: "Torshavn"
    latitude: 62.00973
    longitude: -6.77164
    population: 13200
    dem: 1
    timezone: "Atlantic/Faroe"
- name: "Vaga Sysla"
  cities:
  - name: "Midvagur"
    latitude: 62.05111
    longitude: -7.19389
    population: 1040
    dem: 105
    timezone: "Atlantic/Faroe"
- name: "Sandoyar Sysla"
  cities:
  - name: "Sandur"
    latitude: 61.8425
    longitude: -6.80778
    population: 608
    dem: 113
    timezone: "Atlantic/Faroe"
