---
name: "French Guiana"
iso: "GF"
iso3: "GUF"
code: "254"
capital: "Cayenne"
area: 91000.0
population: 195506
continent: "SA"
currencyCode: "EUR"
currencyName: "Euro"
phone: "594"
postalCodeFormat: "#####"
postalCodeRegex: "^((97|98)3\\d{2})$"
languages: "fr-GF"
neighbours: "SR,BR"
regions:
- name: "Guyane"
  cities:
  - name: "Saint-Laurent-du-Maroni"
    latitude: 5.50153
    longitude: -54.02916
    population: 24287
    dem: 9
    timezone: "America/Cayenne"
  - name: "Remire-Montjoly"
    latitude: 4.91667
    longitude: -52.26667
    population: 19029
    dem: 7
    timezone: "America/Cayenne"
  - name: "Matoury"
    latitude: 4.84921
    longitude: -52.32355
    population: 26350
    dem: 28
    timezone: "America/Cayenne"
  - name: "Mana"
    latitude: 5.66906
    longitude: -53.77897
    population: 5885
    dem: 1
    timezone: "America/Cayenne"
  - name: "Macouria"
    latitude: 4.91216
    longitude: -52.37432
    population: 8773
    dem: 14
    timezone: "America/Cayenne"
  - name: "Kourou"
    latitude: 5.16281
    longitude: -52.64265
    population: 24029
    dem: 7
    timezone: "America/Cayenne"
  - name: "Cayenne"
    latitude: 4.93333
    longitude: -52.33333
    population: 61550
    dem: 7
    timezone: "America/Cayenne"
