---
name: "Croatia"
iso: "HR"
iso3: "HRV"
code: "191"
capital: "Zagreb"
area: 56542.0
population: 4284889
continent: "EU"
currencyCode: "HRK"
currencyName: "Kuna"
phone: "385"
postalCodeFormat: "#####"
postalCodeRegex: "^(?:HR)*(\\d{5})$"
languages: "hr-HR,sr"
neighbours: "HU,SI,BA,ME,RS"
regions:
- name: "Zadarska Zupanija"
  cities:
  - name: "Zadar"
    latitude: 44.11972
    longitude: 15.24222
    population: 71258
    dem: 19
    timezone: "Europe/Zagreb"
  - name: "Biograd na Moru"
    latitude: 43.94333
    longitude: 15.45194
    population: 5285
    dem: 17
    timezone: "Europe/Zagreb"
- name: "Istarska Zupanija"
  cities:
  - name: "Umag"
    latitude: 45.43139
    longitude: 13.52389
    population: 7807
    dem: 4
    timezone: "Europe/Zagreb"
  - name: "Rovinj"
    latitude: 45.08
    longitude: 13.64
    population: 13533
    dem: 9
    timezone: "Europe/Zagreb"
  - name: "Pula"
    latitude: 44.86833
    longitude: 13.84806
    population: 59078
    dem: 11
    timezone: "Europe/Zagreb"
  - name: "Porec"
    latitude: 45.22567
    longitude: 13.59511
    population: 10499
    dem: 4
    timezone: "Europe/Zagreb"
  - name: "Pazin"
    latitude: 45.24028
    longitude: 13.93667
    population: 5010
    dem: 268
    timezone: "Europe/Zagreb"
  - name: "Labin"
    latitude: 45.095
    longitude: 14.11972
    population: 7943
    dem: 214
    timezone: "Europe/Zagreb"
  - name: "Buzet"
    latitude: 45.40944
    longitude: 13.96667
    population: 6059
    dem: 80
    timezone: "Europe/Zagreb"
- name: "Osjecko-Baranjska Zupanija"
  cities:
  - name: "Visnjevac"
    latitude: 45.56861
    longitude: 18.61389
    population: 6680
    dem: 86
    timezone: "Europe/Zagreb"
  - name: "Valpovo"
    latitude: 45.66083
    longitude: 18.41861
    population: 7943
    dem: 88
    timezone: "Europe/Zagreb"
  - name: "Tenja"
    latitude: 45.49806
    longitude: 18.74722
    population: 7376
    dem: 89
    timezone: "Europe/Zagreb"
  - name: "Osijek"
    latitude: 45.55111
    longitude: 18.69389
    population: 88140
    dem: 87
    timezone: "Europe/Zagreb"
  - name: "Nasice"
    latitude: 45.48861
    longitude: 18.08778
    population: 8213
    dem: 153
    timezone: "Europe/Zagreb"
  - name: "Darda"
    latitude: 45.62806
    longitude: 18.69972
    population: 5420
    dem: 86
    timezone: "Europe/Zagreb"
  - name: "GJakovo"
    latitude: 45.30833
    longitude: 18.41056
    population: 19491
    dem: 107
    timezone: "Europe/Zagreb"
  - name: "Cepin"
    latitude: 45.52361
    longitude: 18.56333
    population: 9548
    dem: 88
    timezone: "Europe/Zagreb"
  - name: "Belisce"
    latitude: 45.68028
    longitude: 18.40583
    population: 7232
    dem: 89
    timezone: "Europe/Zagreb"
  - name: "Beli Manastir"
    latitude: 45.77
    longitude: 18.60361
    population: 8713
    dem: 94
    timezone: "Europe/Zagreb"
- name: "Sibensko-Kninska Zupanija"
  cities:
  - name: "Vodice"
    latitude: 43.76083
    longitude: 15.78278
    population: 6146
    dem: 13
    timezone: "Europe/Zagreb"
  - name: "Sibenik"
    latitude: 43.72722
    longitude: 15.90583
    population: 37112
    dem: 54
    timezone: "Europe/Zagreb"
  - name: "Knin"
    latitude: 44.04063
    longitude: 16.19662
    population: 11182
    dem: 230
    timezone: "Europe/Zagreb"
- name: "Krapinsko-Zagorska Zupanija"
  cities:
  - name: "Krapina"
    latitude: 46.16083
    longitude: 15.87889
    population: 4725
    dem: 237
    timezone: "Europe/Zagreb"
- name: "Bjelovarsko-Bilogorska Zupanija"
  cities:
  - name: "Daruvar"
    latitude: 45.59056
    longitude: 17.225
    population: 9863
    dem: 160
    timezone: "Europe/Zagreb"
  - name: "Bjelovar"
    latitude: 45.89861
    longitude: 16.84889
    population: 28275
    dem: 128
    timezone: "Europe/Zagreb"
- name: "Varazdinska Zupanija"
  cities:
  - name: "Varazdin"
    latitude: 46.30444
    longitude: 16.33778
    population: 41808
    dem: 173
    timezone: "Europe/Zagreb"
  - name: "Ivanec"
    latitude: 46.22306
    longitude: 16.12
    population: 5461
    dem: 230
    timezone: "Europe/Zagreb"
- name: "Splitsko-Dalmatinska Zupanija"
  cities:
  - name: "Trogir"
    latitude: 43.5125
    longitude: 16.25167
    population: 10960
    dem: 20
    timezone: "Europe/Zagreb"
  - name: "Split"
    latitude: 43.50891
    longitude: 16.43915
    population: 176314
    dem: 12
    timezone: "Europe/Zagreb"
  - name: "Solin"
    latitude: 43.5432
    longitude: 16.49314
    population: 20212
    dem: 15
    timezone: "Europe/Zagreb"
  - name: "Sinj"
    latitude: 43.70361
    longitude: 16.63944
    population: 11524
    dem: 322
    timezone: "Europe/Zagreb"
  - name: "Podstrana"
    latitude: 43.48668
    longitude: 16.55013
    population: 9129
    dem: 20
    timezone: "Europe/Zagreb"
  - name: "Omis"
    latitude: 43.44472
    longitude: 16.68861
    population: 6597
    dem: 0
    timezone: "Europe/Zagreb"
  - name: "Makarska"
    latitude: 43.29694
    longitude: 17.01778
    population: 13446
    dem: 3
    timezone: "Europe/Zagreb"
  - name: "Kastel Stari"
    latitude: 43.55
    longitude: 16.35
    population: 7052
    dem: -9999
    timezone: "Europe/Zagreb"
  - name: "Kastel Novi"
    latitude: 43.55
    longitude: 16.33333
    population: 6411
    dem: 5
    timezone: "Europe/Zagreb"
  - name: "Kastel Luksic"
    latitude: 43.55528
    longitude: 16.3675
    population: 5425
    dem: 19
    timezone: "Europe/Zagreb"
  - name: "Kastel Kambelovac"
    latitude: 43.55
    longitude: 16.38333
    population: 5027
    dem: 5
    timezone: "Europe/Zagreb"
- name: "Grad Zagreb"
  cities:
  - name: "Zagreb"
    latitude: 45.81444
    longitude: 15.97798
    population: 698966
    dem: 135
    timezone: "Europe/Zagreb"
  - name: "Sesvete"
    latitude: 45.83111
    longitude: 16.11639
    population: 52411
    dem: 142
    timezone: "Europe/Zagreb"
  - name: "Brezovica"
    latitude: 45.72919
    longitude: 15.91069
    population: 10884
    dem: 118
    timezone: "Europe/Zagreb"
  - name: "Stenjevec"
    latitude: 45.80846
    longitude: 15.88245
    population: 41257
    dem: 118
    timezone: "Europe/Zagreb"
  - name: "Centar"
    latitude: 45.81313
    longitude: 15.97753
    population: 37000
    dem: 134
    timezone: "Europe/Zagreb"
- name: "Dubrovacko-Neretvanska Zupanija"
  cities:
  - name: "Metkovic"
    latitude: 43.05417
    longitude: 17.64833
    population: 13941
    dem: 5
    timezone: "Europe/Zagreb"
  - name: "Dubrovnik"
    latitude: 42.64807
    longitude: 18.09216
    population: 28428
    dem: 52
    timezone: "Europe/Zagreb"
- name: "Vukovarsko-Srijemska Zupanija"
  cities:
  - name: "Zupanja"
    latitude: 45.0775
    longitude: 18.6975
    population: 13842
    dem: 81
    timezone: "Europe/Zagreb"
  - name: "Vukovar"
    latitude: 45.35161
    longitude: 19.00225
    population: 29584
    dem: 70
    timezone: "Europe/Zagreb"
  - name: "Vinkovci"
    latitude: 45.28833
    longitude: 18.80472
    population: 33314
    dem: 91
    timezone: "Europe/Zagreb"
  - name: "Otok"
    latitude: 45.14667
    longitude: 18.88389
    population: 5887
    dem: 90
    timezone: "Europe/Zagreb"
  - name: "Ivankovo"
    latitude: 45.28861
    longitude: 18.68389
    population: 6728
    dem: 86
    timezone: "Europe/Zagreb"
  - name: "Ilok"
    latitude: 45.22222
    longitude: 19.37694
    population: 5926
    dem: 99
    timezone: "Europe/Zagreb"
  - name: "Gunja"
    latitude: 44.88
    longitude: 18.85333
    population: 5058
    dem: 84
    timezone: "Europe/Zagreb"
  - name: "Borovo"
    latitude: 45.37639
    longitude: 18.96694
    population: 5056
    dem: 86
    timezone: "Europe/Zagreb"
- name: "Koprivnicko-Krizevacka Zupanija"
  cities:
  - name: "Krizevci"
    latitude: 46.02194
    longitude: 16.5425
    population: 11597
    dem: 145
    timezone: "Europe/Zagreb"
  - name: "Koprivnica"
    latitude: 46.16278
    longitude: 16.8275
    population: 25579
    dem: 139
    timezone: "Europe/Zagreb"
  - name: "GJurgevac"
    latitude: 46.04111
    longitude: 17.06972
    population: 6349
    dem: 119
    timezone: "Europe/Zagreb"
- name: "Primorsko-Goranska Zupanija"
  cities:
  - name: "Rijeka"
    latitude: 45.32673
    longitude: 14.44241
    population: 141172
    dem: 12
    timezone: "Europe/Zagreb"
  - name: "Opatija"
    latitude: 45.33771
    longitude: 14.30515
    population: 7888
    dem: 59
    timezone: "Europe/Zagreb"
  - name: "Novi Vinodolski"
    latitude: 45.12806
    longitude: 14.78889
    population: 5282
    dem: 33
    timezone: "Europe/Zagreb"
  - name: "Drenova"
    latitude: 45.35
    longitude: 14.43028
    population: 7638
    dem: 278
    timezone: "Europe/Zagreb"
  - name: "Crikvenica"
    latitude: 45.17722
    longitude: 14.69278
    population: 7156
    dem: 53
    timezone: "Europe/Zagreb"
- name: "Megimurska Zupanija"
  cities:
  - name: "Mursko Sredisce"
    latitude: 46.50944
    longitude: 16.44111
    population: 6307
    elevation: 167
    dem: 167
    timezone: "Europe/Zagreb"
  - name: "Cakovec"
    latitude: 46.38444
    longitude: 16.43389
    population: 15867
    dem: 162
    timezone: "Europe/Zagreb"
- name: "Licko-Senjska Zupanija"
  cities:
  - name: "Senj"
    latitude: 44.98944
    longitude: 14.90583
    population: 5518
    dem: 18
    timezone: "Europe/Zagreb"
  - name: "Gospic"
    latitude: 44.54611
    longitude: 15.37472
    population: 6118
    dem: 563
    timezone: "Europe/Zagreb"
- name: "Sisacko-Moslavacka Zupanija"
  cities:
  - name: "Sisak"
    latitude: 45.46611
    longitude: 16.37833
    population: 35748
    dem: 108
    timezone: "Europe/Zagreb"
  - name: "Popovaca"
    latitude: 45.56972
    longitude: 16.625
    population: 12000
    dem: 127
    timezone: "Europe/Zagreb"
  - name: "Petrinja"
    latitude: 45.4375
    longitude: 16.29
    population: 13868
    dem: 111
    timezone: "Europe/Zagreb"
  - name: "Novska"
    latitude: 45.34056
    longitude: 16.97694
    population: 7306
    dem: 123
    timezone: "Europe/Zagreb"
  - name: "Kutina"
    latitude: 45.475
    longitude: 16.78194
    population: 14886
    dem: 104
    timezone: "Europe/Zagreb"
- name: "Zagreb County"
  cities:
  - name: "Zapresic"
    latitude: 45.85639
    longitude: 15.80778
    population: 19664
    elevation: 130
    dem: 129
    timezone: "Europe/Zagreb"
  - name: "Velika Gorica"
    latitude: 45.7125
    longitude: 16.07556
    population: 35072
    dem: 107
    timezone: "Europe/Zagreb"
  - name: "Samobor"
    latitude: 45.80306
    longitude: 15.71806
    population: 15221
    dem: 153
    timezone: "Europe/Zagreb"
  - name: "Jastrebarsko"
    latitude: 45.66833
    longitude: 15.64861
    population: 5445
    dem: 142
    timezone: "Europe/Zagreb"
- name: "Brodsko-Posavska Zupanija"
  cities:
  - name: "Slavonski Brod"
    latitude: 45.16028
    longitude: 18.01556
    population: 60742
    dem: 89
    timezone: "Europe/Zagreb"
  - name: "Nova Gradiska"
    latitude: 45.255
    longitude: 17.38306
    population: 13329
    dem: 123
    timezone: "Europe/Zagreb"
- name: "Viroviticko-Podravska Zupanija"
  cities:
  - name: "Virovitica"
    latitude: 45.83194
    longitude: 17.38389
    population: 15665
    dem: 123
    timezone: "Europe/Zagreb"
  - name: "Slatina"
    latitude: 45.70333
    longitude: 17.70278
    population: 10973
    dem: 124
    timezone: "Europe/Zagreb"
  - name: "Pitomaca"
    latitude: 45.95056
    longitude: 17.22944
    population: 5740
    dem: 111
    timezone: "Europe/Zagreb"
- name: "Pozesko-Slavonska Zupanija"
  cities:
  - name: "Pozega"
    latitude: 45.34028
    longitude: 17.68528
    population: 21153
    dem: 140
    timezone: "Europe/Zagreb"
- name: "Karlovacka Zupanija"
  cities:
  - name: "Ogulin"
    latitude: 45.26611
    longitude: 15.22861
    population: 8755
    dem: 323
    timezone: "Europe/Zagreb"
  - name: "Karlovac"
    latitude: 45.49167
    longitude: 15.55
    population: 46833
    dem: 114
    timezone: "Europe/Zagreb"
