---
name: "Italy"
iso: "IT"
iso3: "ITA"
code: "380"
capital: "Rome"
area: 301230.0
population: 60340328
continent: "EU"
currencyCode: "EUR"
currencyName: "Euro"
phone: "39"
postalCodeFormat: "#####"
postalCodeRegex: "^(\\d{5})$"
languages: "it-IT,de-IT,fr-IT,sc,ca,co,sl"
neighbours: "CH,VA,SI,SM,FR,AT"
regions:
- name: "Liguria"
  cities:
  - name: "Ventimiglia"
    latitude: 43.78956
    longitude: 7.60872
    population: 18442
    elevation: 9
    dem: 10
    timezone: "Europe/Rome"
  - name: "Varazze"
    latitude: 44.36412
    longitude: 8.5963
    population: 11534
    elevation: 10
    dem: 73
    timezone: "Europe/Rome"
  - name: "Vallecrosia"
    latitude: 43.78671
    longitude: 7.63902
    population: 6024
    elevation: 5
    dem: 12
    timezone: "Europe/Rome"
  - name: "Vado Ligure"
    latitude: 44.26913
    longitude: 8.43375
    population: 7991
    dem: 11
    timezone: "Europe/Rome"
  - name: "Taggia"
    latitude: 43.84612
    longitude: 7.85223
    population: 12762
    elevation: 39
    dem: 24
    timezone: "Europe/Rome"
  - name: "Sestri Levante"
    latitude: 44.27317
    longitude: 9.39683
    population: 16963
    elevation: 10
    dem: 5
    timezone: "Europe/Rome"
  - name: "Serra Ricco"
    latitude: 44.51071
    longitude: 8.93806
    population: 7879
    dem: 145
    timezone: "Europe/Rome"
  - name: "Savona"
    latitude: 44.30905
    longitude: 8.47715
    population: 58283
    elevation: 4
    dem: 15
    timezone: "Europe/Rome"
  - name: "Sarzana"
    latitude: 44.11178
    longitude: 9.9622
    population: 20435
    elevation: 21
    dem: 28
    timezone: "Europe/Rome"
  - name: "Santo Stefano di Magra"
    latitude: 44.14891
    longitude: 9.92185
    population: 8153
    elevation: 50
    dem: 30
    timezone: "Europe/Rome"
  - name: "Santa Margherita Ligure"
    latitude: 44.33456
    longitude: 9.21204
    population: 8428
    elevation: 13
    dem: 9
    timezone: "Europe/Rome"
  - name: "San Remo"
    latitude: 43.81725
    longitude: 7.7772
    population: 47043
    elevation: 15
    dem: 22
    timezone: "Europe/Rome"
  - name: "Recco"
    latitude: 44.36227
    longitude: 9.14354
    population: 9680
    elevation: 5
    dem: 11
    timezone: "Europe/Rome"
  - name: "Rapallo"
    latitude: 44.3496
    longitude: 9.22796
    population: 26993
    elevation: 5
    dem: 11
    timezone: "Europe/Rome"
  - name: "Pietra Ligure"
    latitude: 44.1492
    longitude: 8.28206
    population: 8478
    elevation: 3
    dem: 14
    timezone: "Europe/Rome"
  - name: "Marina di Andora"
    latitude: 43.95353
    longitude: 8.1546
    population: 5008
    elevation: 10
    dem: 45
    timezone: "Europe/Rome"
  - name: "Loano"
    latitude: 44.12777
    longitude: 8.25743
    population: 11014
    elevation: 4
    dem: 13
    timezone: "Europe/Rome"
  - name: "Lerici"
    latitude: 44.07587
    longitude: 9.91121
    population: 8793
    elevation: 10
    dem: 12
    timezone: "Europe/Rome"
  - name: "Lavagna"
    latitude: 44.3062
    longitude: 9.35383
    population: 11455
    elevation: 6
    dem: 38
    timezone: "Europe/Rome"
  - name: "La Spezia"
    latitude: 44.103
    longitude: 9.82375
    population: 88491
    elevation: 3
    dem: 2
    timezone: "Europe/Rome"
  - name: "Imperia"
    latitude: 43.88917
    longitude: 8.03933
    population: 38675
    elevation: 10
    dem: 9
    timezone: "Europe/Rome"
  - name: "Genoa"
    latitude: 44.40478
    longitude: 8.94439
    population: 580223
    elevation: 19
    dem: 17
    timezone: "Europe/Rome"
  - name: "Finale Ligure"
    latitude: 44.16952
    longitude: 8.3436
    population: 9495
    elevation: 10
    dem: 12
    timezone: "Europe/Rome"
  - name: "Diano Marina"
    latitude: 43.91088
    longitude: 8.08029
    population: 5130
    elevation: 4
    dem: 6
    timezone: "Europe/Rome"
  - name: "Cogoleto"
    latitude: 44.38996
    longitude: 8.64692
    population: 5955
    elevation: 4
    dem: 11
    timezone: "Europe/Rome"
  - name: "Chiavari"
    latitude: 44.31771
    longitude: 9.32241
    population: 26572
    elevation: 5
    dem: 7
    timezone: "Europe/Rome"
  - name: "Ceriale"
    latitude: 44.09128
    longitude: 8.22893
    population: 5152
    elevation: 10
    dem: 9
    timezone: "Europe/Rome"
  - name: "Ceparana-Carpena"
    latitude: 44.16667
    longitude: 9.88333
    population: 5951
    dem: 30
    timezone: "Europe/Rome"
  - name: "Carcare"
    latitude: 44.35465
    longitude: 8.29039
    population: 5537
    elevation: 365
    dem: 357
    timezone: "Europe/Rome"
  - name: "Cairo Montenotte"
    latitude: 44.3979
    longitude: 8.27775
    population: 8925
    elevation: 338
    dem: 330
    timezone: "Europe/Rome"
  - name: "Busalla"
    latitude: 44.5706
    longitude: 8.94545
    population: 5216
    elevation: 358
    dem: 373
    timezone: "Europe/Rome"
  - name: "Bordighera"
    latitude: 43.78064
    longitude: 7.66451
    population: 9016
    elevation: 5
    dem: 11
    timezone: "Europe/Rome"
  - name: "Arenzano"
    latitude: 44.40521
    longitude: 8.68315
    population: 11226
    elevation: 10
    dem: 24
    timezone: "Europe/Rome"
  - name: "Arcola"
    latitude: 44.11778
    longitude: 9.91175
    population: 5941
    elevation: 70
    dem: 25
    timezone: "Europe/Rome"
  - name: "Albisola Marina"
    latitude: 44.33079
    longitude: 8.5096
    population: 5314
    dem: 3
    timezone: "Europe/Rome"
  - name: "Albenga"
    latitude: 44.04997
    longitude: 8.21829
    population: 17103
    elevation: 5
    dem: 4
    timezone: "Europe/Rome"
  - name: "Alassio"
    latitude: 44.00393
    longitude: 8.16713
    population: 10623
    elevation: 6
    dem: 12
    timezone: "Europe/Rome"
  - name: "Albisola Superiore"
    latitude: 44.33889
    longitude: 8.51046
    population: 9635
    elevation: 10
    dem: 12
    timezone: "Europe/Rome"
  - name: "Casarza Ligure"
    latitude: 44.27188
    longitude: 9.44704
    population: 5439
    elevation: 34
    dem: 24
    timezone: "Europe/Rome"
  - name: "Andora"
    latitude: 43.95514
    longitude: 8.14121
    population: 6767
    dem: 7
    timezone: "Europe/Rome"
  - name: "Colombiera-Molicciara"
    latitude: 44.0875
    longitude: 10.01037
    population: 6945
    dem: 24
    timezone: "Europe/Rome"
  - name: "Casano-Dogana-Isola"
    latitude: 44.07565
    longitude: 10.03381
    population: 6704
    dem: 40
    timezone: "Europe/Rome"
  - name: "Pedemonte"
    latitude: 44.50307
    longitude: 8.92614
    population: 5824
    dem: 128
    timezone: "Europe/Rome"
  - name: "Vado Centro"
    latitude: 44.26857
    longitude: 8.43225
    population: 5276
    dem: 9
    timezone: "Europe/Rome"
- name: "Veneto"
  cities:
  - name: "Zevio"
    latitude: 45.37209
    longitude: 11.12929
    population: 12035
    dem: 29
    timezone: "Europe/Rome"
  - name: "Zero Branco"
    latitude: 45.59952
    longitude: 12.16381
    population: 5838
    elevation: 18
    dem: 14
    timezone: "Europe/Rome"
  - name: "Zelarino"
    latitude: 45.51508
    longitude: 12.2079
    population: 5260
    elevation: 2
    dem: 5
    timezone: "Europe/Rome"
  - name: "Zane"
    latitude: 45.722
    longitude: 11.44932
    population: 6600
    elevation: 183
    dem: 173
    timezone: "Europe/Rome"
  - name: "Vittorio Veneto"
    latitude: 45.98026
    longitude: 12.30065
    population: 24789
    elevation: 138
    dem: 129
    timezone: "Europe/Rome"
  - name: "Lancenigo-Villorba"
    latitude: 45.71289
    longitude: 12.25697
    population: 15265
    dem: 24
    timezone: "Europe/Rome"
  - name: "Villafranca di Verona"
    latitude: 45.35405
    longitude: 10.84462
    population: 15895
    elevation: 54
    dem: 51
    timezone: "Europe/Rome"
  - name: "Villadose"
    latitude: 45.07219
    longitude: 11.89899
    population: 5086
    elevation: 3
    dem: -1
    timezone: "Europe/Rome"
  - name: "Vigonza"
    latitude: 45.43484
    longitude: 11.97465
    population: 13798
    elevation: 10
    dem: 4
    timezone: "Europe/Rome"
  - name: "Vigodarzere"
    latitude: 45.45751
    longitude: 11.88555
    population: 6278
    elevation: 17
    dem: 14
    timezone: "Europe/Rome"
  - name: "Vigasio"
    latitude: 45.3178
    longitude: 10.94371
    population: 6918
    elevation: 37
    dem: 35
    timezone: "Europe/Rome"
  - name: "Vicenza"
    latitude: 45.54672
    longitude: 11.5475
    population: 107129
    elevation: 39
    dem: 45
    timezone: "Europe/Rome"
  - name: "Verona"
    latitude: 45.4299
    longitude: 10.98444
    population: 219103
    elevation: 59
    dem: 62
    timezone: "Europe/Rome"
  - name: "Venice"
    latitude: 45.43713
    longitude: 12.33265
    population: 51298
    elevation: 2
    dem: 5
    timezone: "Europe/Rome"
  - name: "Vazzola"
    latitude: 45.83511
    longitude: 12.40851
    population: 5283
    elevation: 30
    dem: 23
    timezone: "Europe/Rome"
  - name: "Valeggio sul Mincio"
    latitude: 45.35333
    longitude: 10.73635
    population: 8641
    elevation: 88
    dem: 90
    timezone: "Europe/Rome"
  - name: "Valdobbiadene"
    latitude: 45.89689
    longitude: 11.98245
    population: 6307
    elevation: 253
    dem: 223
    timezone: "Europe/Rome"
  - name: "Valdagno"
    latitude: 45.64498
    longitude: 11.29886
    population: 22555
    elevation: 230
    dem: 269
    timezone: "Europe/Rome"
  - name: "Trissino"
    latitude: 45.55994
    longitude: 11.37678
    population: 6255
    elevation: 125
    dem: 121
    timezone: "Europe/Rome"
  - name: "Treviso"
    latitude: 45.66673
    longitude: 12.2416
    population: 77604
    elevation: 15
    dem: 13
    timezone: "Europe/Rome"
  - name: "Trebaseleghe"
    latitude: 45.59295
    longitude: 12.04392
    population: 7901
    elevation: 22
    dem: 20
    timezone: "Europe/Rome"
  - name: "Torri di Quartesolo"
    latitude: 45.51901
    longitude: 11.62469
    population: 8522
    elevation: 30
    dem: 27
    timezone: "Europe/Rome"
  - name: "Torreglia"
    latitude: 45.33617
    longitude: 11.73608
    population: 5241
    elevation: 16
    dem: 11
    timezone: "Europe/Rome"
  - name: "Tombolo"
    latitude: 45.63916
    longitude: 11.82435
    population: 7787
    elevation: 42
    dem: 40
    timezone: "Europe/Rome"
  - name: "Thiene"
    latitude: 45.7088
    longitude: 11.47959
    population: 21145
    elevation: 147
    dem: 151
    timezone: "Europe/Rome"
  - name: "Tencarola"
    latitude: 45.3949
    longitude: 11.80919
    population: 6308
    elevation: 18
    dem: 12
    timezone: "Europe/Rome"
  - name: "Taglio di Po"
    latitude: 45.00189
    longitude: 12.21386
    population: 6848
    elevation: 0
    dem: 0
    timezone: "Europe/Rome"
  - name: "Taglio"
    latitude: 45.02222
    longitude: 12.21083
    population: 14441
    dem: -1
    timezone: "Europe/Rome"
  - name: "Stra"
    latitude: 45.41123
    longitude: 12.01418
    population: 6200
    elevation: 9
    dem: 8
    timezone: "Europe/Rome"
  - name: "Spresiano"
    latitude: 45.77908
    longitude: 12.25628
    population: 10287
    elevation: 56
    dem: 54
    timezone: "Europe/Rome"
  - name: "Sommacampagna"
    latitude: 45.40528
    longitude: 10.84382
    population: 7258
    elevation: 121
    dem: 95
    timezone: "Europe/Rome"
  - name: "Solesino"
    latitude: 45.17922
    longitude: 11.74647
    population: 6794
    elevation: 10
    dem: 4
    timezone: "Europe/Rome"
  - name: "Soave"
    latitude: 45.41955
    longitude: 11.24594
    population: 5035
    elevation: 40
    dem: 31
    timezone: "Europe/Rome"
  - name: "Silea"
    latitude: 45.65444
    longitude: 12.29701
    population: 6077
    elevation: 7
    dem: 12
    timezone: "Europe/Rome"
  - name: "Selvazzano Dentro"
    latitude: 45.38764
    longitude: 11.79232
    population: 7962
    elevation: 18
    dem: 16
    timezone: "Europe/Rome"
  - name: "Sedico"
    latitude: 46.10563
    longitude: 12.0933
    population: 5478
    elevation: 317
    dem: 311
    timezone: "Europe/Rome"
  - name: "Scorze"
    latitude: 45.57405
    longitude: 12.11156
    population: 8699
    elevation: 16
    dem: 14
    timezone: "Europe/Rome"
  - name: "Schio"
    latitude: 45.71262
    longitude: 11.35671
    population: 33740
    elevation: 200
    dem: 199
    timezone: "Europe/Rome"
  - name: "Sarmeola"
    latitude: 45.424
    longitude: 11.81674
    population: 7797
    dem: 16
    timezone: "Europe/Rome"
  - name: "San Zenone degli Ezzelini"
    latitude: 45.7804
    longitude: 11.8372
    population: 6506
    dem: 116
    timezone: "Europe/Rome"
  - name: "San Vendemiano"
    latitude: 45.88732
    longitude: 12.35164
    population: 8776
    dem: 44
    timezone: "Europe/Rome"
  - name: "San Stino di Livenza"
    latitude: 45.72559
    longitude: 12.68971
    population: 7080
    elevation: 6
    dem: 3
    timezone: "Europe/Rome"
  - name: "Santorso"
    latitude: 45.73383
    longitude: 11.38785
    population: 5236
    elevation: 240
    dem: 206
    timezone: "Europe/Rome"
  - name: "SantAngelo di Piove di Sacco"
    latitude: 45.31735
    longitude: 12.00941
    population: 6128
    elevation: 8
    dem: 2
    timezone: "Europe/Rome"
  - name: "SantAmbrogio di Valpollicella"
    latitude: 45.52089
    longitude: 10.83618
    population: 10384
    dem: 158
    timezone: "Europe/Rome"
  - name: "Santa Maria Maddalena"
    latitude: 44.90231
    longitude: 11.60663
    population: 8174
    dem: 5
    timezone: "Europe/Rome"
  - name: "San Martino di Lupari"
    latitude: 45.65128
    longitude: 11.86004
    population: 10931
    elevation: 40
    dem: 40
    timezone: "Europe/Rome"
  - name: "San Martino Buon Albergo"
    latitude: 45.42083
    longitude: 11.09562
    population: 11818
    elevation: 45
    dem: 46
    timezone: "Europe/Rome"
  - name: "San Giovanni Lupatoto"
    latitude: 45.38193
    longitude: 11.04474
    population: 20038
    elevation: 42
    dem: 44
    timezone: "Europe/Rome"
  - name: "Sandrigo"
    latitude: 45.66083
    longitude: 11.58921
    population: 6333
    elevation: 64
    dem: 68
    timezone: "Europe/Rome"
  - name: "San Dona di Piave"
    latitude: 45.63019
    longitude: 12.5681
    population: 32819
    elevation: 3
    dem: 4
    timezone: "Europe/Rome"
  - name: "San Bonifacio"
    latitude: 45.39595
    longitude: 11.27352
    population: 17347
    elevation: 31
    dem: 29
    timezone: "Europe/Rome"
  - name: "Salzano"
    latitude: 45.52221
    longitude: 12.10151
    population: 7450
    elevation: 10
    dem: 9
    timezone: "Europe/Rome"
  - name: "Salgareda"
    latitude: 45.705
    longitude: 12.48833
    population: 5574
    dem: 9
    timezone: "Europe/Rome"
  - name: "Rovigo"
    latitude: 45.06982
    longitude: 11.79022
    population: 39347
    elevation: 7
    dem: 11
    timezone: "Europe/Rome"
  - name: "Rossano Veneto"
    latitude: 45.70308
    longitude: 11.80369
    population: 7572
    elevation: 78
    dem: 74
    timezone: "Europe/Rome"
  - name: "Rosolina"
    latitude: 45.07674
    longitude: 12.22977
    population: 5185
    elevation: 1
    dem: 0
    timezone: "Europe/Rome"
  - name: "Rosa"
    latitude: 45.70198
    longitude: 11.76141
    population: 12548
    elevation: 96
    dem: 76
    timezone: "Europe/Rome"
  - name: "Roncade"
    latitude: 45.62165
    longitude: 12.37643
    population: 6585
    elevation: 8
    dem: 7
    timezone: "Europe/Rome"
  - name: "Quinto di Treviso"
    latitude: 45.64351
    longitude: 12.16509
    population: 6796
    elevation: 17
    dem: 15
    timezone: "Europe/Rome"
  - name: "Quarto dAltino"
    latitude: 45.57944
    longitude: 12.37333
    population: 5880
    elevation: 4
    dem: 3
    timezone: "Europe/Rome"
  - name: "Preganziol"
    latitude: 45.60139
    longitude: 12.23722
    population: 6674
    elevation: 12
    dem: 11
    timezone: "Europe/Rome"
  - name: "Povegliano Veronese"
    latitude: 45.3473
    longitude: 10.88056
    population: 6113
    elevation: 47
    dem: 48
    timezone: "Europe/Rome"
  - name: "Porto Tolle"
    latitude: 44.94969
    longitude: 12.32453
    population: 10666
    dem: -2
    timezone: "Europe/Rome"
  - name: "Portogruaro"
    latitude: 45.78071
    longitude: 12.84052
    population: 17468
    elevation: 5
    dem: 3
    timezone: "Europe/Rome"
  - name: "Ponte San Nicolo"
    latitude: 45.36718
    longitude: 11.92341
    population: 12180
    elevation: 12
    dem: 9
    timezone: "Europe/Rome"
  - name: "Ponte nellAlpi"
    latitude: 46.18083
    longitude: 12.28333
    population: 7913
    dem: 402
    timezone: "Europe/Rome"
  - name: "Ponte nelle Alpi-Polpet"
    latitude: 46.18833
    longitude: 12.27833
    population: 5089
    dem: 402
    timezone: "Europe/Rome"
  - name: "Piovene Rocchette"
    latitude: 45.75601
    longitude: 11.43273
    population: 8069
    elevation: 279
    dem: 253
    timezone: "Europe/Rome"
  - name: "Piove di Sacco-Piovega"
    latitude: 45.29665
    longitude: 12.03683
    population: 13287
    elevation: 5
    dem: 5
    timezone: "Europe/Rome"
  - name: "Pieve di Soligo"
    latitude: 45.89836
    longitude: 12.17128
    population: 9516
    elevation: 132
    dem: 136
    timezone: "Europe/Rome"
  - name: "Pianiga"
    latitude: 45.45708
    longitude: 12.00762
    population: 6169
    elevation: 8
    dem: 6
    timezone: "Europe/Rome"
  - name: "Peschiera del Garda"
    latitude: 45.43912
    longitude: 10.68614
    population: 7733
    elevation: 68
    dem: 82
    timezone: "Europe/Rome"
  - name: "Pescantina"
    latitude: 45.48548
    longitude: 10.86796
    population: 11743
    elevation: 80
    dem: 92
    timezone: "Europe/Rome"
  - name: "Paese"
    latitude: 45.67417
    longitude: 12.16389
    population: 9395
    elevation: 32
    dem: 29
    timezone: "Europe/Rome"
  - name: "Padova"
    latitude: 45.40797
    longitude: 11.88586
    population: 203725
    elevation: 12
    dem: 18
    timezone: "Europe/Rome"
  - name: "Ospedaletto Euganeo"
    latitude: 45.21842
    longitude: 11.60345
    population: 5494
    elevation: 12
    dem: 9
    timezone: "Europe/Rome"
  - name: "Oderzo"
    latitude: 45.78114
    longitude: 12.49442
    population: 15764
    elevation: 13
    dem: 9
    timezone: "Europe/Rome"
  - name: "Noventa Vicentina"
    latitude: 45.29438
    longitude: 11.54843
    population: 7588
    elevation: 16
    dem: 14
    timezone: "Europe/Rome"
  - name: "Noventa di Piave"
    latitude: 45.65981
    longitude: 12.53322
    population: 5154
    elevation: 3
    dem: 5
    timezone: "Europe/Rome"
  - name: "Nogara"
    latitude: 45.18109
    longitude: 11.06008
    population: 7003
    elevation: 18
    dem: 19
    timezone: "Europe/Rome"
  - name: "Noale"
    latitude: 45.54596
    longitude: 12.06445
    population: 10500
    elevation: 18
    dem: 11
    timezone: "Europe/Rome"
  - name: "Negrar"
    latitude: 45.52918
    longitude: 10.93899
    population: 6464
    elevation: 190
    dem: 184
    timezone: "Europe/Rome"
  - name: "Musile di Piave"
    latitude: 45.62057
    longitude: 12.54177
    population: 7652
    elevation: 4
    dem: 1
    timezone: "Europe/Rome"
  - name: "Motta di Livenza"
    latitude: 45.77552
    longitude: 12.60411
    population: 7242
    elevation: 9
    dem: 7
    timezone: "Europe/Rome"
  - name: "Montorio"
    latitude: 45.45826
    longitude: 11.06589
    population: 5330
    elevation: 59
    dem: 55
    timezone: "Europe/Rome"
  - name: "Monticello Conte Otto"
    latitude: 45.59784
    longitude: 11.57234
    population: 7361
    elevation: 42
    dem: 43
    timezone: "Europe/Rome"
  - name: "Montegrotto Terme"
    latitude: 45.33119
    longitude: 11.78634
    population: 10276
    elevation: 11
    dem: 19
    timezone: "Europe/Rome"
  - name: "Monteforte dAlpone"
    latitude: 45.42013
    longitude: 11.28446
    population: 5235
    elevation: 38
    dem: 33
    timezone: "Europe/Rome"
  - name: "Montecchio Maggiore-Alte Ceccato"
    latitude: 45.50369
    longitude: 11.412
    population: 20815
    dem: 71
    timezone: "Europe/Rome"
  - name: "Montebelluna"
    latitude: 45.77504
    longitude: 12.04904
    population: 26670
    elevation: 109
    dem: 112
    timezone: "Europe/Rome"
  - name: "Montebello Vicentino"
    latitude: 45.45919
    longitude: 11.38272
    population: 5097
    elevation: 53
    dem: 83
    timezone: "Europe/Rome"
  - name: "Montagnana"
    latitude: 45.23229
    longitude: 11.46483
    population: 8000
    elevation: 16
    dem: 17
    timezone: "Europe/Rome"
  - name: "Monselice"
    latitude: 45.239
    longitude: 11.74984
    population: 18682
    elevation: 9
    dem: 13
    timezone: "Europe/Rome"
  - name: "Mogliano Veneto"
    latitude: 45.55594
    longitude: 12.24294
    population: 21991
    elevation: 6
    dem: 5
    timezone: "Europe/Rome"
  - name: "Mirano"
    latitude: 45.49458
    longitude: 12.10775
    population: 15139
    elevation: 9
    dem: 8
    timezone: "Europe/Rome"
  - name: "Mira Taglio"
    latitude: 45.4346
    longitude: 12.12942
    population: 32881
    dem: 6
    timezone: "Europe/Rome"
  - name: "Mestrino"
    latitude: 45.44139
    longitude: 11.75931
    population: 7593
    elevation: 20
    dem: 19
    timezone: "Europe/Rome"
  - name: "Mestre"
    latitude: 45.49167
    longitude: 12.24538
    population: 147662
    elevation: 2
    dem: 5
    timezone: "Europe/Rome"
  - name: "Masera di Padova"
    latitude: 45.31827
    longitude: 11.86543
    population: 5383
    elevation: 9
    dem: 8
    timezone: "Europe/Rome"
  - name: "Martellago"
    latitude: 45.54383
    longitude: 12.16363
    population: 7224
    elevation: 12
    dem: 9
    timezone: "Europe/Rome"
  - name: "Marostica"
    latitude: 45.74541
    longitude: 11.66237
    population: 9264
    elevation: 103
    dem: 100
    timezone: "Europe/Rome"
  - name: "Marcon-Gaggio-Colmello"
    latitude: 45.56444
    longitude: 12.29889
    population: 12565
    dem: 4
    timezone: "Europe/Rome"
  - name: "Marano Vicentino"
    latitude: 45.696
    longitude: 11.43237
    population: 9084
    elevation: 136
    dem: 137
    timezone: "Europe/Rome"
  - name: "Malo"
    latitude: 45.6591
    longitude: 11.41601
    population: 13218
    elevation: 91
    dem: 113
    timezone: "Europe/Rome"
  - name: "Maerne"
    latitude: 45.52313
    longitude: 12.15477
    population: 7168
    elevation: 8
    dem: 10
    timezone: "Europe/Rome"
  - name: "Lugagnano"
    latitude: 45.43327
    longitude: 10.88402
    population: 8383
    elevation: 91
    dem: 92
    timezone: "Europe/Rome"
  - name: "Lonigo"
    latitude: 45.38576
    longitude: 11.38402
    population: 12110
    elevation: 31
    dem: 25
    timezone: "Europe/Rome"
  - name: "Limena"
    latitude: 45.46948
    longitude: 11.84574
    population: 5448
    elevation: 22
    dem: 16
    timezone: "Europe/Rome"
  - name: "Lido di Jesolo"
    latitude: 45.50694
    longitude: 12.64694
    population: 10523
    dem: 6
    timezone: "Europe/Rome"
  - name: "Lido"
    latitude: 45.4105
    longitude: 12.36649
    population: 15719
    elevation: 2
    dem: 5
    timezone: "Europe/Rome"
  - name: "Lendinara"
    latitude: 45.08301
    longitude: 11.60318
    population: 7475
    elevation: 9
    dem: 9
    timezone: "Europe/Rome"
  - name: "Legnaro"
    latitude: 45.34238
    longitude: 11.96482
    population: 6813
    elevation: 8
    dem: 7
    timezone: "Europe/Rome"
  - name: "Legnago"
    latitude: 45.19365
    longitude: 11.30227
    population: 21646
    elevation: 16
    dem: 15
    timezone: "Europe/Rome"
  - name: "Giudecca"
    latitude: 45.42477
    longitude: 12.32906
    population: 6147
    elevation: 2
    dem: 0
    timezone: "Europe/Rome"
  - name: "Isola della Scala"
    latitude: 45.26943
    longitude: 11.00824
    population: 8348
    elevation: 31
    dem: 27
    timezone: "Europe/Rome"
  - name: "Iesolo"
    latitude: 45.53311
    longitude: 12.64475
    population: 7875
    dem: 3
    timezone: "Europe/Rome"
  - name: "Galliera Veneta"
    latitude: 45.6675
    longitude: 11.82217
    population: 6729
    elevation: 49
    dem: 53
    timezone: "Europe/Rome"
  - name: "San Vendemiano-Fossamerlo"
    latitude: 45.8918
    longitude: 12.32992
    population: 6034
    elevation: 51
    dem: 54
    timezone: "Europe/Rome"
  - name: "Fontaniva"
    latitude: 45.63516
    longitude: 11.75381
    population: 6081
    elevation: 44
    dem: 43
    timezone: "Europe/Rome"
  - name: "Feltre"
    latitude: 46.02085
    longitude: 11.90031
    population: 13643
    elevation: 325
    dem: 275
    timezone: "Europe/Rome"
  - name: "Farra di Soligo"
    latitude: 45.90528
    longitude: 12.12444
    population: 7892
    dem: 161
    timezone: "Europe/Rome"
  - name: "Este"
    latitude: 45.22338
    longitude: 11.66379
    population: 16963
    elevation: 15
    dem: 11
    timezone: "Europe/Rome"
  - name: "Dueville"
    latitude: 45.63556
    longitude: 11.55135
    population: 12649
    elevation: 57
    dem: 55
    timezone: "Europe/Rome"
  - name: "Dosson"
    latitude: 45.63605
    longitude: 12.25409
    population: 5783
    elevation: 12
    dem: 14
    timezone: "Europe/Rome"
  - name: "Dossobuono"
    latitude: 45.39333
    longitude: 10.91054
    population: 6087
    elevation: 66
    dem: 63
    timezone: "Europe/Rome"
  - name: "Dolo"
    latitude: 45.42528
    longitude: 12.08429
    population: 8410
    elevation: 7
    dem: 4
    timezone: "Europe/Rome"
  - name: "Crocetta del Montello"
    latitude: 45.83667
    longitude: 12.03361
    population: 5709
    dem: 152
    timezone: "Europe/Rome"
  - name: "Creazzo"
    latitude: 45.53154
    longitude: 11.47789
    population: 10124
    elevation: 99
    dem: 38
    timezone: "Europe/Rome"
  - name: "Cortina dAmpezzo"
    latitude: 46.5369
    longitude: 12.13903
    population: 5423
    elevation: 1211
    dem: 1205
    timezone: "Europe/Rome"
  - name: "Cornuda"
    latitude: 45.83152
    longitude: 12.00598
    population: 5699
    elevation: 163
    dem: 165
    timezone: "Europe/Rome"
  - name: "Cornedo Vicentino"
    latitude: 45.61626
    longitude: 11.33225
    population: 7654
    elevation: 200
    dem: 201
    timezone: "Europe/Rome"
  - name: "Conselve"
    latitude: 45.23154
    longitude: 11.87498
    population: 8768
    elevation: 7
    dem: 8
    timezone: "Europe/Rome"
  - name: "Conegliano"
    latitude: 45.88805
    longitude: 12.30201
    population: 30765
    elevation: 72
    dem: 63
    timezone: "Europe/Rome"
  - name: "Concordia Sagittaria"
    latitude: 45.76118
    longitude: 12.82362
    population: 8677
    elevation: 2
    dem: 3
    timezone: "Europe/Rome"
  - name: "Cittadella"
    latitude: 45.64523
    longitude: 11.78453
    population: 14421
    elevation: 48
    dem: 47
    timezone: "Europe/Rome"
  - name: "Chioggia"
    latitude: 45.21857
    longitude: 12.27774
    population: 41897
    elevation: 2
    dem: 5
    timezone: "Europe/Rome"
  - name: "Chiampo"
    latitude: 45.54746
    longitude: 11.28285
    population: 10857
    elevation: 175
    dem: 214
    timezone: "Europe/Rome"
  - name: "Cerea"
    latitude: 45.18936
    longitude: 11.21661
    population: 12869
    elevation: 18
    dem: 17
    timezone: "Europe/Rome"
  - name: "Ceggia"
    latitude: 45.687
    longitude: 12.64228
    population: 5493
    elevation: 2
    dem: 2
    timezone: "Europe/Rome"
  - name: "Cavarzere"
    latitude: 45.13518
    longitude: 12.08453
    population: 8992
    elevation: 4
    dem: 4
    timezone: "Europe/Rome"
  - name: "Castelfranco Veneto"
    latitude: 45.67146
    longitude: 11.92755
    population: 25545
    elevation: 43
    dem: 46
    timezone: "Europe/Rome"
  - name: "Casale sul Sile"
    latitude: 45.59638
    longitude: 12.32655
    population: 7951
    elevation: 6
    dem: 5
    timezone: "Europe/Rome"
  - name: "Carmignano di Brenta"
    latitude: 45.62578
    longitude: 11.70599
    population: 6295
    elevation: 46
    dem: 42
    timezone: "Europe/Rome"
  - name: "Caorle"
    latitude: 45.59656
    longitude: 12.8758
    population: 7511
    elevation: 1
    dem: 1
    timezone: "Europe/Rome"
  - name: "Camposampiero"
    latitude: 45.56368
    longitude: 11.93534
    population: 8722
    elevation: 24
    dem: 23
    timezone: "Europe/Rome"
  - name: "Camponogara"
    latitude: 45.37954
    longitude: 12.08638
    population: 10817
    elevation: 4
    dem: 0
    timezone: "Europe/Rome"
  - name: "Campodarsego"
    latitude: 45.49815
    longitude: 11.92194
    population: 11971
    elevation: 17
    dem: 13
    timezone: "Europe/Rome"
  - name: "Camisano Vicentino"
    latitude: 45.52156
    longitude: 11.70817
    population: 8244
    elevation: 24
    dem: 26
    timezone: "Europe/Rome"
  - name: "Caldogno-Rettorgole-Cresole"
    latitude: 45.6078
    longitude: 11.5028
    population: 10361
    dem: 49
    timezone: "Europe/Rome"
  - name: "Caerano di San Marco"
    latitude: 45.7816
    longitude: 11.99851
    population: 7106
    elevation: 124
    dem: 116
    timezone: "Europe/Rome"
  - name: "Bussolengo"
    latitude: 45.46903
    longitude: 10.85371
    population: 15170
    elevation: 127
    dem: 120
    timezone: "Europe/Rome"
  - name: "Breganze"
    latitude: 45.70489
    longitude: 11.56074
    population: 5470
    elevation: 110
    dem: 108
    timezone: "Europe/Rome"
  - name: "Bovolone"
    latitude: 45.26142
    longitude: 11.11786
    population: 14036
    elevation: 24
    dem: 23
    timezone: "Europe/Rome"
  - name: "Borgoricco-San Michele delle Badesse-SantEufemia"
    latitude: 45.5352
    longitude: 11.94111
    population: 6036
    dem: 18
    timezone: "Europe/Rome"
  - name: "Belluno"
    latitude: 46.14262
    longitude: 12.2156
    population: 25064
    elevation: 383
    dem: 398
    timezone: "Europe/Rome"
  - name: "Bassano del Grappa"
    latitude: 45.76656
    longitude: 11.72739
    population: 38224
    elevation: 129
    dem: 112
    timezone: "Europe/Rome"
  - name: "Badia Polesine"
    latitude: 45.09508
    longitude: 11.49443
    population: 6940
    elevation: 11
    dem: 12
    timezone: "Europe/Rome"
  - name: "Arzignano"
    latitude: 45.52027
    longitude: 11.33446
    population: 21247
    elevation: 118
    dem: 117
    timezone: "Europe/Rome"
  - name: "Altavilla Vicentina"
    latitude: 45.51329
    longitude: 11.46877
    population: 10128
    elevation: 45
    dem: 45
    timezone: "Europe/Rome"
  - name: "Albignasego"
    latitude: 45.34705
    longitude: 11.86781
    population: 16477
    elevation: 13
    dem: 11
    timezone: "Europe/Rome"
  - name: "Adria"
    latitude: 45.05445
    longitude: 12.05599
    population: 12986
    elevation: 4
    dem: 7
    timezone: "Europe/Rome"
  - name: "Abano Terme"
    latitude: 45.35753
    longitude: 11.78725
    population: 18224
    elevation: 14
    dem: 12
    timezone: "Europe/Rome"
  - name: "Santa Lucia di Piave"
    latitude: 45.86159
    longitude: 12.2939
    population: 8581
    elevation: 55
    dem: 48
    timezone: "Europe/Rome"
  - name: "Mareno di Piave"
    latitude: 45.84572
    longitude: 12.33703
    population: 7369
    elevation: 36
    dem: 38
    timezone: "Europe/Rome"
  - name: "Ponzano"
    latitude: 45.71541
    longitude: 12.20444
    population: 10238
    dem: 35
    timezone: "Europe/Rome"
  - name: "Fosso"
    latitude: 45.3858
    longitude: 12.04627
    population: 5021
    elevation: 7
    dem: 4
    timezone: "Europe/Rome"
  - name: "Fiesso dArtico"
    latitude: 45.42139
    longitude: 12.02944
    population: 5779
    dem: 5
    timezone: "Europe/Rome"
  - name: "Spinea-Orgnano"
    latitude: 45.49107
    longitude: 12.155
    population: 23710
    dem: 2
    timezone: "Europe/Rome"
  - name: "Col San Martino"
    latitude: 45.9002
    longitude: 12.11575
    population: 8425
    elevation: 163
    dem: 148
    timezone: "Europe/Rome"
  - name: "Beccacivetta-Azzano"
    latitude: 45.37435
    longitude: 10.96133
    population: 10402
    dem: 48
    timezone: "Europe/Rome"
  - name: "Noventa"
    latitude: 45.41429
    longitude: 11.95101
    population: 9131
    dem: 13
    timezone: "Europe/Rome"
  - name: "Castelnuovo del Garda"
    latitude: 45.43878
    longitude: 10.75978
    population: 5341
    elevation: 130
    dem: 100
    timezone: "Europe/Rome"
  - name: "Romano dEzzelino"
    latitude: 45.77902
    longitude: 11.76657
    population: 12700
    elevation: 166
    dem: 130
    timezone: "Europe/Rome"
  - name: "San Pietro in Cariano"
    latitude: 45.51751
    longitude: 10.88624
    population: 6119
    elevation: 151
    dem: 157
    timezone: "Europe/Rome"
  - name: "Carrara San Giorgio"
    latitude: 45.29259
    longitude: 11.81841
    population: 8101
    dem: 8
    timezone: "Europe/Rome"
  - name: "Porto Viro"
    latitude: 45.02678
    longitude: 12.21754
    population: 13644
    elevation: 2
    dem: -1
    timezone: "Europe/Rome"
  - name: "Lavagno"
    latitude: 45.43869
    longitude: 11.13409
    population: 5964
    dem: 60
    timezone: "Europe/Rome"
  - name: "Caldiero"
    latitude: 45.41439
    longitude: 11.17739
    population: 5743
    elevation: 44
    dem: 46
    timezone: "Europe/Rome"
  - name: "San Giorgio delle Pertiche"
    latitude: 45.541
    longitude: 11.89401
    population: 7009
    elevation: 22
    dem: 23
    timezone: "Europe/Rome"
  - name: "Arbizzano-Santa Maria"
    latitude: 45.49489
    longitude: 10.93831
    population: 5148
    dem: 90
    timezone: "Europe/Rome"
  - name: "Ca Savio"
    latitude: 45.45375
    longitude: 12.45729
    population: 5737
    elevation: 2
    dem: 3
    timezone: "Europe/Rome"
  - name: "Priula-Colfosco"
    latitude: 45.81998
    longitude: 12.25847
    population: 6743
    dem: 65
    timezone: "Europe/Rome"
  - name: "Mejaniga"
    latitude: 45.45768
    longitude: 11.90644
    population: 11434
    dem: 11
    timezone: "Europe/Rome"
  - name: "San Zeno-San Giuseppe"
    latitude: 45.75727
    longitude: 11.76208
    population: 9334
    dem: 117
    timezone: "Europe/Rome"
  - name: "Fiesso"
    latitude: 45.41954
    longitude: 12.03378
    population: 7372
    dem: 6
    timezone: "Europe/Rome"
  - name: "Belvedere"
    latitude: 45.69001
    longitude: 11.7718
    population: 6878
    dem: 69
    timezone: "Europe/Rome"
  - name: "Villatora"
    latitude: 45.38768
    longitude: 11.96736
    population: 6154
    dem: 8
    timezone: "Europe/Rome"
  - name: "Mandriola-SantAgostino"
    latitude: 45.36926
    longitude: 11.85101
    population: 5908
    dem: 9
    timezone: "Europe/Rome"
  - name: "Frescada"
    latitude: 45.62878
    longitude: 12.23671
    population: 5800
    dem: 13
    timezone: "Europe/Rome"
  - name: "Caselle"
    latitude: 45.41129
    longitude: 11.81663
    population: 5742
    dem: 14
    timezone: "Europe/Rome"
- name: "Sardegna"
  cities:
  - name: "Villasor"
    latitude: 39.3813
    longitude: 8.9427
    population: 6598
    elevation: 25
    dem: 27
    timezone: "Europe/Rome"
  - name: "Villacidro"
    latitude: 39.45734
    longitude: 8.74105
    population: 12768
    elevation: 267
    dem: 230
    timezone: "Europe/Rome"
  - name: "Uta"
    latitude: 39.29186
    longitude: 8.95234
    population: 6831
    elevation: 6
    dem: 7
    timezone: "Europe/Rome"
  - name: "Tortoli"
    latitude: 39.92626
    longitude: 9.65569
    population: 7830
    elevation: 13
    dem: 19
    timezone: "Europe/Rome"
  - name: "Terralba"
    latitude: 39.72056
    longitude: 8.63504
    population: 9583
    elevation: 9
    dem: 13
    timezone: "Europe/Rome"
  - name: "Sinnai"
    latitude: 39.30286
    longitude: 9.20283
    population: 15791
    elevation: 134
    dem: 145
    timezone: "Europe/Rome"
  - name: "Settimo San Pietro"
    latitude: 39.2911
    longitude: 9.1857
    population: 6361
    elevation: 70
    dem: 75
    timezone: "Europe/Rome"
  - name: "Sestu"
    latitude: 39.29846
    longitude: 9.09248
    population: 18191
    elevation: 44
    dem: 45
    timezone: "Europe/Rome"
  - name: "Serramanna"
    latitude: 39.42335
    longitude: 8.92243
    population: 8608
    elevation: 30
    dem: 45
    timezone: "Europe/Rome"
  - name: "Selargius"
    latitude: 39.25779
    longitude: 9.16323
    population: 23285
    elevation: 11
    dem: 13
    timezone: "Europe/Rome"
  - name: "San Sperate"
    latitude: 39.35758
    longitude: 9.00814
    population: 7158
    elevation: 41
    dem: 42
    timezone: "Europe/Rome"
  - name: "SantAntioco"
    latitude: 39.07017
    longitude: 8.45243
    population: 10997
    elevation: 7
    dem: 28
    timezone: "Europe/Rome"
  - name: "Sanluri"
    latitude: 39.56176
    longitude: 8.89969
    population: 7745
    elevation: 135
    dem: 135
    timezone: "Europe/Rome"
  - name: "San Gavino Monreale"
    latitude: 39.55008
    longitude: 8.79065
    population: 8647
    elevation: 54
    dem: 60
    timezone: "Europe/Rome"
  - name: "Samassi"
    latitude: 39.48208
    longitude: 8.90538
    population: 5321
    elevation: 56
    dem: 54
    timezone: "Europe/Rome"
  - name: "Quartu SantElena"
    latitude: 39.22935
    longitude: 9.25004
    population: 66620
    elevation: 6
    dem: 33
    timezone: "Europe/Rome"
  - name: "Quartucciu"
    latitude: 39.25262
    longitude: 9.17764
    population: 11347
    elevation: 16
    dem: 15
    timezone: "Europe/Rome"
  - name: "Oristano"
    latitude: 39.9036
    longitude: 8.59257
    population: 24641
    elevation: 9
    dem: 11
    timezone: "Europe/Rome"
  - name: "Monserrato"
    latitude: 39.25642
    longitude: 9.1444
    population: 20193
    elevation: 6
    dem: 8
    timezone: "Europe/Rome"
  - name: "Maracalagonis"
    latitude: 39.28574
    longitude: 9.22874
    population: 6488
    elevation: 86
    dem: 84
    timezone: "Europe/Rome"
  - name: "La Maddalena"
    latitude: 39.14429
    longitude: 9.01223
    population: 7877
    elevation: 2
    dem: 6
    timezone: "Europe/Rome"
  - name: "Iglesias"
    latitude: 39.3092
    longitude: 8.5372
    population: 22659
    elevation: 200
    dem: 190
    timezone: "Europe/Rome"
  - name: "Guspini"
    latitude: 39.53954
    longitude: 8.63502
    population: 11704
    elevation: 130
    dem: 141
    timezone: "Europe/Rome"
  - name: "Gonnosfanadiga"
    latitude: 39.49426
    longitude: 8.662
    population: 6423
    elevation: 180
    dem: 190
    timezone: "Europe/Rome"
  - name: "Elmas"
    latitude: 39.26878
    longitude: 9.05021
    population: 8025
    elevation: 7
    dem: 8
    timezone: "Europe/Rome"
  - name: "Domusnovas"
    latitude: 39.32404
    longitude: 8.64921
    population: 6178
    elevation: 152
    dem: 148
    timezone: "Europe/Rome"
  - name: "Dolianova"
    latitude: 39.37791
    longitude: 9.17697
    population: 8778
    elevation: 212
    dem: 225
    timezone: "Europe/Rome"
  - name: "Decimomannu"
    latitude: 39.31033
    longitude: 8.96964
    population: 7168
    elevation: 10
    dem: 11
    timezone: "Europe/Rome"
  - name: "Carloforte"
    latitude: 39.14081
    longitude: 8.3039
    population: 5560
    elevation: 10
    dem: 2
    timezone: "Europe/Rome"
  - name: "Carbonia"
    latitude: 39.16465
    longitude: 8.5213
    population: 21664
    elevation: 111
    dem: 94
    timezone: "Europe/Rome"
  - name: "Capoterra"
    latitude: 39.1752
    longitude: 8.97199
    population: 11255
    elevation: 54
    dem: 50
    timezone: "Europe/Rome"
  - name: "Cagliari"
    latitude: 39.23054
    longitude: 9.11917
    population: 149257
    elevation: 6
    dem: 41
    timezone: "Europe/Rome"
  - name: "Cabras"
    latitude: 39.92871
    longitude: 8.53242
    population: 7695
    elevation: 6
    dem: 7
    timezone: "Europe/Rome"
  - name: "Assemini"
    latitude: 39.29123
    longitude: 8.99879
    population: 25257
    elevation: 6
    dem: 8
    timezone: "Europe/Rome"
  - name: "Arbus"
    latitude: 39.52616
    longitude: 8.5997
    population: 5892
    elevation: 311
    dem: 297
    timezone: "Europe/Rome"
  - name: "Tempio Pausania"
    latitude: 40.90068
    longitude: 9.10456
    population: 12706
    elevation: 566
    dem: 570
    timezone: "Europe/Rome"
  - name: "Sorso"
    latitude: 40.79949
    longitude: 8.5757
    population: 11419
    elevation: 136
    dem: 131
    timezone: "Europe/Rome"
  - name: "Siniscola"
    latitude: 40.57344
    longitude: 9.69695
    population: 8119
    elevation: 19
    dem: 30
    timezone: "Europe/Rome"
  - name: "Sennori"
    latitude: 40.7878
    longitude: 8.59285
    population: 6855
    elevation: 277
    dem: 252
    timezone: "Europe/Rome"
  - name: "Sassari"
    latitude: 40.72586
    longitude: 8.55552
    population: 91895
    elevation: 225
    dem: 190
    timezone: "Europe/Rome"
  - name: "Porto Torres"
    latitude: 40.83375
    longitude: 8.40531
    population: 21653
    elevation: 5
    dem: 22
    timezone: "Europe/Rome"
  - name: "Ozieri"
    latitude: 40.5863
    longitude: 9.0034
    population: 7764
    elevation: 390
    dem: 380
    timezone: "Europe/Rome"
  - name: "Ossi"
    latitude: 40.67483
    longitude: 8.59254
    population: 5713
    elevation: 335
    dem: 321
    timezone: "Europe/Rome"
  - name: "Orosei"
    latitude: 40.37826
    longitude: 9.69248
    population: 5807
    elevation: 19
    dem: 14
    timezone: "Europe/Rome"
  - name: "Oliena"
    latitude: 40.27617
    longitude: 9.40193
    population: 7264
    elevation: 379
    dem: 317
    timezone: "Europe/Rome"
  - name: "Olbia"
    latitude: 40.92337
    longitude: 9.49802
    population: 42930
    elevation: 15
    dem: 11
    timezone: "Europe/Rome"
  - name: "Nuoro"
    latitude: 40.31991
    longitude: 9.32568
    population: 35948
    elevation: 549
    dem: 535
    timezone: "Europe/Rome"
  - name: "Macomer"
    latitude: 40.26233
    longitude: 8.76733
    population: 10375
    elevation: 563
    dem: 568
    timezone: "Europe/Rome"
  - name: "La Maddalena"
    latitude: 41.21424
    longitude: 9.40833
    population: 10297
    elevation: 19
    dem: 5
    timezone: "Europe/Rome"
  - name: "Ittiri"
    latitude: 40.59151
    longitude: 8.56976
    population: 8781
    elevation: 400
    dem: 393
    timezone: "Europe/Rome"
  - name: "Dorgali"
    latitude: 40.29221
    longitude: 9.58702
    population: 6498
    elevation: 390
    dem: 380
    timezone: "Europe/Rome"
  - name: "Bosa"
    latitude: 40.29927
    longitude: 8.49827
    population: 7874
    elevation: 2
    dem: 18
    timezone: "Europe/Rome"
  - name: "Arzachena"
    latitude: 41.0762
    longitude: 9.39055
    population: 6199
    elevation: 85
    dem: 54
    timezone: "Europe/Rome"
  - name: "Alghero"
    latitude: 40.55969
    longitude: 8.31953
    population: 34261
    elevation: 7
    dem: 18
    timezone: "Europe/Rome"
  - name: "Li Punti-San Giovanni"
    latitude: 40.76338
    longitude: 8.489
    population: 9681
    dem: 89
    timezone: "Europe/Rome"
- name: "Basilicata"
  cities:
  - name: "Venosa"
    latitude: 40.96283
    longitude: 15.81285
    population: 11328
    elevation: 415
    dem: 418
    timezone: "Europe/Rome"
  - name: "Senise"
    latitude: 40.14616
    longitude: 16.28867
    population: 6243
    elevation: 335
    dem: 350
    timezone: "Europe/Rome"
  - name: "Rionero in Vulture"
    latitude: 40.92328
    longitude: 15.6711
    population: 12670
    elevation: 656
    dem: 634
    timezone: "Europe/Rome"
  - name: "Potenza"
    latitude: 40.64175
    longitude: 15.80794
    population: 56433
    elevation: 819
    dem: 760
    timezone: "Europe/Rome"
  - name: "Policoro"
    latitude: 40.2128
    longitude: 16.67795
    population: 11810
    elevation: 25
    dem: 25
    timezone: "Europe/Rome"
  - name: "Pisticci"
    latitude: 40.39017
    longitude: 16.55919
    population: 6019
    elevation: 364
    dem: 377
    timezone: "Europe/Rome"
  - name: "Montescaglioso"
    latitude: 40.55024
    longitude: 16.66541
    population: 9205
    elevation: 352
    dem: 294
    timezone: "Europe/Rome"
  - name: "Montalbano Jonico"
    latitude: 40.28591
    longitude: 16.5696
    population: 7427
    elevation: 288
    dem: 248
    timezone: "Europe/Rome"
  - name: "Melfi"
    latitude: 40.99571
    longitude: 15.65578
    population: 13079
    elevation: 538
    dem: 529
    timezone: "Europe/Rome"
  - name: "Matera"
    latitude: 40.66599
    longitude: 16.60463
    population: 54891
    elevation: 401
    dem: 399
    timezone: "Europe/Rome"
  - name: "Lavello"
    latitude: 41.04769
    longitude: 15.78915
    population: 13086
    elevation: 313
    dem: 319
    timezone: "Europe/Rome"
  - name: "Lagonegro"
    latitude: 40.12785
    longitude: 15.76212
    population: 5056
    elevation: 666
    dem: 707
    timezone: "Europe/Rome"
  - name: "Grassano"
    latitude: 40.63457
    longitude: 16.27792
    population: 5363
    elevation: 576
    dem: 561
    timezone: "Europe/Rome"
  - name: "Genzano di Lucania"
    latitude: 40.84589
    longitude: 16.03124
    population: 5736
    elevation: 587
    dem: 595
    timezone: "Europe/Rome"
  - name: "Ferrandina"
    latitude: 40.50084
    longitude: 16.45258
    population: 8718
    elevation: 497
    dem: 466
    timezone: "Europe/Rome"
  - name: "Bernalda"
    latitude: 40.41261
    longitude: 16.68919
    population: 10763
    elevation: 126
    dem: 136
    timezone: "Europe/Rome"
  - name: "Avigliano"
    latitude: 40.73291
    longitude: 15.72004
    population: 5774
    elevation: 800
    dem: 894
    timezone: "Europe/Rome"
  - name: "Marconia"
    latitude: 40.36355
    longitude: 16.68823
    population: 8781
    elevation: 106
    dem: 106
    timezone: "Europe/Rome"
- name: "Abruzzo"
  cities:
  - name: "Vasto"
    latitude: 42.1115
    longitude: 14.70649
    population: 30367
    elevation: 144
    dem: 149
    timezone: "Europe/Rome"
  - name: "Trasacco"
    latitude: 41.95742
    longitude: 13.5327
    population: 6144
    elevation: 685
    dem: 688
    timezone: "Europe/Rome"
  - name: "Teramo"
    latitude: 42.66123
    longitude: 13.69901
    population: 36099
    elevation: 265
    dem: 280
    timezone: "Europe/Rome"
  - name: "Sulmona"
    latitude: 42.04945
    longitude: 13.92578
    population: 21086
    elevation: 405
    dem: 410
    timezone: "Europe/Rome"
  - name: "Silvi"
    latitude: 42.54984
    longitude: 14.11759
    population: 12551
    elevation: 2
    dem: 5
    timezone: "Europe/Rome"
  - name: "SantEgidio alla Vibrata"
    latitude: 42.81705
    longitude: 13.72164
    population: 7753
    elevation: 237
    dem: 235
    timezone: "Europe/Rome"
  - name: "San Salvo"
    latitude: 42.04413
    longitude: 14.73335
    population: 17123
    elevation: 100
    dem: 78
    timezone: "Europe/Rome"
  - name: "Roseto degli Abruzzi"
    latitude: 42.67164
    longitude: 14.01481
    population: 16538
    elevation: 5
    dem: 7
    timezone: "Europe/Rome"
  - name: "Pratola Peligna"
    latitude: 42.09701
    longitude: 13.87467
    population: 7043
    elevation: 342
    dem: 326
    timezone: "Europe/Rome"
  - name: "Popoli"
    latitude: 42.16866
    longitude: 13.82997
    population: 5394
    elevation: 254
    dem: 245
    timezone: "Europe/Rome"
  - name: "Pineto"
    latitude: 42.60879
    longitude: 14.06639
    population: 5096
    elevation: 4
    dem: 6
    timezone: "Europe/Rome"
  - name: "Pescara"
    latitude: 42.4584
    longitude: 14.20283
    population: 116596
    elevation: 4
    dem: 5
    timezone: "Europe/Rome"
  - name: "Penne"
    latitude: 42.45474
    longitude: 13.92754
    population: 5985
    elevation: 438
    dem: 415
    timezone: "Europe/Rome"
  - name: "Ortona"
    latitude: 42.35087
    longitude: 14.40342
    population: 13327
    elevation: 72
    dem: 74
    timezone: "Europe/Rome"
  - name: "Montorio al Vomano"
    latitude: 42.58123
    longitude: 13.63715
    population: 5107
    elevation: 263
    dem: 248
    timezone: "Europe/Rome"
  - name: "Montesilvano Marina"
    latitude: 42.5114
    longitude: 14.14507
    population: 45991
    elevation: 5
    dem: 5
    timezone: "Europe/Rome"
  - name: "Martinsicuro"
    latitude: 42.88031
    longitude: 13.91326
    population: 10317
    elevation: 2
    dem: 0
    timezone: "Europe/Rome"
  - name: "Luco dei Marsi"
    latitude: 41.95925
    longitude: 13.47349
    population: 5675
    elevation: 680
    dem: 662
    timezone: "Europe/Rome"
  - name: "LAquila"
    latitude: 42.35055
    longitude: 13.39954
    population: 33691
    elevation: 714
    dem: 728
    timezone: "Europe/Rome"
  - name: "Lanciano"
    latitude: 42.22718
    longitude: 14.39024
    population: 30705
    elevation: 265
    dem: 281
    timezone: "Europe/Rome"
  - name: "Giulianova"
    latitude: 42.75381
    longitude: 13.9665
    population: 20490
    elevation: 68
    dem: 2
    timezone: "Europe/Rome"
  - name: "Francavilla al Mare"
    latitude: 42.42158
    longitude: 14.28217
    population: 21095
    elevation: 3
    dem: 13
    timezone: "Europe/Rome"
  - name: "Chieti"
    latitude: 42.34827
    longitude: 14.16494
    population: 44444
    elevation: 330
    dem: 344
    timezone: "Europe/Rome"
  - name: "Celano"
    latitude: 42.08077
    longitude: 13.517
    population: 9966
    elevation: 800
    dem: 742
    timezone: "Europe/Rome"
  - name: "Castel di Sangro"
    latitude: 41.78392
    longitude: 14.10653
    population: 5891
    elevation: 793
    dem: 800
    timezone: "Europe/Rome"
  - name: "Casalbordino-Miracoli"
    latitude: 42.15354
    longitude: 14.59912
    population: 5028
    dem: 152
    timezone: "Europe/Rome"
  - name: "Avezzano"
    latitude: 42.02896
    longitude: 13.42641
    population: 37808
    elevation: 695
    dem: 688
    timezone: "Europe/Rome"
  - name: "Atri"
    latitude: 42.57642
    longitude: 13.98899
    population: 5854
    elevation: 444
    dem: 414
    timezone: "Europe/Rome"
  - name: "Alba Adriatica"
    latitude: 42.83176
    longitude: 13.9259
    population: 11165
    elevation: 5
    dem: 5
    timezone: "Europe/Rome"
  - name: "Tortoreto Lido"
    latitude: 42.79956
    longitude: 13.94205
    population: 6203
    elevation: 4
    dem: 2
    timezone: "Europe/Rome"
  - name: "Sambuceto"
    latitude: 42.42168
    longitude: 14.18747
    population: 9596
    elevation: 15
    dem: 17
    timezone: "Europe/Rome"
  - name: "San Nicolo a Tordino"
    latitude: 42.69648
    longitude: 13.79708
    population: 5092
    dem: 138
    timezone: "Europe/Rome"
  - name: "Villa Raspa"
    latitude: 42.45542
    longitude: 14.18457
    population: 5059
    dem: 23
    timezone: "Europe/Rome"
- name: "Toscana"
  cities:
  - name: "Volterra"
    latitude: 43.40251
    longitude: 10.86152
    population: 6864
    elevation: 531
    dem: 529
    timezone: "Europe/Rome"
  - name: "Vicopisano"
    latitude: 43.69305
    longitude: 10.58359
    population: 5593
    elevation: 12
    dem: 13
    timezone: "Europe/Rome"
  - name: "Viareggio"
    latitude: 43.86693
    longitude: 10.2502
    population: 49099
    elevation: 2
    dem: 4
    timezone: "Europe/Rome"
  - name: "Vernio"
    latitude: 44.04755
    longitude: 11.15052
    population: 5535
    dem: 303
    timezone: "Europe/Rome"
  - name: "Venturina"
    latitude: 43.02883
    longitude: 10.60147
    population: 9004
    elevation: 11
    dem: 14
    timezone: "Europe/Rome"
  - name: "Vecchiano-Nodica"
    latitude: 43.78334
    longitude: 10.3844
    population: 6324
    dem: 3
    timezone: "Europe/Rome"
  - name: "Vaiano"
    latitude: 43.96792
    longitude: 11.12374
    population: 8243
    elevation: 150
    dem: 169
    timezone: "Europe/Rome"
  - name: "Torrita di Siena"
    latitude: 43.17245
    longitude: 11.78376
    population: 5347
    elevation: 325
    dem: 263
    timezone: "Europe/Rome"
  - name: "Torre del Lago Puccini"
    latitude: 43.82887
    longitude: 10.28912
    population: 11230
    elevation: 3
    dem: 3
    timezone: "Europe/Rome"
  - name: "Marina di Pisa-Tirrenia-Calambrone"
    latitude: 43.62719
    longitude: 10.29204
    population: 6790
    dem: 2
    timezone: "Europe/Rome"
  - name: "Terranuova Bracciolini"
    latitude: 43.55081
    longitude: 11.58075
    population: 5983
    elevation: 156
    dem: 155
    timezone: "Europe/Rome"
  - name: "Sinalunga"
    latitude: 43.21492
    longitude: 11.74507
    population: 6567
    elevation: 364
    dem: 267
    timezone: "Europe/Rome"
  - name: "Signa"
    latitude: 43.7942
    longitude: 11.1036
    population: 12602
    elevation: 96
    dem: 34
    timezone: "Europe/Rome"
  - name: "Siena"
    latitude: 43.31822
    longitude: 11.33064
    population: 42867
    elevation: 322
    dem: 342
    timezone: "Europe/Rome"
  - name: "Sesto Fiorentino"
    latitude: 43.83193
    longitude: 11.19924
    population: 45656
    elevation: 55
    dem: 60
    timezone: "Europe/Rome"
  - name: "Seano"
    latitude: 43.83035
    longitude: 11.02122
    population: 5944
    elevation: 45
    dem: 46
    timezone: "Europe/Rome"
  - name: "Scarperia"
    latitude: 43.99357
    longitude: 11.35415
    population: 5163
    dem: 287
    timezone: "Europe/Rome"
  - name: "Scandicci"
    latitude: 43.75423
    longitude: 11.18794
    population: 44951
    elevation: 47
    dem: 46
    timezone: "Europe/Rome"
  - name: "San Vincenzo"
    latitude: 43.09061
    longitude: 10.54246
    population: 6178
    elevation: 5
    dem: 7
    timezone: "Europe/Rome"
  - name: "Santa Maria a Monte"
    latitude: 43.70793
    longitude: 10.69196
    population: 6438
    elevation: 56
    dem: 86
    timezone: "Europe/Rome"
  - name: "Santa Croce sullArno"
    latitude: 43.71709
    longitude: 10.77242
    population: 11685
    elevation: 18
    dem: 19
    timezone: "Europe/Rome"
  - name: "Sansepolcro"
    latitude: 43.57258
    longitude: 12.13858
    population: 12364
    elevation: 330
    dem: 332
    timezone: "Europe/Rome"
  - name: "San Miniato"
    latitude: 43.67954
    longitude: 10.84975
    population: 16900
    elevation: 140
    dem: 125
    timezone: "Europe/Rome"
  - name: "San Miniato Basso"
    latitude: 43.69332
    longitude: 10.84119
    population: 26365
    dem: 28
    timezone: "Europe/Rome"
  - name: "San Giovanni Valdarno"
    latitude: 43.56757
    longitude: 11.52987
    population: 16002
    elevation: 134
    dem: 135
    timezone: "Europe/Rome"
  - name: "San Casciano in Val di Pesa"
    latitude: 43.65975
    longitude: 11.18494
    population: 6216
    elevation: 310
    dem: 299
    timezone: "Europe/Rome"
  - name: "Rosignano Solvay-Castiglioncello"
    latitude: 43.38946
    longitude: 10.43615
    population: 19786
    dem: 13
    timezone: "Europe/Rome"
  - name: "Ripa-Pozzi-Querceta-Ponterosso"
    latitude: 43.97806
    longitude: 10.20372
    population: 9859
    dem: 22
    timezone: "Europe/Rome"
  - name: "Quarrata"
    latitude: 43.84837
    longitude: 10.97888
    population: 9805
    elevation: 48
    dem: 48
    timezone: "Europe/Rome"
  - name: "Prato"
    latitude: 43.8805
    longitude: 11.09699
    population: 181820
    elevation: 61
    dem: 71
    timezone: "Europe/Rome"
  - name: "Porto Santo Stefano"
    latitude: 42.43825
    longitude: 11.11542
    population: 8892
    elevation: 5
    dem: 28
    timezone: "Europe/Rome"
  - name: "Portoferraio"
    latitude: 42.81233
    longitude: 10.31297
    population: 8296
    elevation: 4
    dem: 2
    timezone: "Europe/Rome"
  - name: "Porcari"
    latitude: 43.84152
    longitude: 10.61632
    population: 6732
    elevation: 32
    dem: 17
    timezone: "Europe/Rome"
  - name: "Pontremoli"
    latitude: 44.37515
    longitude: 9.87888
    population: 5208
    elevation: 236
    dem: 245
    timezone: "Europe/Rome"
  - name: "Pontedera"
    latitude: 43.66141
    longitude: 10.63067
    population: 19518
    elevation: 14
    dem: 16
    timezone: "Europe/Rome"
  - name: "Grassina Ponte a Ema"
    latitude: 43.73333
    longitude: 11.3
    population: 8412
    dem: 87
    timezone: "Europe/Rome"
  - name: "Pontassieve"
    latitude: 43.77477
    longitude: 11.43109
    population: 9890
    elevation: 108
    dem: 92
    timezone: "Europe/Rome"
  - name: "Ponsacco"
    latitude: 43.62307
    longitude: 10.62661
    population: 13683
    elevation: 24
    dem: 22
    timezone: "Europe/Rome"
  - name: "Poggio A Caiano"
    latitude: 43.81378
    longitude: 11.05186
    population: 7863
    dem: 42
    timezone: "Europe/Rome"
  - name: "Poggibonsi"
    latitude: 43.47064
    longitude: 11.14804
    population: 21692
    elevation: 116
    dem: 100
    timezone: "Europe/Rome"
  - name: "Pistoia"
    latitude: 43.93064
    longitude: 10.92365
    population: 73832
    elevation: 67
    dem: 63
    timezone: "Europe/Rome"
  - name: "Pisa"
    latitude: 43.70853
    longitude: 10.4036
    population: 77007
    elevation: 4
    dem: 6
    timezone: "Europe/Rome"
  - name: "Piombino"
    latitude: 42.92554
    longitude: 10.52585
    population: 30103
    elevation: 21
    dem: 26
    timezone: "Europe/Rome"
  - name: "Pietrasanta"
    latitude: 43.95952
    longitude: 10.22784
    population: 18897
    elevation: 14
    dem: 12
    timezone: "Europe/Rome"
  - name: "Pescia"
    latitude: 43.8871
    longitude: 10.68849
    population: 11567
    elevation: 62
    dem: 42
    timezone: "Europe/Rome"
  - name: "Orbetello"
    latitude: 42.44158
    longitude: 11.2214
    population: 5779
    elevation: 3
    dem: 1
    timezone: "Europe/Rome"
  - name: "Montignoso"
    latitude: 44.02405
    longitude: 10.17259
    population: 10023
    dem: 328
    timezone: "Europe/Rome"
  - name: "Montevarchi"
    latitude: 43.5252
    longitude: 11.57238
    population: 18682
    elevation: 144
    dem: 147
    timezone: "Europe/Rome"
  - name: "Montemurlo"
    latitude: 43.92686
    longitude: 11.03718
    population: 17502
    dem: 78
    timezone: "Europe/Rome"
  - name: "Montelupo Fiorentino"
    latitude: 43.72958
    longitude: 11.00997
    population: 11177
    elevation: 35
    dem: 39
    timezone: "Europe/Rome"
  - name: "Montecatini-Terme"
    latitude: 43.88153
    longitude: 10.7723
    population: 17954
    elevation: 29
    dem: 30
    timezone: "Europe/Rome"
  - name: "Montale"
    latitude: 43.93486
    longitude: 11.01655
    population: 6316
    elevation: 85
    dem: 86
    timezone: "Europe/Rome"
  - name: "Monsummano Terme"
    latitude: 43.8672
    longitude: 10.81295
    population: 12935
    elevation: 20
    dem: 23
    timezone: "Europe/Rome"
  - name: "Massarosa"
    latitude: 43.86638
    longitude: 10.34458
    population: 10881
    elevation: 10
    dem: 13
    timezone: "Europe/Rome"
  - name: "Massa Marittima"
    latitude: 43.04779
    longitude: 10.89293
    population: 5707
    elevation: 380
    dem: 403
    timezone: "Europe/Rome"
  - name: "Massa"
    latitude: 44.03541
    longitude: 10.13927
    population: 64783
    elevation: 65
    dem: 56
    timezone: "Europe/Rome"
  - name: "Marina di Massa"
    latitude: 44.0038
    longitude: 10.10674
    population: 19092
    dem: 3
    timezone: "Europe/Rome"
  - name: "Marina di Carrara"
    latitude: 44.03837
    longitude: 10.04142
    population: 25000
    dem: 6
    timezone: "Europe/Rome"
  - name: "Lucca"
    latitude: 43.84369
    longitude: 10.50447
    population: 81748
    elevation: 19
    dem: 29
    timezone: "Europe/Rome"
  - name: "Livorno"
    latitude: 43.54427
    longitude: 10.32615
    population: 153773
    elevation: 3
    dem: 16
    timezone: "Europe/Rome"
  - name: "Lastra a Signa"
    latitude: 43.76998
    longitude: 11.11271
    population: 11504
    elevation: 36
    dem: 37
    timezone: "Europe/Rome"
  - name: "Lamporecchio"
    latitude: 43.80742
    longitude: 10.87733
    population: 5179
    elevation: 56
    dem: 35
    timezone: "Europe/Rome"
  - name: "Grosseto"
    latitude: 42.76296
    longitude: 11.10941
    population: 60922
    elevation: 10
    dem: 15
    timezone: "Europe/Rome"
  - name: "Fucecchio"
    latitude: 43.73292
    longitude: 10.79749
    population: 14479
    elevation: 25
    dem: 18
    timezone: "Europe/Rome"
  - name: "Forte dei Marmi"
    latitude: 43.96388
    longitude: 10.17478
    population: 7656
    elevation: 2
    dem: 3
    timezone: "Europe/Rome"
  - name: "Fornacette"
    latitude: 43.67023
    longitude: 10.58512
    population: 5868
    dem: 13
    timezone: "Europe/Rome"
  - name: "Fornacelle"
    latitude: 43.92377
    longitude: 11.03525
    population: 17278
    elevation: 73
    dem: 68
    timezone: "Europe/Rome"
  - name: "Follonica"
    latitude: 42.92779
    longitude: 10.76451
    population: 21163
    elevation: 4
    dem: 11
    timezone: "Europe/Rome"
  - name: "Foiano della Chiana"
    latitude: 43.25318
    longitude: 11.81647
    population: 6215
    elevation: 318
    dem: 307
    timezone: "Europe/Rome"
  - name: "Florence"
    latitude: 43.77925
    longitude: 11.24626
    population: 349296
    elevation: 50
    dem: 51
    timezone: "Europe/Rome"
  - name: "Figline Valdarno"
    latitude: 43.61995
    longitude: 11.47191
    population: 13287
    dem: 125
    timezone: "Europe/Rome"
  - name: "Empoli"
    latitude: 43.71795
    longitude: 10.94758
    population: 34394
    elevation: 28
    dem: 31
    timezone: "Europe/Rome"
  - name: "Colle di Val dElsa"
    latitude: 43.42107
    longitude: 11.12739
    population: 16625
    elevation: 141
    dem: 149
    timezone: "Europe/Rome"
  - name: "Capanne-Prato-Cinquale"
    latitude: 43.9972
    longitude: 10.15636
    population: 8270
    dem: 6
    timezone: "Europe/Rome"
  - name: "Chianciano Terme"
    latitude: 43.04181
    longitude: 11.81205
    population: 6162
    elevation: 475
    dem: 515
    timezone: "Europe/Rome"
  - name: "Certaldo"
    latitude: 43.54768
    longitude: 11.03924
    population: 12981
    elevation: 67
    dem: 71
    timezone: "Europe/Rome"
  - name: "Cecina"
    latitude: 43.30621
    longitude: 10.51729
    population: 22018
    elevation: 15
    dem: 8
    timezone: "Europe/Rome"
  - name: "Castiglion Fiorentino"
    latitude: 43.34308
    longitude: 11.91995
    population: 8315
    elevation: 345
    dem: 289
    timezone: "Europe/Rome"
  - name: "Castelfranco di Sotto"
    latitude: 43.70368
    longitude: 10.7463
    population: 8291
    elevation: 16
    dem: 16
    timezone: "Europe/Rome"
  - name: "Castelfiorentino"
    latitude: 43.60963
    longitude: 10.96772
    population: 12656
    elevation: 50
    dem: 55
    timezone: "Europe/Rome"
  - name: "Cascina"
    latitude: 43.67557
    longitude: 10.55494
    population: 40512
    elevation: 8
    dem: 10
    timezone: "Europe/Rome"
  - name: "Carrara"
    latitude: 44.07926
    longitude: 10.09789
    population: 58666
    elevation: 100
    dem: 98
    timezone: "Europe/Rome"
  - name: "Capannori"
    latitude: 43.84171
    longitude: 10.57271
    population: 41116
    elevation: 15
    dem: 15
    timezone: "Europe/Rome"
  - name: "Camucia-Monsigliolo"
    latitude: 43.25926
    longitude: 11.97114
    population: 6074
    dem: 251
    timezone: "Europe/Rome"
  - name: "Campi Bisenzio"
    latitude: 43.8245
    longitude: 11.13027
    population: 32871
    elevation: 38
    dem: 38
    timezone: "Europe/Rome"
  - name: "Camaiore"
    latitude: 43.94265
    longitude: 10.29754
    population: 26746
    elevation: 34
    dem: 36
    timezone: "Europe/Rome"
  - name: "Calenzano"
    latitude: 43.85447
    longitude: 11.16608
    population: 12623
    elevation: 68
    dem: 56
    timezone: "Europe/Rome"
  - name: "Borgo San Lorenzo"
    latitude: 43.95548
    longitude: 11.38561
    population: 9716
    elevation: 193
    dem: 193
    timezone: "Europe/Rome"
  - name: "Borgo a Buggiano"
    latitude: 43.87522
    longitude: 10.73482
    population: 7302
    elevation: 41
    dem: 32
    timezone: "Europe/Rome"
  - name: "Bientina"
    latitude: 43.70826
    longitude: 10.62116
    population: 5121
    elevation: 10
    dem: 14
    timezone: "Europe/Rome"
  - name: "Bibbiena"
    latitude: 43.69876
    longitude: 11.81474
    population: 6394
    elevation: 425
    dem: 362
    timezone: "Europe/Rome"
  - name: "Barberino di Mugello"
    latitude: 43.9993
    longitude: 11.23676
    population: 5680
    elevation: 270
    dem: 290
    timezone: "Europe/Rome"
  - name: "Bagno a Ripoli"
    latitude: 43.75115
    longitude: 11.32252
    population: 5121
    elevation: 75
    dem: 92
    timezone: "Europe/Rome"
  - name: "Arezzo"
    latitude: 43.46276
    longitude: 11.88068
    population: 76346
    elevation: 296
    dem: 264
    timezone: "Europe/Rome"
  - name: "Altopascio"
    latitude: 43.81618
    longitude: 10.67668
    population: 9413
    elevation: 19
    dem: 15
    timezone: "Europe/Rome"
  - name: "Agliana"
    latitude: 43.90246
    longitude: 11.00531
    population: 14561
    elevation: 46
    dem: 45
    timezone: "Europe/Rome"
  - name: "Abbadia San Salvatore"
    latitude: 42.8812
    longitude: 11.6722
    population: 6364
    elevation: 822
    dem: 836
    timezone: "Europe/Rome"
  - name: "Monte Argentario"
    latitude: 42.43452
    longitude: 11.11954
    population: 12147
    dem: 28
    timezone: "Europe/Rome"
  - name: "Pieve a Nievole"
    latitude: 43.88119
    longitude: 10.7999
    population: 8704
    elevation: 28
    dem: 28
    timezone: "Europe/Rome"
  - name: "Capraia e Limite"
    latitude: 43.74535
    longitude: 10.98342
    population: 5920
    dem: 28
    timezone: "Europe/Rome"
  - name: "Tavarnelle Val di Pesa"
    latitude: 43.56184
    longitude: 11.17152
    population: 7153
    dem: 366
    timezone: "Europe/Rome"
  - name: "Cantagrillo-Casalguidi"
    latitude: 43.86937
    longitude: 10.91386
    population: 6532
    dem: 76
    timezone: "Europe/Rome"
  - name: "Donoratico"
    latitude: 43.16927
    longitude: 10.56744
    population: 5046
    elevation: 10
    dem: 23
    timezone: "Europe/Rome"
  - name: "Margine Coperta-Traversagna"
    latitude: 43.87977
    longitude: 10.75733
    population: 6690
    dem: 22
    timezone: "Europe/Rome"
  - name: "Spicchio-Sovigliana"
    latitude: 43.73016
    longitude: 10.93921
    population: 8249
    dem: 32
    timezone: "Europe/Rome"
  - name: "Pontasserchio"
    latitude: 43.77953
    longitude: 10.41673
    population: 6132
    dem: 5
    timezone: "Europe/Rome"
  - name: "San Donnino"
    latitude: 43.79547
    longitude: 11.14654
    population: 5772
    dem: 37
    timezone: "Europe/Rome"
- name: "Marche"
  cities:
  - name: "Urbino"
    latitude: 43.72621
    longitude: 12.63633
    population: 5858
    elevation: 485
    dem: 447
    timezone: "Europe/Rome"
  - name: "Urbania"
    latitude: 43.66832
    longitude: 12.52093
    population: 5499
    elevation: 273
    dem: 280
    timezone: "Europe/Rome"
  - name: "Tolentino"
    latitude: 43.20918
    longitude: 13.28524
    population: 16504
    elevation: 228
    dem: 231
    timezone: "Europe/Rome"
  - name: "Senigallia"
    latitude: 43.71626
    longitude: 13.20882
    population: 30882
    elevation: 5
    dem: 6
    timezone: "Europe/Rome"
  - name: "SantElpidio a Mare"
    latitude: 43.23024
    longitude: 13.68819
    population: 5365
    elevation: 251
    dem: 224
    timezone: "Europe/Rome"
  - name: "San Severino Marche"
    latitude: 43.23028
    longitude: 13.1799
    population: 8655
    elevation: 235
    dem: 235
    timezone: "Europe/Rome"
  - name: "San Benedetto del Tronto"
    latitude: 42.9568
    longitude: 13.87676
    population: 45873
    elevation: 4
    dem: 7
    timezone: "Europe/Rome"
  - name: "Recanati"
    latitude: 43.40381
    longitude: 13.55379
    population: 14337
    elevation: 293
    dem: 236
    timezone: "Europe/Rome"
  - name: "Porto SantElpidio"
    latitude: 43.25297
    longitude: 13.7597
    population: 22233
    elevation: 4
    dem: 10
    timezone: "Europe/Rome"
  - name: "Porto San Giorgio"
    latitude: 43.17784
    longitude: 13.79411
    population: 15558
    elevation: 4
    dem: 9
    timezone: "Europe/Rome"
  - name: "Porto Recanati"
    latitude: 43.43296
    longitude: 13.66165
    population: 10308
    elevation: 6
    dem: 3
    timezone: "Europe/Rome"
  - name: "Porto Potenza Picena"
    latitude: 43.35751
    longitude: 13.69746
    population: 7596
    elevation: 3
    dem: 6
    timezone: "Europe/Rome"
  - name: "Civitanova Marche"
    latitude: 43.30491
    longitude: 13.72068
    population: 41205
    dem: 16
    timezone: "Europe/Rome"
  - name: "Pesaro"
    latitude: 43.90921
    longitude: 12.9164
    population: 77241
    elevation: 11
    dem: 9
    timezone: "Europe/Rome"
  - name: "Osimo"
    latitude: 43.48539
    longitude: 13.48222
    population: 16610
    elevation: 265
    dem: 238
    timezone: "Europe/Rome"
  - name: "Monte Urano"
    latitude: 43.19039
    longitude: 13.6618
    population: 6527
    elevation: 247
    dem: 189
    timezone: "Europe/Rome"
  - name: "Monte San Giusto"
    latitude: 43.23565
    longitude: 13.59316
    population: 6213
    elevation: 236
    dem: 224
    timezone: "Europe/Rome"
  - name: "Montegranaro"
    latitude: 43.23099
    longitude: 13.63047
    population: 11493
    elevation: 279
    dem: 207
    timezone: "Europe/Rome"
  - name: "Matelica"
    latitude: 43.25788
    longitude: 13.0075
    population: 8891
    elevation: 354
    dem: 339
    timezone: "Europe/Rome"
  - name: "Marotta"
    latitude: 43.76397
    longitude: 13.14772
    population: 6465
    elevation: 4
    dem: 0
    timezone: "Europe/Rome"
  - name: "Macerata"
    latitude: 43.29789
    longitude: 13.45293
    population: 30842
    elevation: 315
    dem: 276
    timezone: "Europe/Rome"
  - name: "Lucrezia"
    latitude: 43.7731
    longitude: 12.93995
    population: 6154
    dem: 57
    timezone: "Europe/Rome"
  - name: "Loreto"
    latitude: 43.43617
    longitude: 13.61232
    population: 7212
    elevation: 127
    dem: 92
    timezone: "Europe/Rome"
  - name: "Le Grazie di Ancona"
    latitude: 43.60081
    longitude: 13.51529
    population: 6385
    dem: 54
    timezone: "Europe/Rome"
  - name: "Jesi"
    latitude: 43.52142
    longitude: 13.24368
    population: 36985
    elevation: 97
    dem: 95
    timezone: "Europe/Rome"
  - name: "Grottammare"
    latitude: 42.98182
    longitude: 13.86765
    population: 14572
    elevation: 4
    dem: 7
    timezone: "Europe/Rome"
  - name: "Fossombrone"
    latitude: 43.69017
    longitude: 12.81173
    population: 6808
    elevation: 118
    dem: 115
    timezone: "Europe/Rome"
  - name: "Filottrano"
    latitude: 43.43553
    longitude: 13.35141
    population: 5637
    elevation: 270
    dem: 275
    timezone: "Europe/Rome"
  - name: "Fermo"
    latitude: 43.16296
    longitude: 13.72274
    population: 18109
    elevation: 319
    dem: 227
    timezone: "Europe/Rome"
  - name: "Fermignano"
    latitude: 43.69311
    longitude: 12.65437
    population: 7309
    elevation: 200
    dem: 188
    timezone: "Europe/Rome"
  - name: "Fano"
    latitude: 43.84052
    longitude: 13.01665
    population: 38999
    elevation: 12
    dem: 14
    timezone: "Europe/Rome"
  - name: "Falconara Marittima"
    latitude: 43.62558
    longitude: 13.39954
    population: 25948
    elevation: 5
    dem: 39
    timezone: "Europe/Rome"
  - name: "Fabriano"
    latitude: 43.33941
    longitude: 12.90327
    population: 23230
    elevation: 325
    dem: 315
    timezone: "Europe/Rome"
  - name: "Corridonia"
    latitude: 43.24677
    longitude: 13.5069
    population: 8626
    elevation: 255
    dem: 216
    timezone: "Europe/Rome"
  - name: "Chiaravalle"
    latitude: 43.60114
    longitude: 13.32511
    population: 13465
    elevation: 22
    dem: 23
    timezone: "Europe/Rome"
  - name: "Castelfidardo"
    latitude: 43.45916
    longitude: 13.55044
    population: 14892
    elevation: 199
    dem: 136
    timezone: "Europe/Rome"
  - name: "Camerano"
    latitude: 43.52774
    longitude: 13.55257
    population: 5368
    elevation: 231
    dem: 151
    timezone: "Europe/Rome"
  - name: "Calcinelli"
    latitude: 43.75398
    longitude: 12.91959
    population: 5198
    elevation: 66
    dem: 82
    timezone: "Europe/Rome"
  - name: "Cagli"
    latitude: 43.54771
    longitude: 12.65229
    population: 5094
    elevation: 276
    dem: 249
    timezone: "Europe/Rome"
  - name: "Ascoli Piceno"
    latitude: 42.85351
    longitude: 13.57395
    population: 41741
    elevation: 154
    dem: 160
    timezone: "Europe/Rome"
  - name: "Ancona"
    latitude: 43.5942
    longitude: 13.50337
    population: 89994
    elevation: 16
    dem: 29
    timezone: "Europe/Rome"
  - name: "Castel di Lama"
    latitude: 42.86435
    longitude: 13.71929
    population: 7216
    dem: 81
    timezone: "Europe/Rome"
  - name: "Villa Pigna"
    latitude: 42.83324
    longitude: 13.63446
    population: 5077
    elevation: 216
    dem: 177
    timezone: "Europe/Rome"
  - name: "Centobuchi"
    latitude: 42.89521
    longitude: 13.84809
    population: 8384
    elevation: 17
    dem: 13
    timezone: "Europe/Rome"
  - name: "Piattoni-Villa SantAntonio"
    latitude: 42.8663
    longitude: 13.7112
    population: 7733
    dem: 148
    timezone: "Europe/Rome"
  - name: "Marotta"
    latitude: 43.79893
    longitude: 13.09452
    population: 6060
    dem: 3
    timezone: "Europe/Rome"
- name: "Regione Autonoma Valle dAosta"
  cities:
  - name: "Aosta"
    latitude: 45.73764
    longitude: 7.31722
    population: 32295
    elevation: 583
    dem: 585
    timezone: "Europe/Rome"
- name: "Campania"
  cities:
  - name: "Vitulazio"
    latitude: 41.16302
    longitude: 14.21341
    population: 6550
    elevation: 57
    dem: 60
    timezone: "Europe/Rome"
  - name: "Villaricca"
    latitude: 40.92006
    longitude: 14.19339
    population: 25074
    elevation: 105
    dem: 110
    timezone: "Europe/Rome"
  - name: "Villa Literno"
    latitude: 41.00942
    longitude: 14.07612
    population: 10027
    elevation: 10
    dem: 10
    timezone: "Europe/Rome"
  - name: "Vico Equense"
    latitude: 40.65977
    longitude: 14.43386
    population: 12820
    elevation: 90
    dem: 165
    timezone: "Europe/Rome"
  - name: "Vallo della Lucania"
    latitude: 40.22786
    longitude: 15.26635
    population: 6899
    elevation: 380
    dem: 400
    timezone: "Europe/Rome"
  - name: "Trescine"
    latitude: 41.02256
    longitude: 14.62039
    population: 9509
    elevation: 284
    dem: 282
    timezone: "Europe/Rome"
  - name: "Trentola-Ducenta"
    latitude: 40.97517
    longitude: 14.1749
    population: 17056
    elevation: 42
    dem: 46
    timezone: "Europe/Rome"
  - name: "Torre del Greco"
    latitude: 40.78931
    longitude: 14.36806
    population: 85897
    elevation: 43
    dem: 59
    timezone: "Europe/Rome"
  - name: "Torre Annunziata"
    latitude: 40.75337
    longitude: 14.45251
    population: 43521
    elevation: 9
    dem: 15
    timezone: "Europe/Rome"
  - name: "Terzigno"
    latitude: 40.804
    longitude: 14.49309
    population: 17138
    elevation: 105
    dem: 104
    timezone: "Europe/Rome"
  - name: "Telese"
    latitude: 41.21752
    longitude: 14.52681
    population: 5120
    elevation: 55
    dem: 57
    timezone: "Europe/Rome"
  - name: "Teano"
    latitude: 41.25132
    longitude: 14.06652
    population: 5154
    elevation: 168
    dem: 208
    timezone: "Europe/Rome"
  - name: "Striano"
    latitude: 40.81543
    longitude: 14.57534
    population: 7639
    elevation: 22
    dem: 26
    timezone: "Europe/Rome"
  - name: "Sparanise"
    latitude: 41.18788
    longitude: 14.09628
    population: 7175
    elevation: 65
    dem: 68
    timezone: "Europe/Rome"
  - name: "Sorrento"
    latitude: 40.62678
    longitude: 14.37771
    population: 14724
    elevation: 50
    dem: 69
    timezone: "Europe/Rome"
  - name: "Somma Vesuviana"
    latitude: 40.87329
    longitude: 14.43865
    population: 32484
    elevation: 165
    dem: 155
    timezone: "Europe/Rome"
  - name: "Solofra"
    latitude: 40.83343
    longitude: 14.83705
    population: 11886
    elevation: 400
    dem: 346
    timezone: "Europe/Rome"
  - name: "Siano"
    latitude: 40.80207
    longitude: 14.69334
    population: 9855
    elevation: 126
    dem: 131
    timezone: "Europe/Rome"
  - name: "Sessa Aurunca"
    latitude: 41.23987
    longitude: 13.92966
    population: 5269
    elevation: 203
    dem: 201
    timezone: "Europe/Rome"
  - name: "Serino"
    latitude: 40.85481
    longitude: 14.87224
    population: 7041
    dem: 414
    timezone: "Europe/Rome"
  - name: "Scafati"
    latitude: 40.7602
    longitude: 14.53723
    population: 49264
    elevation: 12
    dem: 16
    timezone: "Europe/Rome"
  - name: "Saviano"
    latitude: 40.90507
    longitude: 14.50498
    population: 13110
    elevation: 35
    dem: 38
    timezone: "Europe/Rome"
  - name: "Sarno"
    latitude: 40.80748
    longitude: 14.62151
    population: 28837
    elevation: 30
    dem: 24
    timezone: "Europe/Rome"
  - name: "Sapri"
    latitude: 40.07464
    longitude: 15.63212
    population: 6716
    elevation: 5
    dem: 9
    timezone: "Europe/Rome"
  - name: "San Valentino Torio"
    latitude: 40.79109
    longitude: 14.60333
    population: 9300
    elevation: 22
    dem: 26
    timezone: "Europe/Rome"
  - name: "SantArpino"
    latitude: 40.95716
    longitude: 14.25075
    population: 12028
    elevation: 43
    dem: 44
    timezone: "Europe/Rome"
  - name: "SantAntonio Abate"
    latitude: 40.72152
    longitude: 14.54021
    population: 18859
    elevation: 20
    dem: 17
    timezone: "Europe/Rome"
  - name: "SantAntimo"
    latitude: 40.94223
    longitude: 14.23476
    population: 33561
    elevation: 58
    dem: 64
    timezone: "Europe/Rome"
  - name: "SantAnastasia"
    latitude: 40.86842
    longitude: 14.40196
    population: 20733
    elevation: 150
    dem: 147
    timezone: "Europe/Rome"
  - name: "Santa Maria Capua Vetere"
    latitude: 41.08156
    longitude: 14.25342
    population: 31743
    elevation: 36
    dem: 42
    timezone: "Europe/Rome"
  - name: "Santa Maria A Vico"
    latitude: 41.02611
    longitude: 14.46515
    population: 14095
    dem: 75
    timezone: "Europe/Rome"
  - name: "SantAgnello"
    latitude: 40.62942
    longitude: 14.39957
    population: 7674
    elevation: 67
    dem: 78
    timezone: "Europe/Rome"
  - name: "SantAgata deGoti"
    latitude: 41.08932
    longitude: 14.49743
    population: 11558
    dem: 165
    timezone: "Europe/Rome"
  - name: "San Sebastiano al Vesuvio"
    latitude: 40.84344
    longitude: 14.36428
    population: 9167
    elevation: 175
    dem: 142
    timezone: "Europe/Rome"
  - name: "San Prisco"
    latitude: 41.08592
    longitude: 14.27675
    population: 11869
    elevation: 48
    dem: 47
    timezone: "Europe/Rome"
  - name: "San Marzano sul Sarno"
    latitude: 40.77801
    longitude: 14.58006
    population: 9449
    elevation: 20
    dem: 15
    timezone: "Europe/Rome"
  - name: "San Marco Evangelista"
    latitude: 41.03702
    longitude: 14.33979
    population: 6296
    elevation: 45
    dem: 48
    timezone: "Europe/Rome"
  - name: "San Giuseppe Vesuviano"
    latitude: 40.8356
    longitude: 14.50487
    population: 26888
    elevation: 101
    dem: 102
    timezone: "Europe/Rome"
  - name: "San Giorgio del Sannio"
    latitude: 41.06844
    longitude: 14.85322
    population: 8579
    elevation: 380
    dem: 383
    timezone: "Europe/Rome"
  - name: "San Giorgio a Cremano"
    latitude: 40.83261
    longitude: 14.34162
    population: 45463
    elevation: 56
    dem: 62
    timezone: "Europe/Rome"
  - name: "San Gennaro Vesuviano"
    latitude: 40.86226
    longitude: 14.52414
    population: 10684
    elevation: 56
    dem: 55
    timezone: "Europe/Rome"
  - name: "Salerno"
    latitude: 40.67545
    longitude: 14.79328
    population: 125797
    elevation: 4
    dem: 46
    timezone: "Europe/Rome"
  - name: "Sala Consilina"
    latitude: 40.40134
    longitude: 15.5914
    population: 11734
    elevation: 614
    dem: 542
    timezone: "Europe/Rome"
  - name: "Roccarainola"
    latitude: 40.9725
    longitude: 14.54283
    population: 6821
    elevation: 102
    dem: 76
    timezone: "Europe/Rome"
  - name: "Roccapiemonte"
    latitude: 40.76009
    longitude: 14.69089
    population: 6363
    elevation: 86
    dem: 89
    timezone: "Europe/Rome"
  - name: "Recale"
    latitude: 41.05702
    longitude: 14.3027
    population: 7553
    elevation: 43
    dem: 43
    timezone: "Europe/Rome"
  - name: "Qualiano"
    latitude: 40.91899
    longitude: 14.15352
    population: 23752
    elevation: 101
    dem: 104
    timezone: "Europe/Rome"
  - name: "Procida"
    latitude: 40.75636
    longitude: 14.01457
    population: 10228
    elevation: 27
    dem: 34
    timezone: "Europe/Rome"
  - name: "Pozzuoli"
    latitude: 40.84394
    longitude: 14.0952
    population: 45575
    elevation: 28
    dem: 28
    timezone: "Europe/Rome"
  - name: "Portico di Caserta"
    latitude: 41.05562
    longitude: 14.28022
    population: 7381
    elevation: 31
    dem: 34
    timezone: "Europe/Rome"
  - name: "Portici"
    latitude: 40.81563
    longitude: 14.33716
    population: 55765
    elevation: 29
    dem: 37
    timezone: "Europe/Rome"
  - name: "Pontecagnano"
    latitude: 40.64448
    longitude: 14.87628
    population: 11211
    elevation: 28
    dem: 34
    timezone: "Europe/Rome"
  - name: "Pompei"
    latitude: 40.74574
    longitude: 14.49698
    population: 23902
    elevation: 14
    dem: 11
    timezone: "Europe/Rome"
  - name: "Pomigliano dArco"
    latitude: 40.90975
    longitude: 14.38316
    population: 38921
    elevation: 33
    dem: 32
    timezone: "Europe/Rome"
  - name: "Polla"
    latitude: 40.51433
    longitude: 15.49715
    population: 5182
    elevation: 468
    dem: 445
    timezone: "Europe/Rome"
  - name: "Poggiomarino"
    latitude: 40.80114
    longitude: 14.54066
    population: 19451
    elevation: 26
    dem: 29
    timezone: "Europe/Rome"
  - name: "Pimonte"
    latitude: 40.67361
    longitude: 14.50984
    population: 5884
    dem: 415
    timezone: "Europe/Rome"
  - name: "Pignataro Maggiore"
    latitude: 41.19006
    longitude: 14.16978
    population: 5783
    elevation: 93
    dem: 89
    timezone: "Europe/Rome"
  - name: "Piano di Sorrento"
    latitude: 40.62806
    longitude: 14.41729
    population: 12317
    elevation: 96
    dem: 153
    timezone: "Europe/Rome"
  - name: "Pianillo"
    latitude: 40.63416
    longitude: 14.54922
    population: 7253
    elevation: 630
    dem: 585
    timezone: "Europe/Rome"
  - name: "Palma Campania"
    latitude: 40.86608
    longitude: 14.5517
    population: 12689
    elevation: 63
    dem: 53
    timezone: "Europe/Rome"
  - name: "Pagani"
    latitude: 40.74199
    longitude: 14.61448
    population: 32835
    elevation: 35
    dem: 43
    timezone: "Europe/Rome"
  - name: "Ottaviano"
    latitude: 40.85193
    longitude: 14.47826
    population: 23396
    elevation: 220
    dem: 184
    timezone: "Europe/Rome"
  - name: "Olevano sul Tusciano"
    latitude: 40.65721
    longitude: 15.02305
    population: 6399
    dem: 191
    timezone: "Europe/Rome"
  - name: "Nola"
    latitude: 40.92606
    longitude: 14.52816
    population: 24101
    elevation: 34
    dem: 50
    timezone: "Europe/Rome"
  - name: "Nocera Superiore"
    latitude: 40.74248
    longitude: 14.67447
    population: 23452
    elevation: 70
    dem: 71
    timezone: "Europe/Rome"
  - name: "Nocera Inferiore"
    latitude: 40.7454
    longitude: 14.64542
    population: 45086
    elevation: 43
    dem: 49
    timezone: "Europe/Rome"
  - name: "Naples"
    latitude: 40.85216
    longitude: 14.26811
    population: 959470
    elevation: 17
    dem: 14
    timezone: "Europe/Rome"
  - name: "Mugnano di Napoli"
    latitude: 40.90936
    longitude: 14.20984
    population: 34231
    elevation: 125
    dem: 125
    timezone: "Europe/Rome"
  - name: "Mugnano del Cardinale"
    latitude: 40.94248
    longitude: 14.6361
    population: 5312
    elevation: 250
    dem: 253
    timezone: "Europe/Rome"
  - name: "Montesarchio"
    latitude: 41.06227
    longitude: 14.64096
    population: 10516
    elevation: 300
    dem: 298
    timezone: "Europe/Rome"
  - name: "Monteforte Irpino"
    latitude: 40.90246
    longitude: 14.744
    population: 9189
    elevation: 502
    dem: 409
    timezone: "Europe/Rome"
  - name: "Monte di Procida"
    latitude: 40.79809
    longitude: 14.05023
    population: 12975
    elevation: 63
    dem: 81
    timezone: "Europe/Rome"
  - name: "Montecorvino Rovella"
    latitude: 40.6918
    longitude: 14.97862
    population: 7972
    elevation: 295
    dem: 310
    timezone: "Europe/Rome"
  - name: "Mondragone"
    latitude: 41.11399
    longitude: 13.89157
    population: 26076
    elevation: 10
    dem: 8
    timezone: "Europe/Rome"
  - name: "Meta"
    latitude: 40.64081
    longitude: 14.41582
    population: 7598
    elevation: 111
    dem: 91
    timezone: "Europe/Rome"
  - name: "Mercogliano"
    latitude: 40.92157
    longitude: 14.74491
    population: 7392
    elevation: 550
    dem: 484
    timezone: "Europe/Rome"
  - name: "Mercato San Severino"
    latitude: 40.78468
    longitude: 14.75369
    population: 11473
    elevation: 146
    dem: 145
    timezone: "Europe/Rome"
  - name: "Mercato"
    latitude: 40.71612
    longitude: 14.9401
    population: 8473
    elevation: 200
    dem: 186
    timezone: "Europe/Rome"
  - name: "Melito di Napoli"
    latitude: 40.91948
    longitude: 14.23104
    population: 36933
    elevation: 89
    dem: 98
    timezone: "Europe/Rome"
  - name: "Massa Lubrense"
    latitude: 40.60937
    longitude: 14.37202
    population: 10192
    elevation: 121
    dem: 406
    timezone: "Europe/Rome"
  - name: "Marigliano"
    latitude: 40.9248
    longitude: 14.45612
    population: 29901
    elevation: 30
    dem: 35
    timezone: "Europe/Rome"
  - name: "Mariglianella"
    latitude: 40.92962
    longitude: 14.43703
    population: 6509
    elevation: 28
    dem: 26
    timezone: "Europe/Rome"
  - name: "Marcianise"
    latitude: 41.03064
    longitude: 14.29868
    population: 40239
    elevation: 33
    dem: 31
    timezone: "Europe/Rome"
  - name: "Marano di Napoli"
    latitude: 40.8971
    longitude: 14.18824
    population: 49920
    elevation: 157
    dem: 167
    timezone: "Europe/Rome"
  - name: "Maiori"
    latitude: 40.64848
    longitude: 14.6407
    population: 5268
    elevation: 5
    dem: 13
    timezone: "Europe/Rome"
  - name: "Maddaloni"
    latitude: 41.03578
    longitude: 14.3823
    population: 34546
    elevation: 73
    dem: 59
    timezone: "Europe/Rome"
  - name: "Macerata Campania"
    latitude: 41.06327
    longitude: 14.2775
    population: 10558
    elevation: 34
    dem: 38
    timezone: "Europe/Rome"
  - name: "Ischia Porto"
    latitude: 40.73913
    longitude: 13.951
    population: 18192
    dem: 19
    timezone: "Europe/Rome"
  - name: "Ischia"
    latitude: 40.73793
    longitude: 13.94862
    population: 18564
    elevation: 2
    dem: 25
    timezone: "Europe/Rome"
  - name: "Grumo Nevano"
    latitude: 40.93591
    longitude: 14.25983
    population: 17879
    elevation: 53
    dem: 59
    timezone: "Europe/Rome"
  - name: "Grottaminarda"
    latitude: 41.06972
    longitude: 15.05894
    population: 5355
    elevation: 405
    dem: 424
    timezone: "Europe/Rome"
  - name: "Gricignano di Aversa"
    latitude: 40.97973
    longitude: 14.23087
    population: 10559
    elevation: 28
    dem: 31
    timezone: "Europe/Rome"
  - name: "Grazzanise"
    latitude: 41.0897
    longitude: 14.09878
    population: 5378
    elevation: 12
    dem: 14
    timezone: "Europe/Rome"
  - name: "Gragnano"
    latitude: 40.68907
    longitude: 14.52036
    population: 29082
    elevation: 141
    dem: 124
    timezone: "Europe/Rome"
  - name: "Giugliano in Campania"
    latitude: 40.92849
    longitude: 14.20197
    population: 80269
    elevation: 97
    dem: 103
    timezone: "Europe/Rome"
  - name: "Giffoni Valle Piana"
    latitude: 40.71811
    longitude: 14.94235
    population: 10992
    dem: 205
    timezone: "Europe/Rome"
  - name: "Frattaminore"
    latitude: 40.9558
    longitude: 14.27201
    population: 15487
    elevation: 36
    dem: 39
    timezone: "Europe/Rome"
  - name: "Frattamaggiore"
    latitude: 40.9414
    longitude: 14.27588
    population: 29822
    elevation: 44
    dem: 46
    timezone: "Europe/Rome"
  - name: "Forio"
    latitude: 40.73757
    longitude: 13.86003
    population: 15969
    elevation: 18
    dem: 12
    timezone: "Europe/Rome"
  - name: "Ercolano"
    latitude: 40.80783
    longitude: 14.35012
    population: 53576
    elevation: 44
    dem: 47
    timezone: "Europe/Rome"
  - name: "Eboli"
    latitude: 40.61747
    longitude: 15.05693
    population: 26183
    elevation: 145
    dem: 116
    timezone: "Europe/Rome"
  - name: "Cimitile"
    latitude: 40.94231
    longitude: 14.52558
    population: 7084
    elevation: 40
    dem: 44
    timezone: "Europe/Rome"
  - name: "Cicciano"
    latitude: 40.96402
    longitude: 14.53487
    population: 12639
    elevation: 50
    dem: 50
    timezone: "Europe/Rome"
  - name: "Cesa"
    latitude: 40.96287
    longitude: 14.23081
    population: 8496
    elevation: 40
    dem: 45
    timezone: "Europe/Rome"
  - name: "Cercola"
    latitude: 40.86043
    longitude: 14.35733
    population: 17821
    elevation: 75
    dem: 70
    timezone: "Europe/Rome"
  - name: "Cellole"
    latitude: 41.20338
    longitude: 13.85332
    population: 5765
    elevation: 19
    dem: 21
    timezone: "Europe/Rome"
  - name: "Cava De Tirreni"
    latitude: 40.69954
    longitude: 14.70773
    population: 48127
    dem: 212
    timezone: "Europe/Rome"
  - name: "Castel Volturno"
    latitude: 41.03288
    longitude: 13.94354
    population: 21881
    elevation: 3
    dem: 3
    timezone: "Europe/Rome"
  - name: "Castel San Giorgio"
    latitude: 40.78198
    longitude: 14.7009
    population: 7038
    elevation: 90
    dem: 94
    timezone: "Europe/Rome"
  - name: "Castellammare di Stabia"
    latitude: 40.70211
    longitude: 14.48685
    population: 65730
    elevation: 6
    dem: 19
    timezone: "Europe/Rome"
  - name: "Casoria"
    latitude: 40.90751
    longitude: 14.293
    population: 58456
    elevation: 70
    dem: 70
    timezone: "Europe/Rome"
  - name: "Caserta"
    latitude: 41.07262
    longitude: 14.33231
    population: 72844
    elevation: 68
    dem: 72
    timezone: "Europe/Rome"
  - name: "Casapulla"
    latitude: 41.07665
    longitude: 14.28927
    population: 8113
    elevation: 46
    dem: 47
    timezone: "Europe/Rome"
  - name: "Casandrino"
    latitude: 40.92845
    longitude: 14.24744
    population: 13179
    elevation: 59
    dem: 69
    timezone: "Europe/Rome"
  - name: "Casaluce"
    latitude: 40.99785
    longitude: 14.19671
    population: 9969
    elevation: 25
    dem: 27
    timezone: "Europe/Rome"
  - name: "Casalnuovo di Napoli"
    latitude: 40.90969
    longitude: 14.34205
    population: 45796
    elevation: 26
    dem: 41
    timezone: "Europe/Rome"
  - name: "Casal di Principe"
    latitude: 41.00996
    longitude: 14.13013
    population: 20589
    elevation: 16
    dem: 18
    timezone: "Europe/Rome"
  - name: "Cardito"
    latitude: 40.9459
    longitude: 14.29952
    population: 22239
    elevation: 44
    dem: 33
    timezone: "Europe/Rome"
  - name: "Capua"
    latitude: 41.10519
    longitude: 14.21269
    population: 15438
    elevation: 25
    dem: 25
    timezone: "Europe/Rome"
  - name: "Capri"
    latitude: 40.55073
    longitude: 14.24263
    population: 6770
    elevation: 142
    dem: 142
    timezone: "Europe/Rome"
  - name: "Capodrise"
    latitude: 41.04268
    longitude: 14.30607
    population: 9654
    elevation: 34
    dem: 32
    timezone: "Europe/Rome"
  - name: "Camposano"
    latitude: 40.95242
    longitude: 14.52991
    population: 5309
    elevation: 43
    dem: 45
    timezone: "Europe/Rome"
  - name: "Calvizzano"
    latitude: 40.90782
    longitude: 14.18581
    population: 11194
    elevation: 135
    dem: 134
    timezone: "Europe/Rome"
  - name: "Caivano"
    latitude: 40.95753
    longitude: 14.30591
    population: 34604
    elevation: 27
    dem: 30
    timezone: "Europe/Rome"
  - name: "Brusciano"
    latitude: 40.92237
    longitude: 14.42386
    population: 15238
    elevation: 27
    dem: 32
    timezone: "Europe/Rome"
  - name: "Bracigliano"
    latitude: 40.8188
    longitude: 14.70772
    population: 5375
    elevation: 327
    dem: 301
    timezone: "Europe/Rome"
  - name: "Boscotrecase"
    latitude: 40.77296
    longitude: 14.46185
    population: 10331
    elevation: 86
    dem: 84
    timezone: "Europe/Rome"
  - name: "Boscoreale"
    latitude: 40.77274
    longitude: 14.48118
    population: 26861
    elevation: 65
    dem: 53
    timezone: "Europe/Rome"
  - name: "Benevento"
    latitude: 41.1307
    longitude: 14.77816
    population: 48931
    elevation: 135
    dem: 154
    timezone: "Europe/Rome"
  - name: "Battipaglia"
    latitude: 40.60861
    longitude: 14.98209
    population: 47104
    elevation: 72
    dem: 78
    timezone: "Europe/Rome"
  - name: "Baronissi"
    latitude: 40.74817
    longitude: 14.7738
    population: 12383
    elevation: 226
    dem: 192
    timezone: "Europe/Rome"
  - name: "Barano dIschia"
    latitude: 40.71472
    longitude: 13.92522
    population: 9044
    elevation: 210
    dem: 156
    timezone: "Europe/Rome"
  - name: "Bagnoli"
    latitude: 40.81322
    longitude: 14.16807
    population: 24671
    dem: 3
    timezone: "Europe/Rome"
  - name: "Bacoli"
    latitude: 40.79672
    longitude: 14.07349
    population: 25590
    elevation: 30
    dem: 2
    timezone: "Europe/Rome"
  - name: "Aversa"
    latitude: 40.97259
    longitude: 14.20745
    population: 52830
    elevation: 39
    dem: 48
    timezone: "Europe/Rome"
  - name: "Avellino"
    latitude: 40.91494
    longitude: 14.79103
    population: 48104
    elevation: 348
    dem: 360
    timezone: "Europe/Rome"
  - name: "Avella"
    latitude: 40.95995
    longitude: 14.60087
    population: 7372
    elevation: 207
    dem: 206
    timezone: "Europe/Rome"
  - name: "Atripalda"
    latitude: 40.91867
    longitude: 14.82721
    population: 8974
    elevation: 294
    dem: 307
    timezone: "Europe/Rome"
  - name: "Arzano"
    latitude: 40.90959
    longitude: 14.26519
    population: 34933
    elevation: 74
    dem: 83
    timezone: "Europe/Rome"
  - name: "Arienzo"
    latitude: 41.02734
    longitude: 14.4977
    population: 5333
    elevation: 103
    dem: 110
    timezone: "Europe/Rome"
  - name: "Ariano Irpino-Martiri"
    latitude: 41.16024
    longitude: 15.10625
    population: 9779
    dem: 617
    timezone: "Europe/Rome"
  - name: "Angri"
    latitude: 40.73815
    longitude: 14.5707
    population: 31632
    elevation: 32
    dem: 29
    timezone: "Europe/Rome"
  - name: "Anacapri"
    latitude: 40.5517
    longitude: 14.21225
    population: 6403
    elevation: 275
    dem: 244
    timezone: "Europe/Rome"
  - name: "Airola"
    latitude: 41.05871
    longitude: 14.55924
    population: 7305
    elevation: 270
    dem: 262
    timezone: "Europe/Rome"
  - name: "Agropoli"
    latitude: 40.34923
    longitude: 14.99067
    population: 17335
    elevation: 24
    dem: 21
    timezone: "Europe/Rome"
  - name: "Agerola"
    latitude: 40.63771
    longitude: 14.53884
    population: 7348
    dem: 670
    timezone: "Europe/Rome"
  - name: "Afragola"
    latitude: 40.92298
    longitude: 14.30935
    population: 62775
    elevation: 43
    dem: 45
    timezone: "Europe/Rome"
  - name: "Acerra"
    latitude: 40.94477
    longitude: 14.3714
    population: 53578
    elevation: 28
    dem: 30
    timezone: "Europe/Rome"
  - name: "Cervinara"
    latitude: 41.02042
    longitude: 14.61444
    population: 10150
    dem: 290
    timezone: "Europe/Rome"
  - name: "Montoro Superiore"
    latitude: 40.81699
    longitude: 14.79841
    population: 8054
    dem: 265
    timezone: "Europe/Rome"
  - name: "San Cipriano dAversa"
    latitude: 40.99881
    longitude: 14.13173
    population: 13416
    elevation: 20
    dem: 23
    timezone: "Europe/Rome"
  - name: "San Felice A Cancello"
    latitude: 41.01702
    longitude: 14.48736
    population: 16571
    dem: 89
    timezone: "Europe/Rome"
  - name: "San Nicola la Strada"
    latitude: 41.05237
    longitude: 14.33334
    population: 21147
    elevation: 58
    dem: 56
    timezone: "Europe/Rome"
  - name: "Crispano"
    latitude: 40.95251
    longitude: 14.28993
    population: 12249
    elevation: 37
    dem: 32
    timezone: "Europe/Rome"
  - name: "Pollena Trocchia"
    latitude: 40.85134
    longitude: 14.37911
    population: 11880
    elevation: 149
    dem: 168
    timezone: "Europe/Rome"
  - name: "Quarto"
    latitude: 40.87822
    longitude: 14.14352
    population: 37683
    elevation: 55
    dem: 52
    timezone: "Europe/Rome"
  - name: "Casagiove"
    latitude: 41.07124
    longitude: 14.31163
    population: 13654
    elevation: 55
    dem: 58
    timezone: "Europe/Rome"
  - name: "Frignano"
    latitude: 40.99811
    longitude: 14.17913
    population: 8487
    elevation: 30
    dem: 33
    timezone: "Europe/Rome"
  - name: "Orta di Atella"
    latitude: 40.96441
    longitude: 14.26854
    population: 24750
    elevation: 36
    dem: 34
    timezone: "Europe/Rome"
  - name: "San Marcellino"
    latitude: 40.99001
    longitude: 14.17583
    population: 12558
    elevation: 36
    dem: 37
    timezone: "Europe/Rome"
  - name: "Teverola"
    latitude: 40.99561
    longitude: 14.20763
    population: 12175
    elevation: 25
    dem: 26
    timezone: "Europe/Rome"
  - name: "Casavatore"
    latitude: 40.89921
    longitude: 14.27663
    population: 18663
    elevation: 80
    dem: 85
    timezone: "Europe/Rome"
  - name: "Volla"
    latitude: 40.87363
    longitude: 14.34085
    population: 22911
    elevation: 25
    dem: 26
    timezone: "Europe/Rome"
  - name: "Santa Maria La Carita"
    latitude: 40.71611
    longitude: 14.50984
    population: 11210
    dem: 30
    timezone: "Europe/Rome"
  - name: "Trecase"
    latitude: 40.76941
    longitude: 14.43773
    population: 8446
    elevation: 99
    dem: 94
    timezone: "Europe/Rome"
  - name: "SantEgidio del Monte Albino"
    latitude: 40.73871
    longitude: 14.59454
    population: 7564
    elevation: 60
    dem: 51
    timezone: "Europe/Rome"
  - name: "Bellizzi"
    latitude: 40.61981
    longitude: 14.94685
    population: 10811
    elevation: 60
    dem: 62
    timezone: "Europe/Rome"
  - name: "Lusciano"
    latitude: 40.97001
    longitude: 14.19043
    population: 14107
    elevation: 44
    dem: 48
    timezone: "Europe/Rome"
  - name: "Parete"
    latitude: 40.95891
    longitude: 14.16193
    population: 10989
    elevation: 62
    dem: 66
    timezone: "Europe/Rome"
  - name: "Piedimonte Matese"
    latitude: 41.35082
    longitude: 14.36803
    population: 11220
    elevation: 170
    dem: 158
    timezone: "Europe/Rome"
  - name: "Lettere"
    latitude: 40.70491
    longitude: 14.54494
    population: 5605
    dem: 353
    timezone: "Europe/Rome"
  - name: "Montecorvino Pugliano"
    latitude: 40.67921
    longitude: 14.94475
    population: 7811
    dem: 363
    timezone: "Europe/Rome"
  - name: "Succivo"
    latitude: 40.96801
    longitude: 14.25563
    population: 8148
    elevation: 35
    dem: 35
    timezone: "Europe/Rome"
  - name: "Casamicciola Terme"
    latitude: 40.74661
    longitude: 13.91202
    population: 8011
    elevation: 43
    dem: 38
    timezone: "Europe/Rome"
