---
name: "Cayman Islands"
iso: "KY"
iso3: "CYM"
code: "136"
capital: "George Town"
area: 262.0
population: 44270
continent: "NA"
currencyCode: "KYD"
currencyName: "Dollar"
phone: "+1-345"
languages: "en-KY"
regions:
- name: "Bodden Town"
  cities:
  - name: "Bodden Town"
    latitude: 19.27647
    longitude: -81.2542
    population: 10341
    dem: 6
    timezone: "America/Cayman"
- name: "Sister Island"
  cities:
  - name: "Little Cayman"
    latitude: 19.66114
    longitude: -80.10984
    population: 0
    dem: 6
    timezone: "America/Cayman"
- name: "East End"
  cities:
  - name: "East End"
    latitude: 19.3
    longitude: -81.11667
    population: 1639
    dem: 8
    timezone: "America/Cayman"
- name: "George Town"
  cities:
  - name: "George Town"
    latitude: 19.2866
    longitude: -81.37436
    population: 29370
    dem: 3
    timezone: "America/Cayman"
- name: "West Bay"
  cities:
  - name: "West Bay"
    latitude: 19.36667
    longitude: -81.41667
    population: 11269
    dem: -9999
    timezone: "America/Cayman"
- name: "North Side"
  cities:
  - name: "North Side"
    latitude: 19.35
    longitude: -81.2
    population: 1184
    dem: 3
    timezone: "America/Cayman"
