---
name: "Lebanon"
iso: "LB"
iso3: "LBN"
code: "422"
capital: "Beirut"
area: 10400.0
population: 4125247
continent: "AS"
currencyCode: "LBP"
currencyName: "Pound"
phone: "961"
postalCodeFormat: "#### ####|####"
postalCodeRegex: "^(\\d{4}(\\d{4})?)$"
languages: "ar-LB,fr-LB,en,hy"
neighbours: "SY,IL"
regions:
- name: "Beyrouth"
  cities:
  - name: "Ras Bayrut"
    latitude: 33.9
    longitude: 35.48333
    population: 1251739
    dem: 35
    timezone: "Asia/Beirut"
  - name: "Beirut"
    latitude: 33.89332
    longitude: 35.50157
    population: 1916100
    dem: 40
    timezone: "Asia/Beirut"
- name: "Mohafazat Aakkar"
  cities:
  - name: "Halba"
    latitude: 34.54278
    longitude: 36.07972
    population: 0
    dem: 157
    timezone: "Asia/Beirut"
- name: "Mohafazat Nabatiye"
  cities:
  - name: "Habbouch"
    latitude: 33.40729
    longitude: 35.48169
    population: 98433
    dem: 457
    timezone: "Asia/Beirut"
  - name: "Nabatiye et Tahta"
    latitude: 33.37889
    longitude: 35.48389
    population: 120000
    dem: 428
    timezone: "Asia/Beirut"
- name: "Mohafazat Liban-Sud"
  cities:
  - name: "Tyre"
    latitude: 33.27333
    longitude: 35.19389
    population: 135204
    dem: 7
    timezone: "Asia/Beirut"
  - name: "Sidon"
    latitude: 33.55751
    longitude: 35.37148
    population: 163554
    dem: 9
    timezone: "Asia/Beirut"
  - name: "En Naqoura"
    latitude: 33.11806
    longitude: 35.13972
    population: 24910
    elevation: 174
    dem: 71
    timezone: "Asia/Beirut"
- name: "Mohafazat Liban-Nord"
  cities:
  - name: "Tripoli"
    latitude: 34.43352
    longitude: 35.84415
    population: 229398
    dem: 51
    timezone: "Asia/Beirut"
  - name: "Bcharre"
    latitude: 34.25083
    longitude: 36.01056
    population: 20000
    dem: 1442
    timezone: "Asia/Beirut"
  - name: "Batroun"
    latitude: 34.25528
    longitude: 35.65806
    population: 10852
    dem: 13
    timezone: "Asia/Beirut"
- name: "Mohafazat Mont-Liban"
  cities:
  - name: "Jounieh"
    latitude: 33.98083
    longitude: 35.61778
    population: 96315
    dem: 40
    timezone: "Asia/Beirut"
  - name: "Jbail"
    latitude: 34.12111
    longitude: 35.64806
    population: 20784
    dem: 33
    timezone: "Asia/Beirut"
  - name: "Baabda"
    latitude: 33.83389
    longitude: 35.54417
    population: 9000
    dem: 215
    timezone: "Asia/Beirut"
- name: "Mohafazat Baalbek-Hermel"
  cities:
  - name: "Baalbek"
    latitude: 34.00583
    longitude: 36.21806
    population: 30916
    dem: 1183
    timezone: "Asia/Beirut"
- name: "Mohafazat Beqaa"
  cities:
  - name: "Zahle"
    latitude: 33.84675
    longitude: 35.90203
    population: 78145
    dem: 963
    timezone: "Asia/Beirut"
