---
name: "Maldives"
iso: "MV"
iso3: "MDV"
code: "462"
capital: "Male"
area: 300.0
population: 395650
continent: "AS"
currencyCode: "MVR"
currencyName: "Rufiyaa"
phone: "960"
postalCodeFormat: "#####"
postalCodeRegex: "^(\\d{5})$"
languages: "dv,en"
regions:
- name: "Laamu Atholhu"
  cities:
  - name: "Fonadhoo"
    latitude: 1.83243
    longitude: 73.50257
    population: 1773
    dem: 7
    timezone: "Indian/Maldives"
- name: "Dhaalu Atholhu"
  cities:
  - name: "Kudahuvadhoo"
    latitude: 2.67075
    longitude: 72.89437
    population: 1562
    dem: 9
    timezone: "Indian/Maldives"
- name: "Thaa Atholhu"
  cities:
  - name: "Veymandoo"
    latitude: 2.18772
    longitude: 73.09556
    population: 1100
    dem: 10
    timezone: "Indian/Maldives"
- name: "Baa Atholhu"
  cities:
  - name: "Eydhafushi"
    latitude: 5.10327
    longitude: 73.07078
    population: 2808
    dem: 7
    timezone: "Indian/Maldives"
- name: "Gaafu Alifu Atholhu"
  cities:
  - name: "Viligili"
    latitude: 0.75906
    longitude: 73.43296
    population: 2925
    dem: 5
    timezone: "Indian/Maldives"
- name: "Noonu Atoll"
  cities:
  - name: "Manadhoo"
    latitude: 5.76687
    longitude: 73.4136
    population: 1580
    dem: 8
    timezone: "Indian/Maldives"
- name: "Addu Atoll"
  cities:
  - name: "Hithadhoo"
    latitude: -0.6
    longitude: 73.08333
    population: 9927
    dem: 6
    timezone: "Indian/Maldives"
- name: "Haa Dhaalu Atholhu"
  cities:
  - name: "Kulhudhuffushi"
    latitude: 6.62207
    longitude: 73.06998
    population: 9500
    dem: 6
    timezone: "Indian/Maldives"
- name: "Southern Ari Atoll"
  cities:
  - name: "Mahibadhoo"
    latitude: 3.75713
    longitude: 72.96893
    population: 2156
    dem: 9
    timezone: "Indian/Maldives"
- name: "Gnaviyani Atoll"
  cities:
  - name: "Fuvahmulah"
    latitude: -0.29878
    longitude: 73.42403
    population: 11140
    dem: 9
    timezone: "Indian/Maldives"
- name: "Shaviyani Atholhu"
  cities:
  - name: "Funadhoo"
    latitude: 6.15091
    longitude: 73.29013
    population: 2900
    dem: 9
    timezone: "Indian/Maldives"
- name: "Alifu Atholhu"
- name: "Lhaviyani Atholhu"
  cities:
  - name: "Naifaru"
    latitude: 5.44438
    longitude: 73.36571
    population: 5044
    dem: 6
    timezone: "Indian/Maldives"
- name: "Faafu Atholhu"
- name: "Haa Alifu Atholhu"
  cities:
  - name: "Dhidhdhoo"
    latitude: 6.88744
    longitude: 73.11402
    population: 3039
    dem: 8
    timezone: "Indian/Maldives"
- name: "Vaavu Atholhu"
  cities:
  - name: "Felidhoo"
    latitude: 3.47182
    longitude: 73.54699
    population: 541
    dem: 8
    timezone: "Indian/Maldives"
- name: "Meemu Atholhu"
  cities:
  - name: "Muli"
    latitude: 2.91667
    longitude: 73.56667
    population: 1008
    dem: -9999
    timezone: "Indian/Maldives"
- name: "Gaafu Dhaalu Atholhu"
  cities:
  - name: "Thinadhoo"
    latitude: 0.5306
    longitude: 72.99969
    population: 6376
    dem: 7
    timezone: "Indian/Maldives"
- name: "Kaafu Atoll"
  cities:
  - name: "Male"
    latitude: 4.17521
    longitude: 73.50916
    population: 103693
    dem: 8
    timezone: "Indian/Maldives"
- name: "Raa Atholhu"
  cities:
  - name: "Ugoofaaru"
    latitude: 5.66812
    longitude: 73.03017
    population: 1575
    dem: 9
    timezone: "Indian/Maldives"
