---
name: "French Polynesia"
iso: "PF"
iso3: "PYF"
code: "258"
capital: "Papeete"
area: 4167.0
population: 270485
continent: "OC"
currencyCode: "XPF"
currencyName: "Franc"
phone: "689"
postalCodeFormat: "#####"
postalCodeRegex: "^((97|98)7\\d{2})$"
languages: "fr-PF,ty"
regions:
- name: "Iles du Vent"
  cities:
  - name: "Punaauia"
    latitude: -17.63333
    longitude: -149.6
    population: 25750
    dem: 24
    timezone: "Pacific/Tahiti"
  - name: "Pirae"
    latitude: -17.51667
    longitude: -149.53333
    population: 14475
    dem: 7
    timezone: "Pacific/Tahiti"
  - name: "Papeete"
    latitude: -17.53733
    longitude: -149.5665
    population: 26357
    dem: 9
    timezone: "Pacific/Tahiti"
  - name: "Papao"
    latitude: -17.75
    longitude: -149.55
    population: 10360
    dem: 7
    timezone: "Pacific/Tahiti"
  - name: "Paea"
    latitude: -17.68333
    longitude: -149.58333
    population: 12084
    dem: 16
    timezone: "Pacific/Tahiti"
  - name: "Mahina"
    latitude: -17.50648
    longitude: -149.48899
    population: 14369
    dem: 12
    timezone: "Pacific/Tahiti"
  - name: "Faaa"
    latitude: -17.55
    longitude: -149.6
    population: 29851
    dem: 5
    timezone: "Pacific/Tahiti"
  - name: "Arue"
    latitude: -17.51667
    longitude: -149.5
    population: 9458
    dem: 94
    timezone: "Pacific/Tahiti"
- name: "Iles Marquises"
  cities:
  - name: "Taiohae"
    latitude: -8.91093
    longitude: -140.09972
    population: 1224
    dem: 23
    timezone: "Pacific/Marquesas"
- name: "French Polynesia"
  cities:
  - name: "Afaahiti"
    latitude: -17.74395
    longitude: -149.32444
    population: 5186
    dem: 1
    timezone: "Pacific/Tahiti"
- name: "Iles Tuamotu-Gambier"
- name: "Iles Sous-le-Vent"
  cities:
  - name: "Uturoa"
    latitude: -16.72891
    longitude: -151.44482
    population: 3668
    dem: 8
    timezone: "Pacific/Tahiti"
- name: "Iles Australes"
