---
name: "Papua New Guinea"
iso: "PG"
iso3: "PNG"
code: "598"
capital: "Port Moresby"
area: 462840.0
population: 6064515
continent: "OC"
currencyCode: "PGK"
currencyName: "Kina"
phone: "675"
postalCodeFormat: "###"
postalCodeRegex: "^(\\d{3})$"
languages: "en-PG,ho,meu,tpi"
neighbours: "ID"
regions:
- name: "West Sepik Province"
  cities:
  - name: "Vanimo"
    latitude: -2.68372
    longitude: 141.30195
    population: 11204
    dem: 5
    timezone: "Pacific/Port_Moresby"
  - name: "Aitape"
    latitude: -3.13697
    longitude: 142.34913
    population: 5547
    dem: 1
    timezone: "Pacific/Port_Moresby"
- name: "Western Province"
  cities:
  - name: "Kiunga"
    latitude: -6.12193
    longitude: 141.29061
    population: 11536
    dem: 40
    timezone: "Pacific/Port_Moresby"
  - name: "Daru"
    latitude: -9.07786
    longitude: 143.20893
    population: 15214
    dem: 11
    timezone: "Pacific/Port_Moresby"
- name: "Madang Province"
  cities:
  - name: "Madang"
    latitude: -5.22152
    longitude: 145.78695
    population: 27419
    dem: 1
    timezone: "Pacific/Port_Moresby"
- name: "Hela"
  cities:
  - name: "Tari"
    latitude: -5.9022
    longitude: 142.93511
    population: 8186
    dem: 1608
    timezone: "Pacific/Port_Moresby"
- name: "New Ireland Province"
  cities:
  - name: "Kavieng"
    latitude: -2.57337
    longitude: 150.79516
    population: 14490
    dem: 1
    timezone: "Pacific/Port_Moresby"
- name: "Eastern Highlands Province"
  cities:
  - name: "Kainantu"
    latitude: -6.28872
    longitude: 145.86548
    population: 8509
    dem: 1575
    timezone: "Pacific/Port_Moresby"
  - name: "Goroka"
    latitude: -6.08336
    longitude: 145.38735
    population: 18503
    dem: 1581
    timezone: "Pacific/Port_Moresby"
- name: "Milne Bay Province"
  cities:
  - name: "Alotau"
    latitude: -10.31509
    longitude: 150.45742
    population: 10025
    dem: 11
    timezone: "Pacific/Port_Moresby"
- name: "National Capital District"
  cities:
  - name: "Port Moresby"
    latitude: -9.47723
    longitude: 147.15089
    population: 283733
    dem: 1
    timezone: "Pacific/Port_Moresby"
- name: "Gulf Province"
  cities:
  - name: "Kerema"
    latitude: -7.96309
    longitude: 145.77851
    population: 5646
    dem: 18
    timezone: "Pacific/Port_Moresby"
- name: "West New Britain Province"
  cities:
  - name: "Kimbe"
    latitude: -5.55085
    longitude: 150.13766
    population: 18847
    dem: 27
    timezone: "Pacific/Port_Moresby"
- name: "East Sepik Province"
  cities:
  - name: "Wewak"
    latitude: -3.54964
    longitude: 143.63229
    population: 18230
    dem: 44
    timezone: "Pacific/Port_Moresby"
- name: "Southern Highlands Province"
  cities:
  - name: "Mendi"
    latitude: -6.14755
    longitude: 143.65633
    population: 26252
    dem: 1729
    timezone: "Pacific/Port_Moresby"
  - name: "Ialibu"
    latitude: -6.28208
    longitude: 143.99354
    population: 6915
    dem: 2061
    timezone: "Pacific/Port_Moresby"
- name: "Morobe Province"
  cities:
  - name: "Wau"
    latitude: -7.33778
    longitude: 146.71649
    population: 14629
    dem: 1082
    timezone: "Pacific/Port_Moresby"
  - name: "Lae"
    latitude: -6.72208
    longitude: 146.98469
    population: 76255
    dem: 16
    timezone: "Pacific/Port_Moresby"
  - name: "Bulolo"
    latitude: -7.2036
    longitude: 146.64014
    population: 16042
    dem: 677
    timezone: "Pacific/Port_Moresby"
- name: "Chimbu Province"
  cities:
  - name: "Kundiawa"
    latitude: -6.01667
    longitude: 144.96667
    population: 9383
    dem: 1539
    timezone: "Pacific/Port_Moresby"
- name: "Manus Province"
  cities:
  - name: "Lorengau"
    latitude: -2.0341
    longitude: 147.27173
    population: 5806
    dem: 45
    timezone: "Pacific/Port_Moresby"
- name: "Bougainville"
  cities:
  - name: "Arawa"
    latitude: -6.22977
    longitude: 155.56598
    population: 40266
    dem: 28
    timezone: "Pacific/Bougainville"
  - name: "Buka"
    latitude: -5.43261
    longitude: 154.67098
    population: 0
    dem: 2
    timezone: "Pacific/Bougainville"
- name: "Jiwaka"
  cities:
  - name: "Minj"
    latitude: -5.90752
    longitude: 144.69159
    population: 0
    dem: 1607
    timezone: "Pacific/Port_Moresby"
- name: "Western Highlands Province"
  cities:
  - name: "Mount Hagen"
    latitude: -5.85746
    longitude: 144.23058
    population: 33623
    dem: 1728
    timezone: "Pacific/Port_Moresby"
- name: "Central Province"
- name: "East New Britain Province"
  cities:
  - name: "Rabaul"
    latitude: -4.20037
    longitude: 152.16297
    population: 8074
    dem: 39
    timezone: "Pacific/Port_Moresby"
  - name: "Kokopo"
    latitude: -4.3432
    longitude: 152.26867
    population: 26273
    dem: 1
    timezone: "Pacific/Port_Moresby"
- name: "Enga Province"
  cities:
  - name: "Wabag"
    latitude: -5.49119
    longitude: 143.72151
    population: 3958
    dem: 2069
    timezone: "Pacific/Port_Moresby"
- name: "Northern Province"
  cities:
  - name: "Popondetta"
    latitude: -8.76536
    longitude: 148.23252
    population: 28198
    dem: 106
    timezone: "Pacific/Port_Moresby"
  - name: "Kokoda"
    latitude: -8.87778
    longitude: 147.73642
    population: 6199
    dem: 372
    timezone: "Pacific/Port_Moresby"
