---
name: "Philippines"
iso: "PH"
iso3: "PHL"
code: "608"
capital: "Manila"
area: 300000.0
population: 99900177
continent: "AS"
currencyCode: "PHP"
currencyName: "Peso"
phone: "63"
postalCodeFormat: "####"
postalCodeRegex: "^(\\d{4})$"
languages: "tl,en-PH,fil,ceb,tgl,ilo,hil,war,pam,bik,bcl,pag,mrw,tsg,mdh,cbk,krj,sgd,msb,akl,ibg,yka,mta,abx"
regions:
- name: "Eastern Visayas"
  cities:
  - name: "Tanauan"
    latitude: 11.10944
    longitude: 125.01556
    population: 16567
    dem: 5
    timezone: "Asia/Manila"
  - name: "Tacloban"
    latitude: 11.24333
    longitude: 125.00472
    population: 242089
    dem: 7
    timezone: "Asia/Manila"
  - name: "Tabango"
    latitude: 11.3077
    longitude: 124.373
    population: 5806
    dem: 8
    timezone: "Asia/Manila"
  - name: "Sogod"
    latitude: 10.3847
    longitude: 124.9814
    population: 8303
    dem: 10
    timezone: "Asia/Manila"
  - name: "San Policarpio"
    latitude: 12.0686
    longitude: 124.5695
    population: 5616
    dem: 7
    timezone: "Asia/Manila"
  - name: "Panalanoy"
    latitude: 11.25111
    longitude: 125.00639
    population: 189090
    dem: 16
    timezone: "Asia/Manila"
  - name: "Pambujan"
    latitude: 12.5642
    longitude: 124.9276
    population: 10812
    dem: 5
    timezone: "Asia/Manila"
  - name: "Palompon"
    latitude: 11.0508
    longitude: 124.3843
    population: 12087
    dem: 7
    timezone: "Asia/Manila"
  - name: "Palo"
    latitude: 11.1575
    longitude: 124.99083
    population: 17534
    dem: 7
    timezone: "Asia/Manila"
  - name: "Palapag"
    latitude: 12.5458
    longitude: 125.1147
    population: 8342
    dem: 12
    timezone: "Asia/Manila"
  - name: "Pagsanghan"
    latitude: 11.9657
    longitude: 124.7212
    population: 8024
    dem: 5
    timezone: "Asia/Manila"
  - name: "Ormoc"
    latitude: 11.00639
    longitude: 124.6075
    population: 191200
    dem: 11
    timezone: "Asia/Manila"
  - name: "Oras"
    latitude: 12.1406
    longitude: 125.4397
    population: 9022
    dem: 8
    timezone: "Asia/Manila"
  - name: "Naval"
    latitude: 11.56056
    longitude: 124.3975
    population: 12217
    dem: 9
    timezone: "Asia/Manila"
  - name: "Mondragon"
    latitude: 12.5157
    longitude: 124.7523
    population: 5198
    dem: 6
    timezone: "Asia/Manila"
  - name: "Maydolong"
    latitude: 11.50021
    longitude: 125.49811
    population: 5492
    dem: 6
    timezone: "Asia/Manila"
  - name: "Matlang"
    latitude: 10.8902
    longitude: 124.4554
    population: 5840
    dem: 8
    timezone: "Asia/Manila"
  - name: "Maasin"
    latitude: 10.13361
    longitude: 124.84472
    population: 18313
    elevation: 3
    dem: 9
    timezone: "Asia/Manila"
  - name: "Llorente"
    latitude: 11.41194
    longitude: 125.54583
    population: 7908
    dem: 11
    timezone: "Asia/Manila"
  - name: "Leyte"
    latitude: 11.36687
    longitude: 124.48239
    population: 7223
    dem: 1
    timezone: "Asia/Manila"
  - name: "Laoang"
    latitude: 12.5698
    longitude: 125.0141
    population: 16725
    dem: 12
    timezone: "Asia/Manila"
  - name: "Kananya"
    latitude: 11.1867
    longitude: 124.5601
    population: 7647
    dem: 40
    timezone: "Asia/Manila"
  - name: "Kampokpok"
    latitude: 11.2962
    longitude: 124.405
    population: 5688
    dem: 6
    timezone: "Asia/Manila"
  - name: "Jaro"
    latitude: 11.18375
    longitude: 124.78267
    population: 7935
    dem: 107
    timezone: "Asia/Manila"
  - name: "Isabel"
    latitude: 10.9267
    longitude: 124.434
    population: 8597
    dem: 4
    timezone: "Asia/Manila"
  - name: "Hilongos"
    latitude: 10.37444
    longitude: 124.74972
    population: 7329
    dem: 5
    timezone: "Asia/Manila"
  - name: "Guiuan"
    latitude: 11.03088
    longitude: 125.72342
    population: 11041
    dem: 5
    timezone: "Asia/Manila"
  - name: "Giporlos"
    latitude: 11.12
    longitude: 125.44944
    population: 5258
    dem: 5
    timezone: "Asia/Manila"
  - name: "Gamay"
    latitude: 12.38542
    longitude: 125.29791
    population: 9125
    dem: 8
    timezone: "Asia/Manila"
  - name: "Dulag"
    latitude: 10.9525
    longitude: 125.03167
    population: 10151
    dem: 4
    timezone: "Asia/Manila"
  - name: "Dolores"
    latitude: 12.0371
    longitude: 125.4825
    population: 9274
    dem: 7
    timezone: "Asia/Manila"
  - name: "Culaba"
    latitude: 11.65778
    longitude: 124.5425
    population: 6231
    dem: 1
    timezone: "Asia/Manila"
  - name: "Catbalogan"
    latitude: 11.77528
    longitude: 124.88611
    population: 68081
    dem: 12
    timezone: "Asia/Manila"
  - name: "Catarman"
    latitude: 12.4989
    longitude: 124.6377
    population: 47449
    dem: 11
    timezone: "Asia/Manila"
  - name: "Carigara"
    latitude: 11.29811
    longitude: 124.67895
    population: 17495
    dem: 5
    timezone: "Asia/Manila"
  - name: "Capoocan"
    latitude: 11.29333
    longitude: 124.64194
    population: 8473
    dem: 7
    timezone: "Asia/Manila"
  - name: "Can-Avid"
    latitude: 11.99528
    longitude: 125.44722
    population: 5928
    dem: 8
    timezone: "Asia/Manila"
  - name: "Calbayog City"
    latitude: 12.0668
    longitude: 124.5962
    population: 67921
    dem: 7
    timezone: "Asia/Manila"
  - name: "Caibiran"
    latitude: 11.57167
    longitude: 124.58222
    population: 6462
    dem: 6
    timezone: "Asia/Manila"
  - name: "Burauen"
    latitude: 10.97556
    longitude: 124.89278
    population: 14268
    dem: 59
    timezone: "Asia/Manila"
  - name: "Borongan"
    latitude: 11.60806
    longitude: 125.43194
    population: 16484
    dem: 8
    timezone: "Asia/Manila"
  - name: "Baybay"
    latitude: 10.6785
    longitude: 124.8006
    population: 17668
    dem: 5
    timezone: "Asia/Manila"
  - name: "Bato"
    latitude: 10.32778
    longitude: 124.79111
    population: 9952
    dem: 6
    timezone: "Asia/Manila"
  - name: "Basey"
    latitude: 11.28205
    longitude: 125.06986
    population: 7844
    dem: 7
    timezone: "Asia/Manila"
  - name: "Barugo"
    latitude: 11.32417
    longitude: 124.73833
    population: 6655
    dem: 6
    timezone: "Asia/Manila"
  - name: "Balogo"
    latitude: 10.8868
    longitude: 124.7105
    population: 6704
    elevation: 0
    dem: 7
    timezone: "Asia/Manila"
  - name: "Balangiga"
    latitude: 11.10972
    longitude: 125.3875
    population: 5592
    dem: 5
    timezone: "Asia/Manila"
  - name: "Babatngon"
    latitude: 11.4238
    longitude: 124.8449
    population: 6237
    dem: 6
    timezone: "Asia/Manila"
  - name: "Arteche"
    latitude: 12.2645
    longitude: 125.4048
    population: 5025
    dem: 7
    timezone: "Asia/Manila"
  - name: "Allen"
    latitude: 12.5006
    longitude: 124.2849
    population: 7502
    dem: 12
    timezone: "Asia/Manila"
  - name: "Alegria"
    latitude: 12.3984
    longitude: 124.3261
    population: 5811
    dem: 7
    timezone: "Asia/Manila"
  - name: "Alangalang"
    latitude: 11.20611
    longitude: 124.84667
    population: 8096
    dem: 45
    timezone: "Asia/Manila"
  - name: "Abuyog"
    latitude: 10.747
    longitude: 125.0107
    population: 15632
    dem: 6
    timezone: "Asia/Manila"
- name: "Caraga"
  cities:
  - name: "Veruela"
    latitude: 8.0731
    longitude: 125.9558
    population: 18114
    dem: 31
    timezone: "Asia/Manila"
  - name: "Tungao"
    latitude: 8.78368
    longitude: 125.59587
    population: 8910
    dem: 24
    timezone: "Asia/Manila"
  - name: "Tubay"
    latitude: 9.16694
    longitude: 125.52389
    population: 7946
    dem: 12
    timezone: "Asia/Manila"
  - name: "Trento"
    latitude: 8.04583
    longitude: 126.06361
    population: 15916
    dem: 38
    timezone: "Asia/Manila"
  - name: "Tandag"
    latitude: 9.07833
    longitude: 126.19861
    population: 29011
    dem: 8
    timezone: "Asia/Manila"
  - name: "Taligaman"
    latitude: 8.90444
    longitude: 125.65583
    population: 7430
    dem: 199
    timezone: "Asia/Manila"
  - name: "Talacogon"
    latitude: 8.45611
    longitude: 125.78417
    population: 15581
    dem: 20
    timezone: "Asia/Manila"
  - name: "Tago"
    latitude: 9.02111
    longitude: 126.23167
    population: 6300
    dem: 9
    timezone: "Asia/Manila"
  - name: "Tagbina"
    latitude: 8.45194
    longitude: 126.17139
    population: 10672
    dem: 57
    timezone: "Asia/Manila"
  - name: "Surigao"
    latitude: 9.789
    longitude: 125.495
    population: 87832
    dem: 10
    timezone: "Asia/Manila"
  - name: "Socorro"
    latitude: 9.62139
    longitude: 125.96667
    population: 9743
    dem: 28
    timezone: "Asia/Manila"
  - name: "San Luis"
    latitude: 8.47806
    longitude: 125.74389
    population: 7109
    dem: 16
    timezone: "Asia/Manila"
  - name: "San Francisco"
    latitude: 8.53556
    longitude: 125.95
    population: 18542
    dem: 39
    timezone: "Asia/Manila"
  - name: "Salvacion"
    latitude: 7.99954
    longitude: 126.1248
    population: 6090
    dem: 69
    timezone: "Asia/Manila"
  - name: "Placer"
    latitude: 9.65417
    longitude: 125.6025
    population: 10443
    dem: 25
    timezone: "Asia/Manila"
  - name: "Patin-ay"
    latitude: 8.55056
    longitude: 125.93722
    population: 7263
    dem: 38
    timezone: "Asia/Manila"
  - name: "Nasipit"
    latitude: 8.96917
    longitude: 125.29472
    population: 9407
    dem: 146
    timezone: "Asia/Manila"
  - name: "Mainit"
    latitude: 9.535
    longitude: 125.52306
    population: 5520
    dem: 42
    timezone: "Asia/Manila"
  - name: "Magallanes"
    latitude: 9.02
    longitude: 125.51722
    population: 6636
    dem: 6
    timezone: "Asia/Manila"
  - name: "Luna"
    latitude: 9.737
    longitude: 125.4976
    population: 7799
    dem: 12
    timezone: "Asia/Manila"
  - name: "Loreto"
    latitude: 10.36361
    longitude: 125.57306
    population: 5397
    dem: 56
    timezone: "Asia/Manila"
  - name: "Loreto"
    latitude: 8.18694
    longitude: 125.85306
    population: 5730
    dem: 25
    timezone: "Asia/Manila"
  - name: "Lingig"
    latitude: 8.03889
    longitude: 126.4125
    population: 6400
    dem: 8
    timezone: "Asia/Manila"
  - name: "Libertad"
    latitude: 8.94417
    longitude: 125.50194
    population: 250353
    dem: 8
    timezone: "Asia/Manila"
  - name: "Libertad"
    latitude: 8.1075
    longitude: 126.02639
    population: 5799
    dem: 33
    timezone: "Asia/Manila"
  - name: "Lianga"
    latitude: 8.63361
    longitude: 126.09472
    population: 13623
    dem: 10
    timezone: "Asia/Manila"
  - name: "Kitcharao"
    latitude: 9.455
    longitude: 125.57306
    population: 7213
    dem: 54
    timezone: "Asia/Manila"
  - name: "Hinatuan"
    latitude: 8.37222
    longitude: 126.33417
    population: 10055
    dem: 7
    timezone: "Asia/Manila"
  - name: "Esperanza"
    latitude: 8.67694
    longitude: 125.64694
    population: 6193
    dem: 14
    timezone: "Asia/Manila"
  - name: "Dapa"
    latitude: 9.75944
    longitude: 126.05306
    population: 8823
    dem: 8
    timezone: "Asia/Manila"
  - name: "Claver"
    latitude: 9.5725
    longitude: 125.73306
    population: 5906
    dem: 8
    timezone: "Asia/Manila"
  - name: "Cantilan"
    latitude: 9.33361
    longitude: 125.9775
    population: 9408
    dem: 7
    timezone: "Asia/Manila"
  - name: "Cabadbaran"
    latitude: 9.12261
    longitude: 125.53549
    population: 31114
    dem: 10
    timezone: "Asia/Manila"
  - name: "Butuan"
    latitude: 8.94917
    longitude: 125.54361
    population: 309709
    dem: 9
    timezone: "Asia/Manila"
  - name: "Bunawan"
    latitude: 8.16722
    longitude: 125.99083
    population: 15471
    dem: 25
    timezone: "Asia/Manila"
  - name: "Buenavista"
    latitude: 8.97694
    longitude: 125.40889
    population: 18668
    dem: 7
    timezone: "Asia/Manila"
  - name: "Bislig"
    latitude: 8.21528
    longitude: 126.31639
    population: 67567
    dem: 11
    timezone: "Asia/Manila"
  - name: "Bayugan"
    latitude: 8.75611
    longitude: 125.7675
    population: 40561
    dem: 65
    timezone: "Asia/Manila"
  - name: "Barobo"
    latitude: 8.53528
    longitude: 126.12139
    population: 9893
    dem: 17
    timezone: "Asia/Manila"
  - name: "Bah-Bah"
    latitude: 8.60722
    longitude: 125.91444
    population: 28643
    dem: 43
    timezone: "Asia/Manila"
  - name: "Bacuag"
    latitude: 9.60806
    longitude: 125.63889
    population: 5419
    dem: 9
    timezone: "Asia/Manila"
  - name: "Aras-asan"
    latitude: 8.88781
    longitude: 126.3112
    population: 5099
    dem: 5
    timezone: "Asia/Manila"
  - name: "Alegria"
    latitude: 9.46694
    longitude: 125.57722
    population: 5891
    dem: 59
    timezone: "Asia/Manila"
- name: "Central Visayas"
  cities:
  - name: "Zamboanguita"
    latitude: 9.1025
    longitude: 123.1996
    population: 6164
    dem: 11
    timezone: "Asia/Manila"
  - name: "Vallehermoso"
    latitude: 10.3349
    longitude: 123.3259
    population: 10179
    dem: 5
    timezone: "Asia/Manila"
  - name: "Valencia"
    latitude: 10.136
    longitude: 123.6126
    population: 5027
    dem: 152
    timezone: "Asia/Manila"
  - name: "Tutay"
    latitude: 10.2463
    longitude: 123.5805
    population: 7808
    dem: 14
    timezone: "Asia/Manila"
  - name: "Tibigan"
    latitude: 9.9518
    longitude: 123.9622
    population: 11262
    dem: 3
    timezone: "Asia/Manila"
  - name: "Toledo"
    latitude: 10.3773
    longitude: 123.6386
    population: 156916
    dem: 2
    timezone: "Asia/Manila"
  - name: "Tinaan"
    latitude: 11.26667
    longitude: 123.75
    population: 5959
    dem: 9
    timezone: "Asia/Manila"
  - name: "Tayud"
    latitude: 10.37991
    longitude: 124.00522
    population: 7788
    dem: 12
    timezone: "Asia/Manila"
  - name: "Tapon"
    latitude: 10.0631
    longitude: 123.4453
    population: 5245
    dem: 8
    timezone: "Asia/Manila"
  - name: "Tapilon"
    latitude: 11.2774
    longitude: 124.0306
    population: 7786
    dem: 7
    timezone: "Asia/Manila"
  - name: "Tanjay"
    latitude: 9.5162
    longitude: 123.158
    population: 39151
    dem: 10
    timezone: "Asia/Manila"
  - name: "Talisay"
    latitude: 10.24472
    longitude: 123.84944
    population: 133148
    dem: 4
    timezone: "Asia/Manila"
  - name: "Talibon"
    latitude: 10.14917
    longitude: 124.325
    population: 11209
    dem: 11
    timezone: "Asia/Manila"
  - name: "Tajao"
    latitude: 10.3148
    longitude: 123.5835
    population: 5394
    dem: 3
    timezone: "Asia/Manila"
  - name: "Tagbilaran City"
    latitude: 9.65556
    longitude: 123.85219
    population: 86411
    dem: 10
    timezone: "Asia/Manila"
  - name: "Tabuan"
    latitude: 9.51556
    longitude: 122.85056
    population: 5390
    dem: 107
    timezone: "Asia/Manila"
  - name: "Siquijor"
    latitude: 9.2142
    longitude: 123.515
    population: 10259
    dem: 17
    timezone: "Asia/Manila"
  - name: "Sibulan"
    latitude: 9.3584
    longitude: 123.285
    population: 28079
    dem: 10
    timezone: "Asia/Manila"
  - name: "Sibonga"
    latitude: 10.0168
    longitude: 123.6171
    population: 11993
    dem: 11
    timezone: "Asia/Manila"
  - name: "Siaton"
    latitude: 9.0648
    longitude: 123.0339
    population: 7328
    dem: 16
    timezone: "Asia/Manila"
  - name: "Santa Catalina"
    latitude: 9.3337
    longitude: 122.8637
    population: 26457
    dem: 14
    timezone: "Asia/Manila"
  - name: "San Isidro"
    latitude: 9.91667
    longitude: 123.88333
    population: 9125
    dem: 2
    timezone: "Asia/Manila"
  - name: "San Francisco"
    latitude: 10.6461
    longitude: 124.3816
    population: 8989
    dem: 7
    timezone: "Asia/Manila"
  - name: "San Francisco"
    latitude: 10.16018
    longitude: 124.31098
    population: 5047
    dem: 8
    timezone: "Asia/Manila"
  - name: "San Fernando"
    latitude: 10.1624
    longitude: 123.7076
    population: 23706
    dem: 20
    timezone: "Asia/Manila"
  - name: "Pinamungahan"
    latitude: 10.2708
    longitude: 123.5839
    population: 23068
    dem: 2
    timezone: "Asia/Manila"
  - name: "Perrelos"
    latitude: 10.1169
    longitude: 123.6738
    population: 10971
    dem: 44
    timezone: "Asia/Manila"
  - name: "Patao"
    latitude: 11.2202
    longitude: 123.6925
    population: 5997
    dem: 4
    timezone: "Asia/Manila"
  - name: "Panglao"
    latitude: 9.57806
    longitude: 123.74583
    population: 6854
    dem: 7
    timezone: "Asia/Manila"
  - name: "Pamplona"
    latitude: 9.4724
    longitude: 123.1192
    population: 11772
    dem: 40
    timezone: "Asia/Manila"
  - name: "Ocana"
    latitude: 10.0656
    longitude: 123.6244
    population: 13898
    dem: 29
    timezone: "Asia/Manila"
  - name: "Obong"
    latitude: 9.741
    longitude: 123.5098
    population: 5576
    dem: 26
    timezone: "Asia/Manila"
  - name: "Novallas"
    latitude: 9.5117
    longitude: 123.1225
    population: 5525
    dem: 15
    timezone: "Asia/Manila"
  - name: "Nangka"
    latitude: 10.55
    longitude: 123.96667
    population: 6580
    dem: 404
    timezone: "Asia/Manila"
  - name: "Nangka"
    latitude: 9.4023
    longitude: 122.8244
    population: 9708
    dem: 13
    timezone: "Asia/Manila"
  - name: "Nalundan"
    latitude: 9.75
    longitude: 123.06667
    population: 9674
    dem: 166
    timezone: "Asia/Manila"
  - name: "Nailong"
    latitude: 11.0537
    longitude: 124.0385
    population: 5379
    dem: 15
    timezone: "Asia/Manila"
  - name: "Nagbalaye"
    latitude: 9.2492
    longitude: 122.8759
    population: 5108
    dem: 24
    timezone: "Asia/Manila"
  - name: "Naga"
    latitude: 10.20898
    longitude: 123.758
    population: 28571
    elevation: 0
    dem: 6
    timezone: "Asia/Manila"
  - name: "Moalboal"
    latitude: 9.94333
    longitude: 123.39917
    population: 6832
    dem: 24
    timezone: "Asia/Manila"
  - name: "Minglanilla"
    latitude: 10.24498
    longitude: 123.7964
    population: 62058
    elevation: 0
    dem: 16
    timezone: "Asia/Manila"
  - name: "Medellin"
    latitude: 11.1286
    longitude: 123.9622
    population: 11741
    dem: 10
    timezone: "Asia/Manila"
  - name: "Mayabon"
    latitude: 9.0961
    longitude: 123.1738
    population: 6521
    dem: 14
    timezone: "Asia/Manila"
  - name: "Maya"
    latitude: 11.27442
    longitude: 124.05526
    population: 7572
    dem: 13
    timezone: "Asia/Manila"
  - name: "Mantalongon"
    latitude: 9.8106
    longitude: 123.4617
    population: 6070
    dem: 779
    timezone: "Asia/Manila"
  - name: "Maninihon"
    latitude: 9.3711
    longitude: 122.8405
    population: 6150
    dem: 12
    timezone: "Asia/Manila"
  - name: "Mandaue City"
    latitude: 10.32361
    longitude: 123.92222
    population: 331320
    dem: 7
    timezone: "Asia/Manila"
  - name: "Manalongon"
    latitude: 9.2209
    longitude: 122.886
    population: 9321
    dem: 16
    timezone: "Asia/Manila"
  - name: "Maloh"
    latitude: 9.056
    longitude: 122.9851
    population: 5105
    dem: 30
    timezone: "Asia/Manila"
  - name: "Malaiba"
    latitude: 10.33333
    longitude: 123.31667
    population: 6888
    dem: 163
    timezone: "Asia/Manila"
  - name: "Madridejos"
    latitude: 9.79116
    longitude: 123.3462
    population: 6387
    dem: 1
    timezone: "Asia/Manila"
  - name: "Mabini"
    latitude: 9.8649
    longitude: 124.5215
    population: 5999
    dem: 14
    timezone: "Asia/Manila"
  - name: "Mabinay"
    latitude: 9.72722
    longitude: 122.90167
    population: 5506
    dem: 169
    timezone: "Asia/Manila"
  - name: "Lunas"
    latitude: 10.6402
    longitude: 123.7525
    population: 5789
    dem: 1
    timezone: "Asia/Manila"
  - name: "Loon"
    latitude: 9.7998
    longitude: 123.7929
    population: 9484
    dem: 24
    timezone: "Asia/Manila"
  - name: "Loboc"
    latitude: 9.63833
    longitude: 124.03482
    population: 16312
    elevation: 0
    dem: 47
    timezone: "Asia/Manila"
  - name: "Lipayran"
    latitude: 11.0593
    longitude: 123.6342
    population: 6813
    dem: 5
    timezone: "Asia/Manila"
  - name: "Liloan"
    latitude: 10.3991
    longitude: 123.9992
    population: 49198
    dem: 8
    timezone: "Asia/Manila"
  - name: "Lapu-Lapu City"
    latitude: 10.31028
    longitude: 123.94944
    population: 350467
    dem: 4
    timezone: "Asia/Manila"
  - name: "Langtad"
    latitude: 10.18568
    longitude: 123.7344
    population: 5531
    elevation: 0
    dem: 17
    timezone: "Asia/Manila"
  - name: "La Libertad"
    latitude: 10.0266
    longitude: 123.2335
    population: 5632
    dem: 9
    timezone: "Asia/Manila"
  - name: "Jagna"
    latitude: 9.6531
    longitude: 124.3697
    population: 32566
    dem: 5
    timezone: "Asia/Manila"
  - name: "Jaclupan"
    latitude: 10.30138
    longitude: 123.8165
    population: 9652
    dem: 55
    timezone: "Asia/Manila"
  - name: "Inayagan"
    latitude: 10.23478
    longitude: 123.769
    population: 6610
    elevation: 0
    dem: 18
    timezone: "Asia/Manila"
  - name: "Hibaiyo"
    latitude: 10.2726
    longitude: 123.321
    population: 5209
    dem: 8
    timezone: "Asia/Manila"
  - name: "Guihulngan"
    latitude: 10.1214
    longitude: 123.2742
    population: 22931
    dem: 6
    timezone: "Asia/Manila"
  - name: "Guadalupe"
    latitude: 10.1165
    longitude: 123.6072
    population: 11121
    dem: 224
    timezone: "Asia/Manila"
  - name: "Esperanza"
    latitude: 10.6995
    longitude: 124.3143
    population: 5257
    dem: 8
    timezone: "Asia/Manila"
  - name: "Dumaguete"
    latitude: 9.30722
    longitude: 123.30261
    population: 113541
    dem: 15
    timezone: "Asia/Manila"
  - name: "Danao"
    latitude: 10.52083
    longitude: 124.02722
    population: 70270
    dem: 7
    timezone: "Asia/Manila"
  - name: "Danao"
    latitude: 9.55421
    longitude: 123.75648
    population: 17716
    dem: 9
    timezone: "Asia/Manila"
  - name: "Dalaguete"
    latitude: 9.7612
    longitude: 123.5349
    population: 8135
    dem: 9
    timezone: "Asia/Manila"
  - name: "Daanbantayan"
    latitude: 11.24681
    longitude: 124.01462
    population: 13439
    dem: 7
    timezone: "Asia/Manila"
  - name: "Cordova"
    latitude: 10.24394
    longitude: 123.94222
    population: 29289
    dem: -9999
    timezone: "Asia/Manila"
  - name: "Consolacion"
    latitude: 10.3766
    longitude: 123.9573
    population: 48638
    dem: 11
    timezone: "Asia/Manila"
  - name: "Compostela"
    latitude: 10.455
    longitude: 124.0106
    population: 18727
    dem: 11
    timezone: "Asia/Manila"
  - name: "Cebu City"
    latitude: 10.31672
    longitude: 123.89071
    population: 798634
    dem: 37
    timezone: "Asia/Manila"
  - name: "Cayang"
    latitude: 11.06667
    longitude: 123.98333
    population: 6353
    dem: 11
    timezone: "Asia/Manila"
  - name: "Kauit"
    latitude: 11.186
    longitude: 123.9459
    population: 5771
    dem: 8
    timezone: "Asia/Manila"
  - name: "Catmon"
    latitude: 10.71667
    longitude: 124.0
    population: 7812
    dem: 85
    timezone: "Asia/Manila"
  - name: "Cogan"
    latitude: 10.59306
    longitude: 124.01778
    population: 21898
    dem: 13
    timezone: "Asia/Manila"
  - name: "Carmen"
    latitude: 9.8223
    longitude: 124.1964
    population: 8214
    dem: 221
    timezone: "Asia/Manila"
  - name: "Carcar"
    latitude: 10.1061
    longitude: 123.6402
    population: 40739
    dem: 21
    timezone: "Asia/Manila"
  - name: "Canlaon"
    latitude: 10.38697
    longitude: 123.2227
    population: 44851
    dem: 479
    timezone: "Asia/Manila"
  - name: "Can-asujan"
    latitude: 10.1299
    longitude: 123.6574
    population: 6994
    dem: 54
    timezone: "Asia/Manila"
  - name: "Buanoy"
    latitude: 10.46746
    longitude: 123.6999
    population: 10955
    dem: 12
    timezone: "Asia/Manila"
  - name: "Bonbon"
    latitude: 10.2245
    longitude: 123.5573
    population: 6122
    dem: 43
    timezone: "Asia/Manila"
  - name: "Bonawon"
    latitude: 9.134
    longitude: 122.9193
    population: 9189
    dem: 24
    timezone: "Asia/Manila"
  - name: "Bogo"
    latitude: 11.0517
    longitude: 124.0055
    population: 23562
    dem: 9
    timezone: "Asia/Manila"
  - name: "Bogo"
    latitude: 9.85686
    longitude: 123.56417
    population: 9019
    dem: 36
    timezone: "Asia/Manila"
  - name: "Bien Unido"
    latitude: 10.13729
    longitude: 124.37761
    population: 5304
    dem: 9
    timezone: "Asia/Manila"
  - name: "Bayawan"
    latitude: 9.3649
    longitude: 122.804
    population: 36063
    dem: 10
    timezone: "Asia/Manila"
  - name: "Barili"
    latitude: 10.115
    longitude: 123.5103
    population: 7588
    dem: 12
    timezone: "Asia/Manila"
  - name: "Bantayan"
    latitude: 11.1683
    longitude: 123.7223
    population: 18984
    dem: 8
    timezone: "Asia/Manila"
  - name: "Balamban"
    latitude: 10.5039
    longitude: 123.7156
    population: 22283
    dem: 3
    timezone: "Asia/Manila"
  - name: "Bais"
    latitude: 9.59111
    longitude: 123.12278
    population: 65594
    dem: 10
    timezone: "Asia/Manila"
  - name: "Bacong"
    latitude: 9.2464
    longitude: 123.2956
    population: 5091
    dem: 14
    timezone: "Asia/Manila"
  - name: "Asturias"
    latitude: 10.5669
    longitude: 123.7161
    population: 7779
    dem: 4
    timezone: "Asia/Manila"
  - name: "Argao"
    latitude: 9.87944
    longitude: 123.59556
    population: 6108
    dem: 10
    timezone: "Asia/Manila"
  - name: "Anonang"
    latitude: 11.0
    longitude: 124.03333
    population: 5660
    dem: 74
    timezone: "Asia/Manila"
  - name: "Apas"
    latitude: 10.34076
    longitude: 123.90261
    population: 22566
    dem: 74
    timezone: "Asia/Manila"
- name: "Calabarzon"
  cities:
  - name: "Victoria"
    latitude: 14.2277
    longitude: 121.3292
    population: 24456
    dem: 14
    timezone: "Asia/Manila"
  - name: "Tuy"
    latitude: 14.0183
    longitude: 120.7296
    population: 8603
    dem: 78
    timezone: "Asia/Manila"
  - name: "Tiaong"
    latitude: 13.96383
    longitude: 121.32121
    population: 5044
    dem: 47
    timezone: "Asia/Manila"
  - name: "Ternate"
    latitude: 14.2897
    longitude: 120.7168
    population: 20049
    dem: 9
    timezone: "Asia/Manila"
  - name: "Teresa"
    latitude: 14.5612
    longitude: 121.2195
    population: 34716
    dem: 46
    timezone: "Asia/Manila"
  - name: "Taytay"
    latitude: 14.55883
    longitude: 121.13285
    population: 231460
    dem: 9
    timezone: "Asia/Manila"
  - name: "Taysan"
    latitude: 13.8697
    longitude: 121.0971
    population: 5296
    dem: 222
    timezone: "Asia/Manila"
  - name: "Tayabas"
    latitude: 14.0259
    longitude: 121.5929
    population: 37330
    dem: 194
    timezone: "Asia/Manila"
  - name: "Tanay"
    latitude: 14.4968
    longitude: 121.2846
    population: 59950
    dem: 11
    timezone: "Asia/Manila"
  - name: "Tanauan"
    latitude: 14.08627
    longitude: 121.14975
    population: 68456
    dem: 155
    timezone: "Asia/Manila"
  - name: "Talisay"
    latitude: 14.0925
    longitude: 121.02194
    population: 24969
    dem: 17
    timezone: "Asia/Manila"
  - name: "Talisay"
    latitude: 13.18056
    longitude: 122.62361
    population: 5141
    dem: 35
    timezone: "Asia/Manila"
  - name: "Tagkawayan Sabang"
    latitude: 13.9909
    longitude: 122.5298
    population: 7684
    dem: 119
    timezone: "Asia/Manila"
  - name: "Tagaytay"
    latitude: 14.09532
    longitude: 120.93355
    population: 71181
    dem: 663
    timezone: "Asia/Manila"
  - name: "Taal"
    latitude: 13.87992
    longitude: 120.92311
    population: 39745
    dem: 42
    timezone: "Asia/Manila"
  - name: "Subic"
    latitude: 13.94859
    longitude: 120.94013
    population: 8881
    dem: 21
    timezone: "Asia/Manila"
  - name: "Silang"
    latitude: 14.21567
    longitude: 120.97137
    population: 119475
    dem: 332
    timezone: "Asia/Manila"
  - name: "Sariaya"
    latitude: 13.9624
    longitude: 121.5265
    population: 44977
    dem: 197
    timezone: "Asia/Manila"
  - name: "Santo Tomas"
    latitude: 14.1079
    longitude: 121.14136
    population: 57438
    dem: 145
    timezone: "Asia/Manila"
  - name: "Santa Rosa"
    latitude: 14.31222
    longitude: 121.11139
    population: 216650
    dem: 13
    timezone: "Asia/Manila"
  - name: "Santa Maria"
    latitude: 14.4719
    longitude: 121.4286
    population: 6603
    dem: 12
    timezone: "Asia/Manila"
  - name: "Santa Cruz"
    latitude: 14.2814
    longitude: 121.4161
    population: 108145
    dem: 9
    timezone: "Asia/Manila"
  - name: "Santa Catalina Sur"
    latitude: 13.87384
    longitude: 121.43104
    population: 6195
    dem: 22
    timezone: "Asia/Manila"
  - name: "Santa Catalina Norte"
    latitude: 13.87083
    longitude: 121.3575
    population: 5448
    dem: 30
    timezone: "Asia/Manila"
  - name: "San Pedro"
    latitude: 14.3595
    longitude: 121.0473
    population: 270216
    dem: 17
    timezone: "Asia/Manila"
  - name: "San Pascual"
    latitude: 13.81045
    longitude: 121.022
    population: 39395
    dem: 81
    timezone: "Asia/Manila"
  - name: "San Pablo"
    latitude: 14.0683
    longitude: 121.3256
    population: 207577
    dem: 115
    timezone: "Asia/Manila"
  - name: "San Narciso"
    latitude: 13.5677
    longitude: 122.5667
    population: 11118
    dem: 21
    timezone: "Asia/Manila"
  - name: "San Mateo"
    latitude: 14.6982
    longitude: 121.1236
    population: 134327
    dem: 21
    timezone: "Asia/Manila"
  - name: "Del Monte"
    latitude: 14.6418
    longitude: 121.0177
    population: 11035
    dem: 31
    timezone: "Asia/Manila"
  - name: "Aurora"
    latitude: 13.3476
    longitude: 122.5195
    population: 16178
    dem: 7
    timezone: "Asia/Manila"
  - name: "San Andres"
    latitude: 14.05
    longitude: 121.21667
    population: 5527
    dem: 238
    timezone: "Asia/Manila"
  - name: "San Andres"
    latitude: 13.3227
    longitude: 122.6779
    population: 5192
    dem: 7
    timezone: "Asia/Manila"
  - name: "Sampaloc"
    latitude: 14.5402
    longitude: 121.3602
    population: 20157
    dem: 390
    timezone: "Asia/Manila"
  - name: "Sampaloc"
    latitude: 14.1627
    longitude: 121.6396
    population: 6743
    dem: 68
    timezone: "Asia/Manila"
  - name: "Rosario"
    latitude: 13.8635
    longitude: 122.2731
    population: 5563
    dem: 15
    timezone: "Asia/Manila"
  - name: "Real"
    latitude: 14.66397
    longitude: 121.60412
    population: 9163
    dem: 6
    timezone: "Asia/Manila"
  - name: "Quisao"
    latitude: 14.4347
    longitude: 121.3344
    population: 10989
    dem: 10
    timezone: "Asia/Manila"
  - name: "Quilo-quilo"
    latitude: 13.8638
    longitude: 121.2209
    population: 7126
    dem: 158
    timezone: "Asia/Manila"
  - name: "Quezon"
    latitude: 14.0057
    longitude: 122.1838
    population: 6804
    dem: 8
    timezone: "Asia/Manila"
  - name: "Putol"
    latitude: 13.9922
    longitude: 120.7275
    population: 5387
    dem: 55
    timezone: "Asia/Manila"
  - name: "Pulong Santa Cruz"
    latitude: 14.27324
    longitude: 121.07643
    population: 101914
    dem: 52
    timezone: "Asia/Manila"
  - name: "Polillo"
    latitude: 14.71699
    longitude: 121.94889
    population: 5502
    dem: 35
    timezone: "Asia/Manila"
  - name: "Pitogo"
    latitude: 13.7838
    longitude: 122.0902
    population: 7817
    dem: 17
    timezone: "Asia/Manila"
  - name: "Pinugay"
    latitude: 14.5967
    longitude: 121.2623
    population: 5666
    dem: 199
    timezone: "Asia/Manila"
  - name: "Pililla"
    latitude: 14.4854
    longitude: 121.3062
    population: 30408
    dem: 8
    timezone: "Asia/Manila"
  - name: "Pila"
    latitude: 14.2325
    longitude: 121.3648
    population: 34383
    dem: 14
    timezone: "Asia/Manila"
  - name: "Patuto"
    latitude: 14.11667
    longitude: 120.96667
    population: 52883
    dem: 549
    timezone: "Asia/Manila"
  - name: "Patnanungan"
    latitude: 14.78333
    longitude: 122.18333
    population: 6901
    dem: 23
    timezone: "Asia/Manila"
  - name: "Pasong Kawayan Primero"
    latitude: 14.34317
    longitude: 120.88157
    population: 7031
    dem: 47
    timezone: "Asia/Manila"
  - name: "Paradahan"
    latitude: 14.32123
    longitude: 120.86059
    population: 8977
    dem: 66
    timezone: "Asia/Manila"
  - name: "Pantijan No 2"
    latitude: 14.23306
    longitude: 120.80056
    population: 5182
    dem: 104
    timezone: "Asia/Manila"
  - name: "Pantay Na Matanda"
    latitude: 14.1175
    longitude: 121.12111
    population: 5791
    dem: 135
    timezone: "Asia/Manila"
  - name: "Pansoy"
    latitude: 13.18177
    longitude: 122.59989
    population: 5728
    dem: 226
    timezone: "Asia/Manila"
  - name: "Pansol"
    latitude: 13.8866
    longitude: 121.2432
    population: 6380
    dem: 147
    timezone: "Asia/Manila"
  - name: "Pangil"
    latitude: 14.4033
    longitude: 121.46506
    population: 19726
    dem: 3
    timezone: "Asia/Manila"
  - name: "Palangue"
    latitude: 14.28417
    longitude: 120.81139
    population: 9567
    dem: 61
    timezone: "Asia/Manila"
  - name: "Pakil"
    latitude: 14.3835
    longitude: 121.4786
    population: 10693
    dem: 14
    timezone: "Asia/Manila"
  - name: "Pagsangahan"
    latitude: 13.21583
    longitude: 122.54306
    population: 13573
    dem: 27
    timezone: "Asia/Manila"
  - name: "Pagbilao"
    latitude: 13.96689
    longitude: 121.69835
    population: 40818
    dem: 7
    timezone: "Asia/Manila"
  - name: "Paete"
    latitude: 14.3647
    longitude: 121.4829
    population: 26855
    dem: 11
    timezone: "Asia/Manila"
  - name: "Noveleta"
    latitude: 14.42922
    longitude: 120.87989
    population: 37299
    dem: 9
    timezone: "Asia/Manila"
  - name: "Nasugbu"
    latitude: 14.06694
    longitude: 120.63181
    population: 62857
    dem: 11
    timezone: "Asia/Manila"
  - name: "Naic"
    latitude: 14.31812
    longitude: 120.76609
    population: 55195
    dem: 15
    timezone: "Asia/Manila"
  - name: "Nagcarlan"
    latitude: 14.1364
    longitude: 121.4165
    population: 24560
    dem: 201
    timezone: "Asia/Manila"
  - name: "Mulanay"
    latitude: 13.52222
    longitude: 122.40417
    population: 7643
    dem: 6
    timezone: "Asia/Manila"
  - name: "Morong"
    latitude: 14.51849
    longitude: 121.23778
    population: 49589
    dem: 8
    timezone: "Asia/Manila"
  - name: "Rodriguez"
    latitude: 14.76011
    longitude: 121.19993
    population: 134432
    dem: 215
    timezone: "Asia/Manila"
  - name: "Mendez-Nunez"
    latitude: 14.12861
    longitude: 120.90583
    population: 22081
    dem: 532
    timezone: "Asia/Manila"
  - name: "Maulawin"
    latitude: 14.26667
    longitude: 121.43333
    population: 6822
    dem: 9
    timezone: "Asia/Manila"
  - name: "Mauban"
    latitude: 14.191
    longitude: 121.7309
    population: 32739
    dem: 7
    timezone: "Asia/Manila"
  - name: "Masaya"
    latitude: 14.15189
    longitude: 121.2819
    population: 7587
    dem: 21
    timezone: "Asia/Manila"
  - name: "Masalukot Uno"
    latitude: 13.95533
    longitude: 121.41887
    population: 10667
    dem: 113
    timezone: "Asia/Manila"
  - name: "Maragondon"
    latitude: 14.2733
    longitude: 120.7377
    population: 22973
    dem: 21
    timezone: "Asia/Manila"
  - name: "Manggahan"
    latitude: 14.29196
    longitude: 120.90145
    population: 13825
    dem: 119
    timezone: "Asia/Manila"
  - name: "Mamatid"
    latitude: 14.2349
    longitude: 121.15902
    population: 40271
    dem: 14
    timezone: "Asia/Manila"
  - name: "Mamala"
    latitude: 14.01667
    longitude: 121.51667
    population: 7418
    dem: 616
    timezone: "Asia/Manila"
  - name: "Malvar"
    latitude: 14.04472
    longitude: 121.15861
    population: 29880
    dem: 210
    timezone: "Asia/Manila"
  - name: "Malinao Ilaya"
    latitude: 13.99611
    longitude: 121.83577
    population: 7528
    dem: 27
    timezone: "Asia/Manila"
  - name: "Malicboy"
    latitude: 13.98155
    longitude: 121.78888
    population: 6224
    dem: 12
    timezone: "Asia/Manila"
  - name: "Malaya"
    latitude: 14.3971
    longitude: 121.3385
    population: 11442
    dem: 18
    timezone: "Asia/Manila"
  - name: "Malanday"
    latitude: 14.7069
    longitude: 121.1306
    population: 21901
    dem: 23
    timezone: "Asia/Manila"
  - name: "Malabanban Norte"
    latitude: 13.94521
    longitude: 121.43065
    population: 19471
    dem: 102
    timezone: "Asia/Manila"
  - name: "Malabag"
    latitude: 14.1552
    longitude: 120.96547
    population: 7021
    dem: 493
    timezone: "Asia/Manila"
  - name: "Majayjay"
    latitude: 14.1463
    longitude: 121.4729
    population: 11412
    dem: 281
    timezone: "Asia/Manila"
  - name: "Maguyam"
    latitude: 14.26277
    longitude: 121.005
    population: 5437
    dem: 233
    timezone: "Asia/Manila"
  - name: "Macalelon"
    latitude: 13.74694
    longitude: 122.13861
    population: 6042
    dem: 12
    timezone: "Asia/Manila"
  - name: "Mabitac"
    latitude: 14.4259
    longitude: 121.429
    population: 12398
    dem: 6
    timezone: "Asia/Manila"
  - name: "Lusacan"
    latitude: 13.95523
    longitude: 121.34477
    population: 14870
    dem: 52
    timezone: "Asia/Manila"
  - name: "Lumbangan"
    latitude: 14.0524
    longitude: 120.6667
    population: 7071
    dem: 21
    timezone: "Asia/Manila"
  - name: "Lumbang"
    latitude: 14.2973
    longitude: 121.4598
    population: 30269
    dem: 9
    timezone: "Asia/Manila"
  - name: "Lucena"
    latitude: 13.93139
    longitude: 121.61722
    population: 228758
    dem: 9
    timezone: "Asia/Manila"
  - name: "Lucban"
    latitude: 14.11356
    longitude: 121.55574
    population: 30992
    dem: 431
    timezone: "Asia/Manila"
  - name: "Los Banos"
    latitude: 14.17025
    longitude: 121.24181
    population: 95750
    dem: 32
    timezone: "Asia/Manila"
  - name: "Lopez"
    latitude: 13.884
    longitude: 122.2604
    population: 25752
    dem: 9
    timezone: "Asia/Manila"
  - name: "Lipa City"
    latitude: 13.9411
    longitude: 121.1631
    population: 212287
    dem: 325
    timezone: "Asia/Manila"
  - name: "Lilio"
    latitude: 14.1313
    longitude: 121.4362
    population: 15246
    dem: 256
    timezone: "Asia/Manila"
  - name: "Lian"
    latitude: 14.03364
    longitude: 120.64928
    population: 7496
    dem: 11
    timezone: "Asia/Manila"
  - name: "Laurel"
    latitude: 14.05542
    longitude: 120.91932
    population: 9720
    dem: 81
    timezone: "Asia/Manila"
  - name: "Lalig"
    latitude: 13.98255
    longitude: 121.32647
    population: 14729
    dem: 51
    timezone: "Asia/Manila"
  - name: "Laiya"
    latitude: 13.68031
    longitude: 121.40081
    population: 7504
    dem: 31
    timezone: "Asia/Manila"
  - name: "Kawit"
    latitude: 14.44426
    longitude: 120.90164
    population: 73210
    dem: 6
    timezone: "Asia/Manila"
  - name: "Kalayaan"
    latitude: 14.35
    longitude: 121.56667
    population: 7306
    dem: 391
    timezone: "Asia/Manila"
  - name: "Janopol"
    latitude: 14.08586
    longitude: 121.09489
    population: 5297
    dem: 144
    timezone: "Asia/Manila"
  - name: "Janagdong"
    latitude: 13.9034
    longitude: 121.5134
    population: 5174
    dem: 51
    timezone: "Asia/Manila"
  - name: "Jalajala"
    latitude: 14.353
    longitude: 121.3225
    population: 16400
    dem: 9
    timezone: "Asia/Manila"
  - name: "Infanta"
    latitude: 14.74495
    longitude: 121.64953
    population: 5321
    dem: 9
    timezone: "Asia/Manila"
  - name: "Indang"
    latitude: 14.19528
    longitude: 120.87694
    population: 41159
    dem: 300
    timezone: "Asia/Manila"
  - name: "Imus"
    latitude: 14.42972
    longitude: 120.93667
    population: 216099
    dem: 10
    timezone: "Asia/Manila"
  - name: "Yuni"
    latitude: 13.4124
    longitude: 122.4846
    population: 5714
    dem: 7
    timezone: "Asia/Manila"
  - name: "Ibabang Tayuman"
    latitude: 13.4042
    longitude: 122.5165
    population: 5276
    dem: 19
    timezone: "Asia/Manila"
  - name: "Ibaan"
    latitude: 13.8176
    longitude: 121.133
    population: 9430
    dem: 122
    timezone: "Asia/Manila"
  - name: "Halayhay"
    latitude: 14.37389
    longitude: 120.81333
    population: 10630
    dem: 7
    timezone: "Asia/Manila"
  - name: "Gumaca"
    latitude: 13.921
    longitude: 122.1002
    population: 22496
    dem: 7
    timezone: "Asia/Manila"
  - name: "Guisguis"
    latitude: 13.8738
    longitude: 121.5189
    population: 5741
    dem: 20
    timezone: "Asia/Manila"
  - name: "General Trias"
    latitude: 14.38694
    longitude: 120.88167
    population: 96022
    dem: 22
    timezone: "Asia/Manila"
  - name: "General Luna"
    latitude: 13.6866
    longitude: 122.1709
    population: 9177
    dem: 6
    timezone: "Asia/Manila"
  - name: "General Emilio Aguinaldo"
    latitude: 14.18417
    longitude: 120.79583
    population: 12244
    dem: 213
    timezone: "Asia/Manila"
  - name: "Dolores"
    latitude: 14.02265
    longitude: 121.41008
    population: 7633
    dem: 291
    timezone: "Asia/Manila"
  - name: "Dinahican"
    latitude: 14.71667
    longitude: 121.71667
    population: 7062
    dem: 9
    timezone: "Asia/Manila"
  - name: "Dayap"
    latitude: 14.18014
    longitude: 121.33335
    population: 5092
    dem: 13
    timezone: "Asia/Manila"
  - name: "Dasmarinas"
    latitude: 14.32944
    longitude: 120.93667
    population: 441876
    dem: 82
    timezone: "Asia/Manila"
  - name: "Cuenca"
    latitude: 13.902
    longitude: 121.0521
    population: 21558
    dem: 300
    timezone: "Asia/Manila"
  - name: "Concepcion Ibaba"
    latitude: 13.92309
    longitude: 121.46099
    population: 25628
    dem: 83
    timezone: "Asia/Manila"
  - name: "Cawayan"
    latitude: 13.3672
    longitude: 122.5094
    population: 5549
    dem: 11
    timezone: "Asia/Manila"
  - name: "Cavite City"
    latitude: 14.48369
    longitude: 120.89878
    population: 115932
    dem: 7
    timezone: "Asia/Manila"
  - name: "Cavinti"
    latitude: 14.24482
    longitude: 121.50797
    population: 9758
    dem: 219
    timezone: "Asia/Manila"
  - name: "Catanauan"
    latitude: 13.5926
    longitude: 122.3215
    population: 26804
    dem: 7
    timezone: "Asia/Manila"
  - name: "Castanas"
    latitude: 13.8744
    longitude: 121.5533
    population: 9040
    dem: 4
    timezone: "Asia/Manila"
  - name: "Carmona"
    latitude: 14.3132
    longitude: 121.0576
    population: 55887
    dem: 28
    timezone: "Asia/Manila"
  - name: "Cardona"
    latitude: 14.48646
    longitude: 121.22752
    population: 30222
    dem: 14
    timezone: "Asia/Manila"
  - name: "Candelaria"
    latitude: 13.93111
    longitude: 121.42333
    population: 60881
    dem: 72
    timezone: "Asia/Manila"
  - name: "Camp Flora"
    latitude: 13.3508
    longitude: 122.6641
    population: 6146
    dem: 72
    timezone: "Asia/Manila"
  - name: "Cambuga"
    latitude: 13.61667
    longitude: 122.45
    population: 6432
    dem: 95
    timezone: "Asia/Manila"
  - name: "Calubcub Dos"
    latitude: 13.7393
    longitude: 121.42193
    population: 5019
    dem: 22
    timezone: "Asia/Manila"
  - name: "Calauan"
    latitude: 14.14989
    longitude: 121.3152
    population: 36580
    dem: 18
    timezone: "Asia/Manila"
  - name: "Calauag"
    latitude: 13.9575
    longitude: 122.288
    population: 20837
    dem: 8
    timezone: "Asia/Manila"
  - name: "Calatagan"
    latitude: 13.83224
    longitude: 120.63219
    population: 16110
    dem: 13
    timezone: "Asia/Manila"
  - name: "Calamba"
    latitude: 14.21167
    longitude: 121.16528
    population: 316612
    dem: 16
    timezone: "Asia/Manila"
  - name: "Calaca"
    latitude: 13.93244
    longitude: 120.81327
    population: 37443
    dem: 24
    timezone: "Asia/Manila"
  - name: "Cainta"
    latitude: 14.5786
    longitude: 121.1222
    population: 283172
    dem: 12
    timezone: "Asia/Manila"
  - name: "Cagsiay"
    latitude: 14.21667
    longitude: 121.75
    population: 10173
    dem: 26
    timezone: "Asia/Manila"
  - name: "Cabuyao"
    latitude: 14.2726
    longitude: 121.1262
    population: 308745
    dem: 15
    timezone: "Asia/Manila"
  - name: "Bulacnin"
    latitude: 13.9903
    longitude: 121.139
    population: 7985
    dem: 313
    timezone: "Asia/Manila"
  - name: "Bolo"
    latitude: 13.78991
    longitude: 120.98173
    population: 8310
    dem: 21
    timezone: "Asia/Manila"
  - name: "Bitin"
    latitude: 14.11647
    longitude: 121.22194
    population: 5758
    dem: 323
    timezone: "Asia/Manila"
  - name: "Binubusan"
    latitude: 13.96947
    longitude: 120.63572
    population: 6714
    dem: 13
    timezone: "Asia/Manila"
  - name: "Binangonan"
    latitude: 14.4646
    longitude: 121.1929
    population: 219204
    dem: 10
    timezone: "Asia/Manila"
  - name: "Binan"
    latitude: 14.34267
    longitude: 121.08071
    population: 300000
    dem: 10
    timezone: "Asia/Manila"
  - name: "Bilog-Bilog"
    latitude: 14.11361
    longitude: 121.08861
    population: 11342
    dem: 157
    timezone: "Asia/Manila"
  - name: "Bignay Uno"
    latitude: 13.86445
    longitude: 121.48792
    population: 22401
    dem: 18
    timezone: "Asia/Manila"
  - name: "Bay"
    latitude: 14.18368
    longitude: 121.28554
    population: 33547
    dem: 11
    timezone: "Asia/Manila"
  - name: "Bauan"
    latitude: 13.7917
    longitude: 121.0085
    population: 33560
    dem: 20
    timezone: "Asia/Manila"
  - name: "Batangas"
    latitude: 13.7567
    longitude: 121.0584
    population: 237370
    dem: 16
    timezone: "Asia/Manila"
  - name: "Baras"
    latitude: 14.51691
    longitude: 121.2658
    population: 20250
    dem: 4
    timezone: "Asia/Manila"
  - name: "Bantilan"
    latitude: 14.75814
    longitude: 121.66902
    population: 5406
    dem: 5
    timezone: "Asia/Manila"
  - name: "Banaybanay"
    latitude: 13.9331
    longitude: 121.1151
    population: 8304
    dem: 367
    timezone: "Asia/Manila"
  - name: "Banaybanay"
    latitude: 13.85
    longitude: 121.2
    population: 39452
    dem: 152
    timezone: "Asia/Manila"
  - name: "Balite Segundo"
    latitude: 14.1832
    longitude: 120.97433
    population: 7495
    dem: 396
    timezone: "Asia/Manila"
  - name: "Balete"
    latitude: 14.01983
    longitude: 121.09506
    population: 8662
    dem: 16
    timezone: "Asia/Manila"
  - name: "Balele"
    latitude: 14.06532
    longitude: 121.09363
    population: 6496
    dem: 139
    timezone: "Asia/Manila"
  - name: "Balayan"
    latitude: 13.93714
    longitude: 120.73224
    population: 50115
    dem: 8
    timezone: "Asia/Manila"
  - name: "Bacoor"
    latitude: 14.45903
    longitude: 120.92903
    population: 356974
    dem: 7
    timezone: "Asia/Manila"
  - name: "Atimonan"
    latitude: 14.0027
    longitude: 121.92078
    population: 29356
    dem: 8
    timezone: "Asia/Manila"
  - name: "Santa Rita Aplaya"
    latitude: 13.77173
    longitude: 121.03492
    population: 9737
    dem: 9
    timezone: "Asia/Manila"
  - name: "Antipolo"
    latitude: 14.62578
    longitude: 121.12251
    population: 549543
    dem: 23
    timezone: "Asia/Manila"
  - name: "Angono"
    latitude: 14.5266
    longitude: 121.1536
    population: 87199
    dem: 11
    timezone: "Asia/Manila"
  - name: "Ambulong"
    latitude: 14.08804
    longitude: 121.06127
    population: 9074
    dem: 14
    timezone: "Asia/Manila"
  - name: "Amadeo"
    latitude: 14.17056
    longitude: 120.92361
    population: 16618
    dem: 437
    timezone: "Asia/Manila"
  - name: "Alfonso"
    latitude: 14.14083
    longitude: 120.85389
    population: 9446
    dem: 413
    timezone: "Asia/Manila"
  - name: "Alaminos"
    latitude: 14.06391
    longitude: 121.24649
    population: 31427
    dem: 152
    timezone: "Asia/Manila"
  - name: "Alabat"
    latitude: 14.101
    longitude: 122.0125
    population: 7910
    dem: 4
    timezone: "Asia/Manila"
  - name: "Aga"
    latitude: 14.0965
    longitude: 120.80217
    population: 5218
    dem: 368
    timezone: "Asia/Manila"
  - name: "Bulihan"
    latitude: 14.2782
    longitude: 120.99503
    population: 13979
    dem: 204
    timezone: "Asia/Manila"
  - name: "Gulod"
    latitude: 14.3449
    longitude: 121.2177
    population: 5764
    dem: 14
    timezone: "Asia/Manila"
  - name: "Bagong Pagasa"
    latitude: 14.6627
    longitude: 121.0328
    population: 46365
    dem: 37
    timezone: "Asia/Manila"
- name: "Ilocos"
  cities:
  - name: "Zaragoza"
    latitude: 16.3871
    longitude: 119.9443
    population: 7391
    dem: 27
    timezone: "Asia/Manila"
  - name: "Vintar"
    latitude: 18.2284
    longitude: 120.6475
    population: 5263
    dem: 29
    timezone: "Asia/Manila"
  - name: "Villasis"
    latitude: 15.90167
    longitude: 120.58833
    population: 13122
    dem: 30
    timezone: "Asia/Manila"
  - name: "Vigan"
    latitude: 17.57472
    longitude: 120.38694
    population: 48545
    dem: 19
    timezone: "Asia/Manila"
  - name: "Urdaneta"
    latitude: 15.97611
    longitude: 120.57111
    population: 101037
    dem: 32
    timezone: "Asia/Manila"
  - name: "Urbiztondo"
    latitude: 15.8227
    longitude: 120.3295
    population: 12734
    dem: 19
    timezone: "Asia/Manila"
  - name: "Tayug"
    latitude: 16.0274
    longitude: 120.7434
    population: 11611
    dem: 62
    timezone: "Asia/Manila"
  - name: "Tamayo"
    latitude: 15.87746
    longitude: 120.28455
    population: 5767
    dem: 14
    timezone: "Asia/Manila"
  - name: "Tagudin"
    latitude: 16.9355
    longitude: 120.4442
    population: 35791
    dem: 10
    timezone: "Asia/Manila"
  - name: "Suyo"
    latitude: 16.9762
    longitude: 120.5254
    population: 10943
    dem: 89
    timezone: "Asia/Manila"
  - name: "Subusub"
    latitude: 16.22689
    longitude: 120.49513
    population: 6887
    dem: 153
    timezone: "Asia/Manila"
  - name: "Sual"
    latitude: 16.06682
    longitude: 120.09414
    population: 5290
    dem: 11
    timezone: "Asia/Manila"
  - name: "Sison"
    latitude: 16.17389
    longitude: 120.51528
    population: 9256
    dem: 93
    timezone: "Asia/Manila"
  - name: "Sarrat"
    latitude: 18.1574
    longitude: 120.647
    population: 5822
    dem: 22
    timezone: "Asia/Manila"
  - name: "Santa Maria"
    latitude: 16.9518
    longitude: 120.4445
    population: 28002
    dem: 9
    timezone: "Asia/Manila"
  - name: "Santa Barbara"
    latitude: 16.0009
    longitude: 120.4023
    population: 15445
    dem: 12
    timezone: "Asia/Manila"
  - name: "Lloren"
    latitude: 16.3331
    longitude: 120.4329
    population: 5800
    dem: 48
    timezone: "Asia/Manila"
  - name: "San Nicolas"
    latitude: 18.1725
    longitude: 120.5953
    population: 34237
    dem: 14
    timezone: "Asia/Manila"
  - name: "San Jacinto"
    latitude: 16.0726
    longitude: 120.4383
    population: 10529
    dem: 12
    timezone: "Asia/Manila"
  - name: "San Fernando"
    latitude: 16.61591
    longitude: 120.31663
    population: 83003
    dem: 9
    timezone: "Asia/Manila"
  - name: "Rosales"
    latitude: 15.89444
    longitude: 120.63278
    population: 13105
    dem: 37
    timezone: "Asia/Manila"
  - name: "Rimus"
    latitude: 16.8764
    longitude: 120.3966
    population: 6670
    dem: 8
    timezone: "Asia/Manila"
  - name: "Puelay"
    latitude: 15.88683
    longitude: 120.57358
    population: 6854
    dem: 28
    timezone: "Asia/Manila"
  - name: "Payocpoc Sur"
    latitude: 16.49444
    longitude: 120.32806
    population: 13107
    dem: 14
    timezone: "Asia/Manila"
  - name: "Pasuquin"
    latitude: 18.3328
    longitude: 120.6177
    population: 5768
    dem: 12
    timezone: "Asia/Manila"
  - name: "Paringao"
    latitude: 16.57167
    longitude: 120.32417
    population: 6570
    dem: 7
    timezone: "Asia/Manila"
  - name: "Nilombot"
    latitude: 16.0306
    longitude: 120.43685
    population: 7605
    dem: 11
    timezone: "Asia/Manila"
  - name: "Nibaliw Central"
    latitude: 16.1275
    longitude: 120.4027
    population: 13631
    dem: 5
    timezone: "Asia/Manila"
  - name: "Natividad"
    latitude: 16.0443
    longitude: 120.7987
    population: 5828
    dem: 94
    timezone: "Asia/Manila"
  - name: "Nagsaing"
    latitude: 15.98069
    longitude: 120.33787
    population: 7482
    dem: 10
    timezone: "Asia/Manila"
  - name: "Minien East"
    latitude: 15.97723
    longitude: 120.48127
    population: 6111
    dem: 19
    timezone: "Asia/Manila"
  - name: "Mapandan"
    latitude: 16.0248
    longitude: 120.4547
    population: 11165
    dem: 15
    timezone: "Asia/Manila"
  - name: "Mangatarem"
    latitude: 15.7874
    longitude: 120.2921
    population: 12392
    dem: 24
    timezone: "Asia/Manila"
  - name: "Mangaldan"
    latitude: 16.07
    longitude: 120.4025
    population: 88818
    dem: 8
    timezone: "Asia/Manila"
  - name: "Manaoag"
    latitude: 16.0438
    longitude: 120.4861
    population: 59115
    dem: 23
    timezone: "Asia/Manila"
  - name: "Magtaking"
    latitude: 15.9854
    longitude: 120.1832
    population: 5946
    dem: 9
    timezone: "Asia/Manila"
  - name: "Macalong"
    latitude: 16.0137
    longitude: 120.6586
    population: 5802
    dem: 48
    timezone: "Asia/Manila"
  - name: "Loqueb Este"
    latitude: 15.94481
    longitude: 120.44607
    population: 6141
    dem: 17
    timezone: "Asia/Manila"
  - name: "Lingayen"
    latitude: 16.02182
    longitude: 120.23194
    population: 56580
    dem: 9
    timezone: "Asia/Manila"
  - name: "Lepa"
    latitude: 15.88438
    longitude: 120.45089
    population: 8877
    dem: 21
    timezone: "Asia/Manila"
  - name: "Laoag"
    latitude: 18.1978
    longitude: 120.5957
    population: 102105
    dem: 15
    timezone: "Asia/Manila"
  - name: "Guiset East"
    latitude: 16.06667
    longitude: 120.68333
    population: 21994
    dem: 71
    timezone: "Asia/Manila"
  - name: "Dumpay"
    latitude: 15.88295
    longitude: 120.38899
    population: 5414
    dem: 16
    timezone: "Asia/Manila"
  - name: "Dorongan Punta"
    latitude: 15.81476
    longitude: 120.32266
    population: 5336
    dem: 16
    timezone: "Asia/Manila"
  - name: "Domampot"
    latitude: 16.0
    longitude: 120.65
    population: 5340
    dem: 40
    timezone: "Asia/Manila"
  - name: "Domalanoan"
    latitude: 16.00292
    longitude: 120.21154
    population: 15108
    dem: 4
    timezone: "Asia/Manila"
  - name: "Dingras"
    latitude: 18.1032
    longitude: 120.6967
    population: 6866
    dem: 29
    timezone: "Asia/Manila"
  - name: "Dagupan"
    latitude: 16.04313
    longitude: 120.33325
    population: 171271
    dem: 8
    timezone: "Asia/Manila"
  - name: "Catablan"
    latitude: 15.9757
    longitude: 120.4953
    population: 5091
    dem: 22
    timezone: "Asia/Manila"
  - name: "Carusucan"
    latitude: 15.96589
    longitude: 120.63598
    population: 7083
    dem: 41
    timezone: "Asia/Manila"
  - name: "Carmen"
    latitude: 15.88642
    longitude: 120.59984
    population: 10250
    dem: 32
    timezone: "Asia/Manila"
  - name: "Caramutan"
    latitude: 15.92074
    longitude: 120.61012
    population: 6524
    dem: 31
    timezone: "Asia/Manila"
  - name: "Candon"
    latitude: 17.19472
    longitude: 120.45167
    population: 11236
    dem: 10
    timezone: "Asia/Manila"
  - name: "Calasiao"
    latitude: 16.0111
    longitude: 120.36
    population: 24276
    dem: 9
    timezone: "Asia/Manila"
  - name: "Cabugao"
    latitude: 17.7931
    longitude: 120.4578
    population: 6874
    dem: 20
    timezone: "Asia/Manila"
  - name: "Bulog"
    latitude: 15.9602
    longitude: 120.4017
    population: 11103
    dem: 12
    timezone: "Asia/Manila"
  - name: "Bugallon"
    latitude: 15.9528
    longitude: 120.2155
    population: 12033
    dem: 11
    timezone: "Asia/Manila"
  - name: "Binmaley"
    latitude: 16.03232
    longitude: 120.26904
    population: 44026
    dem: 5
    timezone: "Asia/Manila"
  - name: "Binalonan"
    latitude: 16.0503
    longitude: 120.5926
    population: 8145
    dem: 43
    timezone: "Asia/Manila"
  - name: "Bayambang"
    latitude: 15.8127
    longitude: 120.4557
    population: 15859
    dem: 25
    timezone: "Asia/Manila"
  - name: "Bauang"
    latitude: 16.53083
    longitude: 120.33306
    population: 17109
    dem: 13
    timezone: "Asia/Manila"
  - name: "Batac City"
    latitude: 18.0554
    longitude: 120.56489
    population: 53542
    dem: 27
    timezone: "Asia/Manila"
  - name: "Bantay"
    latitude: 17.58472
    longitude: 120.38917
    population: 10091
    dem: 15
    timezone: "Asia/Manila"
  - name: "Bangar"
    latitude: 16.8936
    longitude: 120.4243
    population: 11068
    dem: 16
    timezone: "Asia/Manila"
  - name: "Bacarra"
    latitude: 18.2529
    longitude: 120.6125
    population: 9636
    dem: 19
    timezone: "Asia/Manila"
  - name: "Bacag"
    latitude: 15.93
    longitude: 120.58222
    population: 5509
    dem: 32
    timezone: "Asia/Manila"
  - name: "Asingan"
    latitude: 16.0051
    longitude: 120.6695
    population: 8887
    dem: 50
    timezone: "Asia/Manila"
  - name: "Aringay"
    latitude: 16.394
    longitude: 120.3545
    population: 29825
    dem: 16
    timezone: "Asia/Manila"
  - name: "Alcala"
    latitude: 15.84722
    longitude: 120.52417
    population: 8883
    dem: 27
    timezone: "Asia/Manila"
  - name: "Alaminos"
    latitude: 16.15611
    longitude: 119.98111
    population: 10488
    dem: 15
    timezone: "Asia/Manila"
  - name: "Aguilar"
    latitude: 15.8884
    longitude: 120.2378
    population: 9801
    dem: 12
    timezone: "Asia/Manila"
  - name: "Agoo"
    latitude: 16.08333
    longitude: 120.1
    population: 28972
    dem: 28
    timezone: "Asia/Manila"
- name: "Northern Mindanao"
  cities:
  - name: "Villanueva"
    latitude: 8.58889
    longitude: 124.77556
    population: 7415
    dem: 10
    timezone: "Asia/Manila"
  - name: "NIA Valencia"
    latitude: 7.90639
    longitude: 125.09417
    population: 83591
    dem: 310
    timezone: "Asia/Manila"
  - name: "Tubod"
    latitude: 8.0555
    longitude: 123.7904
    population: 10975
    dem: 11
    timezone: "Asia/Manila"
  - name: "Tangub"
    latitude: 8.0618
    longitude: 123.7477
    population: 29721
    dem: 11
    timezone: "Asia/Manila"
  - name: "Talakag"
    latitude: 8.23361
    longitude: 124.60028
    population: 7860
    dem: 403
    timezone: "Asia/Manila"
  - name: "Tagoloan"
    latitude: 8.53954
    longitude: 124.75411
    population: 30390
    dem: 15
    timezone: "Asia/Manila"
  - name: "Sumpong"
    latitude: 8.16333
    longitude: 125.11833
    population: 7399
    dem: 655
    timezone: "Asia/Manila"
  - name: "Sumilao"
    latitude: 8.28722
    longitude: 124.94556
    population: 5339
    dem: 728
    timezone: "Asia/Manila"
  - name: "Santa Ana"
    latitude: 8.51667
    longitude: 124.78333
    population: 5770
    dem: 57
    timezone: "Asia/Manila"
  - name: "San Miguel"
    latitude: 8.03
    longitude: 124.75389
    population: 5054
    dem: 1314
    timezone: "Asia/Manila"
  - name: "San Luis"
    latitude: 8.48333
    longitude: 125.0
    population: 6357
    dem: 914
    timezone: "Asia/Manila"
  - name: "San Jose"
    latitude: 7.73667
    longitude: 125.07028
    population: 6345
    dem: 271
    timezone: "Asia/Manila"
  - name: "Salay"
    latitude: 8.85917
    longitude: 124.78917
    population: 6428
    dem: 9
    timezone: "Asia/Manila"
  - name: "Salawagan"
    latitude: 7.70528
    longitude: 125.115
    population: 6508
    dem: 285
    timezone: "Asia/Manila"
  - name: "Quezon"
    latitude: 7.73028
    longitude: 125.09889
    population: 27212
    dem: 273
    timezone: "Asia/Manila"
  - name: "Ozamiz City"
    latitude: 8.1481
    longitude: 123.8405
    population: 93082
    dem: 10
    timezone: "Asia/Manila"
  - name: "Oroquieta"
    latitude: 8.4859
    longitude: 123.8048
    population: 39279
    dem: 6
    timezone: "Asia/Manila"
  - name: "Moog"
    latitude: 8.60111
    longitude: 124.46583
    population: 5197
    dem: 70
    timezone: "Asia/Manila"
  - name: "Molugan"
    latitude: 8.5375
    longitude: 124.56222
    population: 8043
    dem: 5
    timezone: "Asia/Manila"
  - name: "Medina"
    latitude: 8.91222
    longitude: 125.02444
    population: 9201
    dem: 8
    timezone: "Asia/Manila"
  - name: "Mariano"
    latitude: 8.83333
    longitude: 125.11667
    population: 70516
    dem: 3
    timezone: "Asia/Manila"
  - name: "Maria Cristina"
    latitude: 8.16604
    longitude: 124.20396
    population: 5540
    dem: 256
    timezone: "Asia/Manila"
  - name: "Maramag"
    latitude: 7.76333
    longitude: 125.00528
    population: 33844
    dem: 276
    timezone: "Asia/Manila"
  - name: "Manticao"
    latitude: 8.40417
    longitude: 124.28667
    population: 7956
    dem: 9
    timezone: "Asia/Manila"
  - name: "Mantampay"
    latitude: 8.16667
    longitude: 124.21667
    population: 265032
    dem: 172
    timezone: "Asia/Manila"
  - name: "Manolo Fortich"
    latitude: 8.36972
    longitude: 124.86444
    population: 27064
    dem: 515
    timezone: "Asia/Manila"
  - name: "Managok"
    latitude: 8.02889
    longitude: 125.18861
    population: 6477
    dem: 346
    timezone: "Asia/Manila"
  - name: "Mambajao"
    latitude: 9.2504
    longitude: 124.7156
    population: 10058
    dem: 9
    timezone: "Asia/Manila"
  - name: "Malaybalay"
    latitude: 8.1575
    longitude: 125.12778
    population: 61524
    dem: 629
    timezone: "Asia/Manila"
  - name: "Mailag"
    latitude: 7.97028
    longitude: 125.1375
    population: 5388
    dem: 321
    timezone: "Asia/Manila"
  - name: "Maigo"
    latitude: 8.1613
    longitude: 123.9583
    population: 7235
    dem: 7
    timezone: "Asia/Manila"
  - name: "Lurugan"
    latitude: 8.01667
    longitude: 124.96667
    population: 7336
    dem: 862
    timezone: "Asia/Manila"
  - name: "Lunao"
    latitude: 8.85028
    longitude: 125.05639
    population: 8995
    dem: 10
    timezone: "Asia/Manila"
  - name: "Lumbia"
    latitude: 8.39583
    longitude: 124.59389
    population: 7863
    dem: 154
    timezone: "Asia/Manila"
  - name: "Lugait"
    latitude: 8.34111
    longitude: 124.25917
    population: 7370
    dem: 7
    timezone: "Asia/Manila"
  - name: "Linamon"
    latitude: 8.18603
    longitude: 124.16276
    population: 6848
    dem: 7
    timezone: "Asia/Manila"
  - name: "Linabo"
    latitude: 8.05417
    longitude: 125.155
    population: 5849
    dem: 359
    timezone: "Asia/Manila"
  - name: "Libona"
    latitude: 8.33889
    longitude: 124.73528
    population: 5713
    dem: 576
    timezone: "Asia/Manila"
  - name: "Lantapan"
    latitude: 7.99778
    longitude: 125.02778
    population: 5021
    dem: 595
    timezone: "Asia/Manila"
  - name: "Langcangan"
    latitude: 8.47944
    longitude: 123.75583
    population: 8707
    dem: 130
    timezone: "Asia/Manila"
  - name: "Lagonglong"
    latitude: 8.80722
    longitude: 124.79028
    population: 9043
    dem: 13
    timezone: "Asia/Manila"
  - name: "Kisolon"
    latitude: 8.33
    longitude: 124.97694
    population: 8105
    dem: 536
    timezone: "Asia/Manila"
  - name: "Kibawe"
    latitude: 7.56861
    longitude: 124.98778
    population: 5081
    dem: 365
    timezone: "Asia/Manila"
  - name: "Kibangay"
    latitude: 8.04972
    longitude: 124.89306
    population: 6539
    dem: 1195
    timezone: "Asia/Manila"
  - name: "Kauswagan"
    latitude: 8.19167
    longitude: 124.08472
    population: 6851
    dem: 8
    timezone: "Asia/Manila"
  - name: "Caromatan"
    latitude: 7.7959
    longitude: 123.7145
    population: 5330
    dem: 6
    timezone: "Asia/Manila"
  - name: "Kapatagan"
    latitude: 7.9003
    longitude: 123.7692
    population: 9664
    dem: 18
    timezone: "Asia/Manila"
  - name: "Kalilangan"
    latitude: 7.74514
    longitude: 124.74777
    population: 14456
    dem: 874
    timezone: "Asia/Manila"
  - name: "Kadingilan"
    latitude: 7.60111
    longitude: 124.90861
    population: 7020
    dem: 338
    timezone: "Asia/Manila"
  - name: "Jimenez"
    latitude: 8.3365
    longitude: 123.8383
    population: 6662
    dem: 26
    timezone: "Asia/Manila"
  - name: "Jasaan"
    latitude: 8.65417
    longitude: 124.75556
    population: 16435
    dem: 31
    timezone: "Asia/Manila"
  - name: "Initao"
    latitude: 8.49972
    longitude: 124.30389
    population: 9922
    dem: 0
    timezone: "Asia/Manila"
  - name: "Imelda"
    latitude: 7.64703
    longitude: 122.95349
    population: 5640
    dem: 85
    timezone: "Asia/Manila"
  - name: "Iligan"
    latitude: 8.2289
    longitude: 124.24344
    population: 342618
    dem: 5
    timezone: "Asia/Manila"
  - name: "Igpit"
    latitude: 8.51083
    longitude: 124.58667
    population: 5753
    dem: 4
    timezone: "Asia/Manila"
  - name: "Halapitan"
    latitude: 7.9175
    longitude: 125.33
    population: 10870
    dem: 385
    timezone: "Asia/Manila"
  - name: "El Salvador"
    latitude: 8.56306
    longitude: 124.5225
    population: 6904
    dem: 5
    timezone: "Asia/Manila"
  - name: "Don Carlos"
    latitude: 7.68
    longitude: 125.005
    population: 20468
    dem: 307
    timezone: "Asia/Manila"
  - name: "Dologon"
    latitude: 7.84083
    longitude: 125.04444
    population: 15128
    dem: 312
    timezone: "Asia/Manila"
  - name: "Damulog"
    latitude: 7.48361
    longitude: 124.94306
    population: 8789
    dem: 281
    timezone: "Asia/Manila"
  - name: "Damilag"
    latitude: 8.35472
    longitude: 124.81222
    population: 11000
    dem: 577
    timezone: "Asia/Manila"
  - name: "Dalipuga"
    latitude: 8.31583
    longitude: 124.25472
    population: 14242
    dem: 41
    timezone: "Asia/Manila"
  - name: "Dagumba-an"
    latitude: 8.15306
    longitude: 124.59083
    population: 6635
    dem: 541
    timezone: "Asia/Manila"
  - name: "Claveria"
    latitude: 8.61
    longitude: 124.89472
    population: 7784
    dem: 655
    timezone: "Asia/Manila"
  - name: "Clarin"
    latitude: 8.2023
    longitude: 123.8582
    population: 7125
    dem: 11
    timezone: "Asia/Manila"
  - name: "Casisang"
    latitude: 8.13806
    longitude: 125.125
    population: 13722
    dem: 592
    timezone: "Asia/Manila"
  - name: "Calamba"
    latitude: 8.5587
    longitude: 123.6425
    population: 6738
    dem: 115
    timezone: "Asia/Manila"
  - name: "Calabugao"
    latitude: 8.45639
    longitude: 125.15889
    population: 5982
    dem: 833
    timezone: "Asia/Manila"
  - name: "Cagayan de Oro"
    latitude: 8.48222
    longitude: 124.64722
    population: 445103
    dem: 8
    timezone: "Asia/Manila"
  - name: "Cabanglasan"
    latitude: 8.12139
    longitude: 125.3275
    population: 5423
    dem: 479
    timezone: "Asia/Manila"
  - name: "Boroon"
    latitude: 8.18278
    longitude: 124.17701
    population: 15490
    dem: 82
    timezone: "Asia/Manila"
  - name: "Bugo"
    latitude: 8.50833
    longitude: 124.75944
    population: 45787
    dem: 9
    timezone: "Asia/Manila"
  - name: "Binuangan"
    latitude: 8.91528
    longitude: 124.78833
    population: 5754
    dem: 80
    timezone: "Asia/Manila"
  - name: "Barra"
    latitude: 8.51028
    longitude: 124.60444
    population: 12442
    dem: 1
    timezone: "Asia/Manila"
  - name: "Mamungan"
    latitude: 8.11722
    longitude: 124.21861
    population: 7700
    dem: 373
    timezone: "Asia/Manila"
  - name: "Balingasag"
    latitude: 8.74417
    longitude: 124.77694
    population: 9722
    dem: 3
    timezone: "Asia/Manila"
  - name: "Bacolod"
    latitude: 8.11667
    longitude: 123.91667
    population: 5294
    dem: 36
    timezone: "Asia/Manila"
  - name: "Alae"
    latitude: 8.42444
    longitude: 124.81278
    population: 5121
    dem: 420
    timezone: "Asia/Manila"
  - name: "Agusan"
    latitude: 8.49056
    longitude: 124.73722
    population: 14756
    dem: 0
    timezone: "Asia/Manila"
  - name: "Aglayan"
    latitude: 8.055
    longitude: 125.13417
    population: 5761
    dem: 403
    timezone: "Asia/Manila"
  - name: "Maranding"
    latitude: 7.9248
    longitude: 123.7715
    population: 13694
    dem: 17
    timezone: "Asia/Manila"
- name: "Western Visayas"
  cities:
  - name: "Vito"
    latitude: 10.9031
    longitude: 123.5154
    population: 6141
    dem: 10
    timezone: "Asia/Manila"
  - name: "Victorias"
    latitude: 10.90154
    longitude: 123.0705
    population: 86510
    dem: 12
    timezone: "Asia/Manila"
  - name: "Ungca"
    latitude: 10.75
    longitude: 122.55
    population: 5599
    dem: 10
    timezone: "Asia/Manila"
  - name: "Ualog"
    latitude: 10.57396
    longitude: 123.3933
    population: 60548
    dem: 114
    timezone: "Asia/Manila"
  - name: "Tuyum"
    latitude: 9.9769
    longitude: 122.5582
    population: 11117
    dem: 11
    timezone: "Asia/Manila"
  - name: "Tumcon Ilawod"
    latitude: 10.91667
    longitude: 122.66667
    population: 5067
    dem: 13
    timezone: "Asia/Manila"
  - name: "Trapiche"
    latitude: 10.68417
    longitude: 122.43222
    population: 11539
    dem: 3
    timezone: "Asia/Manila"
  - name: "Tortosa"
    latitude: 10.93294
    longitude: 123.09
    population: 7048
    dem: 9
    timezone: "Asia/Manila"
  - name: "Toboso"
    latitude: 10.71435
    longitude: 123.5162
    population: 13006
    dem: 9
    timezone: "Asia/Manila"
  - name: "Tinongan"
    latitude: 10.215
    longitude: 123.03528
    population: 62146
    dem: 29
    timezone: "Asia/Manila"
  - name: "Tiglauigan"
    latitude: 10.9527
    longitude: 123.3575
    population: 6848
    dem: 8
    timezone: "Asia/Manila"
  - name: "Tigbauan"
    latitude: 10.67466
    longitude: 122.3776
    population: 12659
    dem: 8
    timezone: "Asia/Manila"
  - name: "Taloc"
    latitude: 10.5746
    longitude: 122.8954
    population: 20409
    dem: 8
    timezone: "Asia/Manila"
  - name: "Talisay"
    latitude: 10.7375
    longitude: 122.9666
    population: 65265
    dem: 9
    timezone: "Asia/Manila"
  - name: "Talaban"
    latitude: 10.1254
    longitude: 122.8671
    population: 6003
    dem: 11
    timezone: "Asia/Manila"
  - name: "Tabuc Pontevedra"
    latitude: 11.48333
    longitude: 122.81667
    population: 5276
    dem: 4
    timezone: "Asia/Manila"
  - name: "Tabu"
    latitude: 9.8923
    longitude: 122.7098
    population: 6143
    dem: 311
    timezone: "Asia/Manila"
  - name: "Sumag"
    latitude: 10.60139
    longitude: 122.91924
    population: 18752
    dem: 6
    timezone: "Asia/Manila"
  - name: "Suay"
    latitude: 10.0533
    longitude: 122.8423
    population: 19672
    dem: 11
    timezone: "Asia/Manila"
  - name: "Sipalay"
    latitude: 9.75194
    longitude: 122.40417
    population: 24029
    dem: 10
    timezone: "Asia/Manila"
  - name: "Sibalom"
    latitude: 10.79
    longitude: 122.0178
    population: 7295
    dem: 25
    timezone: "Asia/Manila"
  - name: "Semirara"
    latitude: 12.06967
    longitude: 121.39861
    population: 5470
    dem: 17
    timezone: "Asia/Manila"
  - name: "Santol"
    latitude: 10.1725
    longitude: 122.9947
    population: 6435
    dem: 50
    timezone: "Asia/Manila"
  - name: "Santa Barbara"
    latitude: 10.82306
    longitude: 122.53444
    population: 8629
    dem: 37
    timezone: "Asia/Manila"
  - name: "San Pedro"
    latitude: 10.8018
    longitude: 121.9499
    population: 5026
    dem: 12
    timezone: "Asia/Manila"
  - name: "San Pablo"
    latitude: 10.91234
    longitude: 123.1418
    population: 8046
    dem: 58
    timezone: "Asia/Manila"
  - name: "San Miguel"
    latitude: 10.78
    longitude: 122.46556
    population: 8438
    dem: 40
    timezone: "Asia/Manila"
  - name: "San Enrique"
    latitude: 10.4161
    longitude: 122.8504
    population: 9818
    dem: 8
    timezone: "Asia/Manila"
  - name: "Salvacion"
    latitude: 10.68333
    longitude: 122.61667
    population: 5565
    dem: 19
    timezone: "Asia/Manila"
  - name: "Sagay"
    latitude: 10.94472
    longitude: 123.42417
    population: 72153
    dem: 6
    timezone: "Asia/Manila"
  - name: "Sagang"
    latitude: 10.3612
    longitude: 123.0722
    population: 8136
    elevation: 0
    dem: 277
    timezone: "Asia/Manila"
  - name: "Roxas City"
    latitude: 11.58528
    longitude: 122.75111
    population: 102688
    dem: 6
    timezone: "Asia/Manila"
  - name: "Quezon"
    latitude: 10.43617
    longitude: 123.2604
    population: 11681
    dem: 529
    timezone: "Asia/Manila"
  - name: "Punao"
    latitude: 10.56516
    longitude: 123.408
    population: 5997
    dem: 126
    timezone: "Asia/Manila"
  - name: "Pulupandan"
    latitude: 10.5203
    longitude: 122.8017
    population: 27363
    dem: 6
    timezone: "Asia/Manila"
  - name: "President Roxas"
    latitude: 11.431
    longitude: 122.9279
    population: 7240
    dem: 8
    timezone: "Asia/Manila"
  - name: "Pototan"
    latitude: 10.9437
    longitude: 122.6352
    population: 10195
    dem: 28
    timezone: "Asia/Manila"
  - name: "Pontevedra"
    latitude: 10.3746
    longitude: 122.8682
    population: 7865
    dem: 10
    timezone: "Asia/Manila"
  - name: "Plaridel"
    latitude: 10.8974
    longitude: 123.4894
    population: 5110
    dem: 10
    timezone: "Asia/Manila"
  - name: "Pilar"
    latitude: 11.487
    longitude: 122.9963
    population: 9957
    dem: 7
    timezone: "Asia/Manila"
  - name: "Payao"
    latitude: 10.1785
    longitude: 122.9236
    population: 9137
    dem: 22
    timezone: "Asia/Manila"
  - name: "Pavia"
    latitude: 10.77611
    longitude: 122.54556
    population: 5928
    dem: 17
    timezone: "Asia/Manila"
  - name: "Patnongon"
    latitude: 10.9132
    longitude: 121.9937
    population: 5810
    dem: 17
    timezone: "Asia/Manila"
  - name: "Passi"
    latitude: 11.10778
    longitude: 122.64194
    population: 42794
    dem: 42
    timezone: "Asia/Manila"
  - name: "Paraiso"
    latitude: 10.8849
    longitude: 123.3627
    population: 30494
    dem: 45
    timezone: "Asia/Manila"
  - name: "Panitan"
    latitude: 11.466
    longitude: 122.7725
    population: 5156
    dem: 14
    timezone: "Asia/Manila"
  - name: "Palampas"
    latitude: 10.52506
    longitude: 123.4208
    population: 9037
    dem: 52
    timezone: "Asia/Manila"
  - name: "Pacol"
    latitude: 10.45
    longitude: 122.81667
    population: 19839
    dem: -9999
    timezone: "Asia/Manila"
  - name: "Oton"
    latitude: 10.69306
    longitude: 122.47361
    population: 14395
    dem: 4
    timezone: "Asia/Manila"
  - name: "Orong"
    latitude: 9.9373
    longitude: 122.829
    population: 6772
    dem: 20
    timezone: "Asia/Manila"
  - name: "New Washington"
    latitude: 11.6508
    longitude: 122.4322
    population: 5731
    dem: 9
    timezone: "Asia/Manila"
  - name: "Napoles"
    latitude: 10.504
    longitude: 122.8979
    population: 5440
    dem: 23
    timezone: "Asia/Manila"
  - name: "Nabulao"
    latitude: 9.6616
    longitude: 122.4577
    population: 7059
    dem: 12
    timezone: "Asia/Manila"
  - name: "Murcia"
    latitude: 10.60516
    longitude: 123.0417
    population: 17448
    dem: 152
    timezone: "Asia/Manila"
  - name: "Miranda"
    latitude: 10.3047
    longitude: 122.8778
    population: 8040
    dem: 9
    timezone: "Asia/Manila"
  - name: "Minuyan"
    latitude: 10.51366
    longitude: 123.1049
    population: 7771
    dem: 346
    timezone: "Asia/Manila"
  - name: "Minapasoc"
    latitude: 10.69885
    longitude: 123.349
    population: 6885
    elevation: 0
    dem: 258
    timezone: "Asia/Manila"
  - name: "Miagao"
    latitude: 10.6442
    longitude: 122.2352
    population: 8881
    dem: 22
    timezone: "Asia/Manila"
  - name: "Mansilingan"
    latitude: 10.63111
    longitude: 122.97889
    population: 454150
    dem: 45
    timezone: "Asia/Manila"
  - name: "Manoc-Manoc"
    latitude: 11.94157
    longitude: 121.94281
    population: 5991
    elevation: 0
    dem: 9
    timezone: "Asia/Manila"
  - name: "Manlucahoc"
    latitude: 9.7399
    longitude: 122.498
    population: 5004
    dem: 22
    timezone: "Asia/Manila"
  - name: "Manapla"
    latitude: 10.95803
    longitude: 123.123
    population: 34312
    dem: 10
    timezone: "Asia/Manila"
  - name: "Mambusao"
    latitude: 11.43355
    longitude: 122.5982
    population: 5871
    dem: 21
    timezone: "Asia/Manila"
  - name: "Mabini"
    latitude: 10.79594
    longitude: 123.4846
    population: 7270
    dem: 27
    timezone: "Asia/Manila"
  - name: "Maao"
    latitude: 10.4896
    longitude: 122.9907
    population: 25837
    dem: 59
    timezone: "Asia/Manila"
  - name: "Luna"
    latitude: 10.969
    longitude: 123.2419
    population: 11312
    dem: 15
    timezone: "Asia/Manila"
  - name: "Lopez Jaena"
    latitude: 10.8478
    longitude: 123.4141
    population: 5573
    dem: 66
    timezone: "Asia/Manila"
  - name: "Leon"
    latitude: 10.78085
    longitude: 122.3894
    population: 5172
    dem: 68
    timezone: "Asia/Manila"
  - name: "Lanot"
    latitude: 11.51917
    longitude: 122.75722
    population: 6928
    dem: 10
    timezone: "Asia/Manila"
  - name: "Lambunao"
    latitude: 11.05563
    longitude: 122.4759
    population: 5500
    dem: 177
    timezone: "Asia/Manila"
  - name: "La Granja"
    latitude: 10.4082
    longitude: 122.9898
    population: 5277
    dem: 117
    timezone: "Asia/Manila"
  - name: "La Castellana"
    latitude: 10.3239
    longitude: 123.0215
    population: 24407
    dem: 67
    timezone: "Asia/Manila"
  - name: "La Carlota"
    latitude: 10.4242
    longitude: 122.9212
    population: 41157
    dem: 27
    timezone: "Asia/Manila"
  - name: "Kalibo"
    latitude: 11.70611
    longitude: 122.36444
    population: 56845
    elevation: 3
    dem: 12
    timezone: "Asia/Manila"
  - name: "Kabankalan"
    latitude: 9.9839
    longitude: 122.81423
    population: 136483
    dem: 11
    timezone: "Asia/Manila"
  - name: "Jordan"
    latitude: 10.65836
    longitude: 122.5963
    population: 8255
    dem: 54
    timezone: "Asia/Manila"
  - name: "Janiuay"
    latitude: 10.9493
    longitude: 122.5061
    population: 12896
    dem: 66
    timezone: "Asia/Manila"
  - name: "Ivisan"
    latitude: 11.52167
    longitude: 122.69083
    population: 5036
    dem: 9
    timezone: "Asia/Manila"
  - name: "Isabela"
    latitude: 10.2048
    longitude: 122.9888
    population: 15897
    dem: 30
    timezone: "Asia/Manila"
  - name: "Inayauan"
    latitude: 9.9005
    longitude: 122.434
    population: 9963
    dem: 9
    timezone: "Asia/Manila"
  - name: "Iloilo"
    latitude: 10.69694
    longitude: 122.56444
    population: 387681
    dem: 8
    timezone: "Asia/Manila"
  - name: "Ilog"
    latitude: 10.0266
    longitude: 122.7684
    population: 6741
    dem: 12
    timezone: "Asia/Manila"
  - name: "Hinigaran"
    latitude: 10.2706
    longitude: 122.8507
    population: 39636
    dem: 10
    timezone: "Asia/Manila"
  - name: "Himamaylan"
    latitude: 10.09889
    longitude: 122.87056
    population: 25089
    dem: 7
    timezone: "Asia/Manila"
  - name: "Guinticgan"
    latitude: 11.5641
    longitude: 123.1236
    population: 7452
    dem: 5
    timezone: "Asia/Manila"
  - name: "Guimbal"
    latitude: 10.6633
    longitude: 122.3228
    population: 7232
    dem: 14
    timezone: "Asia/Manila"
  - name: "Guiljungan"
    latitude: 9.9805
    longitude: 122.6742
    population: 14876
    dem: 13
    timezone: "Asia/Manila"
  - name: "Guadalupe"
    latitude: 10.45447
    longitude: 123.3732
    population: 11053
    dem: 6
    timezone: "Asia/Manila"
  - name: "Gibong"
    latitude: 11.86338
    longitude: 122.03941
    population: 6919
    elevation: 0
    dem: 11
    timezone: "Asia/Manila"
  - name: "Eustaquio Lopez"
    latitude: 10.8195
    longitude: 123.0412
    population: 14408
    dem: 28
    timezone: "Asia/Manila"
  - name: "Estancia"
    latitude: 11.4551
    longitude: 123.152
    population: 11050
    dem: 9
    timezone: "Asia/Manila"
  - name: "Escalante"
    latitude: 10.84028
    longitude: 123.49917
    population: 39177
    dem: 26
    timezone: "Asia/Manila"
  - name: "Saravia"
    latitude: 10.87754
    longitude: 122.9677
    population: 19060
    dem: 4
    timezone: "Asia/Manila"
  - name: "Dumangas"
    latitude: 10.825
    longitude: 122.713
    population: 8959
    dem: 7
    timezone: "Asia/Manila"
  - name: "Dulao"
    latitude: 10.54176
    longitude: 122.9383
    population: 7403
    dem: 27
    timezone: "Asia/Manila"
  - name: "Dulangan"
    latitude: 11.4561
    longitude: 122.9557
    population: 5339
    dem: 14
    timezone: "Asia/Manila"
  - name: "Dos Hermanas"
    latitude: 10.7421
    longitude: 123.0377
    population: 9270
    dem: 53
    timezone: "Asia/Manila"
  - name: "Dingle"
    latitude: 10.9995
    longitude: 122.6711
    population: 6172
    dem: 30
    timezone: "Asia/Manila"
  - name: "Dao"
    latitude: 11.3937
    longitude: 122.6856
    population: 10743
    dem: 19
    timezone: "Asia/Manila"
  - name: "Dancalan"
    latitude: 9.9821
    longitude: 122.7386
    population: 9863
    dem: 10
    timezone: "Asia/Manila"
  - name: "Concepcion"
    latitude: 11.2161
    longitude: 123.1073
    population: 6769
    dem: 8
    timezone: "Asia/Manila"
  - name: "Concepcion"
    latitude: 10.692
    longitude: 123.0608
    population: 8903
    dem: 166
    timezone: "Asia/Manila"
  - name: "Codcod"
    latitude: 10.46337
    longitude: 123.2495
    population: 13026
    dem: 587
    timezone: "Asia/Manila"
  - name: "Cawayan"
    latitude: 9.9718
    longitude: 122.6249
    population: 8855
    dem: 13
    timezone: "Asia/Manila"
  - name: "Carabalan"
    latitude: 10.0964
    longitude: 122.946
    population: 7557
    dem: 123
    timezone: "Asia/Manila"
  - name: "Canturay"
    latitude: 9.7937
    longitude: 122.4543
    population: 5135
    dem: 22
    timezone: "Asia/Manila"
  - name: "Candoni"
    latitude: 9.817
    longitude: 122.6043
    population: 6191
    dem: 181
    timezone: "Asia/Manila"
  - name: "Camingawan"
    latitude: 9.8958
    longitude: 122.8625
    population: 7820
    dem: 102
    timezone: "Asia/Manila"
  - name: "Camindangan"
    latitude: 9.9184
    longitude: 122.6296
    population: 5100
    dem: 217
    timezone: "Asia/Manila"
  - name: "Colipapa"
    latitude: 9.4726
    longitude: 122.5616
    population: 7680
    dem: 11
    timezone: "Asia/Manila"
  - name: "Calinog"
    latitude: 11.11667
    longitude: 122.56667
    population: 5552
    dem: 51
    timezone: "Asia/Manila"
  - name: "Calatrava"
    latitude: 10.59496
    longitude: 123.4838
    population: 9489
    dem: 8
    timezone: "Asia/Manila"
  - name: "Cadiz"
    latitude: 10.9465
    longitude: 123.288
    population: 129053
    dem: 12
    timezone: "Asia/Manila"
  - name: "Cabatuan"
    latitude: 10.8794
    longitude: 122.486
    population: 6106
    dem: 60
    timezone: "Asia/Manila"
  - name: "Cabano"
    latitude: 10.5869
    longitude: 122.7002
    population: 5812
    dem: 10
    timezone: "Asia/Manila"
  - name: "Cabacungan"
    latitude: 10.3237
    longitude: 123.1331
    population: 7200
    dem: 203
    timezone: "Asia/Manila"
  - name: "Busay"
    latitude: 10.5378
    longitude: 122.886
    population: 5503
    dem: 12
    timezone: "Asia/Manila"
  - name: "Buluangan"
    latitude: 10.38707
    longitude: 123.3381
    population: 12249
    dem: 7
    timezone: "Asia/Manila"
  - name: "Bulata"
    latitude: 9.8599
    longitude: 122.4016
    population: 5151
    dem: 13
    timezone: "Asia/Manila"
  - name: "Bolanon"
    latitude: 10.9171
    longitude: 123.4734
    population: 8127
    dem: 12
    timezone: "Asia/Manila"
  - name: "Bugang"
    latitude: 10.74185
    longitude: 123.3933
    population: 6000
    dem: 211
    timezone: "Asia/Manila"
  - name: "Buga"
    latitude: 10.71667
    longitude: 122.26667
    population: 5975
    dem: 43
    timezone: "Asia/Manila"
  - name: "Binonga"
    latitude: 10.7719
    longitude: 122.9817
    population: 83980
    dem: 15
    timezone: "Asia/Manila"
  - name: "Binalbagan"
    latitude: 10.1948
    longitude: 122.8581
    population: 38587
    dem: 11
    timezone: "Asia/Manila"
  - name: "Bilao"
    latitude: 11.488
    longitude: 122.5599
    population: 5805
    dem: 8
    timezone: "Asia/Manila"
  - name: "Biao"
    latitude: 10.1088
    longitude: 122.9772
    population: 6559
    dem: 142
    timezone: "Asia/Manila"
  - name: "Bato"
    latitude: 10.80854
    longitude: 123.3733
    population: 5665
    dem: 90
    timezone: "Asia/Manila"
  - name: "Barotac Viejo"
    latitude: 11.04194
    longitude: 122.85222
    population: 8611
    dem: 10
    timezone: "Asia/Manila"
  - name: "Barotac Nuevo"
    latitude: 10.89417
    longitude: 122.70444
    population: 11641
    dem: 15
    timezone: "Asia/Manila"
  - name: "Bago City"
    latitude: 10.53333
    longitude: 122.83333
    population: 150250
    dem: 8
    timezone: "Asia/Manila"
  - name: "Bacuyangan"
    latitude: 9.637
    longitude: 122.4721
    population: 7506
    dem: 16
    timezone: "Asia/Manila"
  - name: "Bacolod City"
    latitude: 10.66667
    longitude: 122.95
    population: 454898
    dem: 14
    timezone: "Asia/Manila"
  - name: "Asia"
    latitude: 9.5506
    longitude: 122.5164
    population: 23546
    dem: 13
    timezone: "Asia/Manila"
  - name: "Antipolo"
    latitude: 10.3565
    longitude: 122.9646
    population: 7398
    dem: 77
    timezone: "Asia/Manila"
  - name: "Andres Bonifacio"
    latitude: 10.91667
    longitude: 123.25
    population: 6494
    dem: 36
    timezone: "Asia/Manila"
  - name: "Alimodian"
    latitude: 10.82139
    longitude: 122.43111
    population: 7302
    dem: 69
    timezone: "Asia/Manila"
  - name: "Alicante"
    latitude: 10.89704
    longitude: 123.0185
    population: 8607
    dem: 9
    timezone: "Asia/Manila"
  - name: "Ajuy"
    latitude: 11.1724
    longitude: 123.0197
    population: 8695
    dem: 9
    timezone: "Asia/Manila"
  - name: "Aguisan"
    latitude: 10.1603
    longitude: 122.8615
    population: 11798
    dem: 9
    timezone: "Asia/Manila"
  - name: "Pandan"
    latitude: 11.74479
    longitude: 122.10027
    population: 34000
    elevation: 18
    dem: 20
    timezone: "Asia/Manila"
- name: "Soccsksargen"
  cities:
  - name: "Tupi"
    latitude: 6.33444
    longitude: 124.95278
    population: 16518
    dem: 317
    timezone: "Asia/Manila"
  - name: "Tulunan"
    latitude: 6.83444
    longitude: 124.87694
    population: 9584
    dem: 20
    timezone: "Asia/Manila"
  - name: "Tantangan"
    latitude: 6.615
    longitude: 124.74889
    population: 10337
    dem: 38
    timezone: "Asia/Manila"
  - name: "Tampakan"
    latitude: 6.49034
    longitude: 125.08275
    population: 9048
    dem: 1230
    timezone: "Asia/Manila"
  - name: "Tamontaka"
    latitude: 7.18056
    longitude: 124.22556
    population: 5166
    dem: 8
    timezone: "Asia/Manila"
  - name: "Tamnag"
    latitude: 6.57298
    longitude: 124.88004
    population: 6302
    dem: 48
    timezone: "Asia/Manila"
  - name: "Tacurong"
    latitude: 6.6925
    longitude: 124.67639
    population: 54648
    dem: 48
    timezone: "Asia/Manila"
  - name: "Suyan"
    latitude: 6.06028
    longitude: 125.38528
    population: 7229
    dem: 112
    timezone: "Asia/Manila"
  - name: "Surallah"
    latitude: 6.37527
    longitude: 124.74521
    population: 31089
    dem: 195
    timezone: "Asia/Manila"
  - name: "Sulit"
    latitude: 6.23611
    longitude: 125.02056
    population: 5019
    dem: 343
    timezone: "Asia/Manila"
  - name: "Silway 7"
    latitude: 6.17711
    longitude: 125.12068
    population: 7893
    dem: 146
    timezone: "Asia/Manila"
  - name: "Sebu"
    latitude: 6.22066
    longitude: 124.69269
    population: 21767
    dem: 694
    timezone: "Asia/Manila"
  - name: "Sapu Padidu"
    latitude: 5.91722
    longitude: 125.26694
    population: 9789
    dem: 2
    timezone: "Asia/Manila"
  - name: "Santo Nino"
    latitude: 6.435
    longitude: 124.6975
    population: 9662
    dem: 148
    timezone: "Asia/Manila"
  - name: "Sampao"
    latitude: 6.87667
    longitude: 124.59556
    population: 5259
    dem: 16
    timezone: "Asia/Manila"
  - name: "Saguing"
    latitude: 6.98028
    longitude: 125.07806
    population: 5073
    dem: 219
    timezone: "Asia/Manila"
  - name: "Rogongon"
    latitude: 8.23333
    longitude: 124.33333
    population: 5530
    dem: 235
    timezone: "Asia/Manila"
  - name: "President Roxas"
    latitude: 7.15444
    longitude: 125.05583
    population: 10879
    dem: 125
    timezone: "Asia/Manila"
  - name: "Puloypuloy"
    latitude: 6.63517
    longitude: 124.096
    population: 5130
    dem: 24
    timezone: "Asia/Manila"
  - name: "Polonoling"
    latitude: 6.28496
    longitude: 124.9689
    population: 6550
    dem: 377
    timezone: "Asia/Manila"
  - name: "Polomolok"
    latitude: 6.22167
    longitude: 125.06398
    population: 63987
    dem: 300
    timezone: "Asia/Manila"
  - name: "Pikit"
    latitude: 7.05444
    longitude: 124.67194
    population: 14998
    dem: 14
    timezone: "Asia/Manila"
  - name: "Pigcawayan"
    latitude: 7.27722
    longitude: 124.42556
    population: 11420
    dem: 19
    timezone: "Asia/Manila"
  - name: "Pangyan"
    latitude: 5.70083
    longitude: 125.28111
    population: 5261
    dem: 1
    timezone: "Asia/Manila"
  - name: "Norala"
    latitude: 6.5225
    longitude: 124.65917
    population: 12750
    dem: 103
    timezone: "Asia/Manila"
  - name: "Midsayap"
    latitude: 7.19083
    longitude: 124.53028
    population: 32932
    dem: 19
    timezone: "Asia/Manila"
  - name: "Matalam"
    latitude: 7.08639
    longitude: 124.90056
    population: 9783
    dem: 42
    timezone: "Asia/Manila"
  - name: "Malungun"
    latitude: 6.27917
    longitude: 125.28167
    population: 52248
    dem: 127
    timezone: "Asia/Manila"
  - name: "Malasila"
    latitude: 6.94389
    longitude: 125.12944
    population: 5864
    dem: 364
    timezone: "Asia/Manila"
  - name: "Malapatan"
    latitude: 5.96917
    longitude: 125.28944
    population: 19439
    dem: 26
    timezone: "Asia/Manila"
  - name: "Makilala"
    latitude: 6.95167
    longitude: 125.09694
    population: 13829
    dem: 289
    timezone: "Asia/Manila"
  - name: "Maitum"
    latitude: 6.03917
    longitude: 124.49861
    population: 8478
    dem: 7
    timezone: "Asia/Manila"
  - name: "Magpet"
    latitude: 7.10017
    longitude: 125.11548
    population: 5414
    dem: 285
    timezone: "Asia/Manila"
  - name: "Maasin"
    latitude: 5.8575
    longitude: 125.00611
    population: 5847
    dem: 5
    timezone: "Asia/Manila"
  - name: "Lun Pequeno"
    latitude: 6.03778
    longitude: 125.28389
    population: 11541
    dem: 13
    timezone: "Asia/Manila"
  - name: "Libungan"
    latitude: 7.24083
    longitude: 124.52
    population: 5606
    dem: 27
    timezone: "Asia/Manila"
  - name: "Lambayong"
    latitude: 6.51944
    longitude: 125.04444
    population: 11009
    dem: 810
    timezone: "Asia/Manila"
  - name: "Lamba"
    latitude: 6.35025
    longitude: 124.81974
    population: 6408
    dem: 224
    timezone: "Asia/Manila"
  - name: "Lala"
    latitude: 7.97306
    longitude: 123.74722
    population: 9273
    dem: 8
    timezone: "Asia/Manila"
  - name: "Laguilayan"
    latitude: 6.67213
    longitude: 124.52491
    population: 17764
    dem: 59
    timezone: "Asia/Manila"
  - name: "Koronadal"
    latitude: 6.50306
    longitude: 124.84694
    population: 125502
    dem: 52
    timezone: "Asia/Manila"
  - name: "Kipalbig"
    latitude: 6.41056
    longitude: 124.9264
    population: 5070
    dem: 143
    timezone: "Asia/Manila"
  - name: "Kidapawan"
    latitude: 7.00833
    longitude: 125.08944
    population: 79652
    dem: 275
    timezone: "Asia/Manila"
  - name: "Kiamba"
    latitude: 5.98944
    longitude: 124.62417
    population: 10979
    dem: 12
    timezone: "Asia/Manila"
  - name: "Katangawan"
    latitude: 6.17222
    longitude: 125.22139
    population: 8476
    dem: 38
    timezone: "Asia/Manila"
  - name: "Kalamansig"
    latitude: 6.55187
    longitude: 124.05111
    population: 12821
    dem: 2
    timezone: "Asia/Manila"
  - name: "Kabacan"
    latitude: 7.10667
    longitude: 124.82917
    population: 31769
    dem: 24
    timezone: "Asia/Manila"
  - name: "Isulan"
    latitude: 6.62944
    longitude: 124.605
    population: 31717
    dem: 65
    timezone: "Asia/Manila"
  - name: "Iligan City"
    latitude: 8.25
    longitude: 124.4
    population: 312323
    dem: 282
    timezone: "Asia/Manila"
  - name: "Glan"
    latitude: 5.82417
    longitude: 125.20333
    population: 24256
    dem: 9
    timezone: "Asia/Manila"
  - name: "Glad"
    latitude: 7.14833
    longitude: 124.51806
    population: 5746
    dem: 12
    timezone: "Asia/Manila"
  - name: "General Santos"
    latitude: 6.11278
    longitude: 125.17167
    population: 679588
    dem: 22
    timezone: "Asia/Manila"
  - name: "Gansing"
    latitude: 6.71851
    longitude: 124.65338
    population: 5031
    dem: 40
    timezone: "Asia/Manila"
  - name: "Esperanza"
    latitude: 6.72306
    longitude: 124.51972
    population: 6009
    dem: 43
    timezone: "Asia/Manila"
  - name: "Dahay"
    latitude: 6.39067
    longitude: 124.71464
    population: 7567
    dem: 174
    timezone: "Asia/Manila"
  - name: "Conel"
    latitude: 6.20222
    longitude: 125.18722
    population: 8519
    dem: 100
    timezone: "Asia/Manila"
  - name: "Columbio"
    latitude: 6.69639
    longitude: 124.93722
    population: 5516
    dem: 52
    timezone: "Asia/Manila"
  - name: "Cebuano"
    latitude: 6.38794
    longitude: 124.96841
    population: 5430
    dem: 247
    timezone: "Asia/Manila"
  - name: "Carpenter Hill"
    latitude: 6.44413
    longitude: 124.88138
    population: 5344
    dem: 100
    timezone: "Asia/Manila"
  - name: "Carmen"
    latitude: 7.20444
    longitude: 124.79167
    population: 8759
    dem: 43
    timezone: "Asia/Manila"
  - name: "Buayan"
    latitude: 6.11639
    longitude: 125.23472
    population: 14607
    dem: 13
    timezone: "Asia/Manila"
  - name: "Buayan"
    latitude: 7.26111
    longitude: 124.52944
    population: 5216
    dem: 98
    timezone: "Asia/Manila"
  - name: "Bialong"
    latitude: 6.98056
    longitude: 124.88889
    population: 8639
    dem: 25
    timezone: "Asia/Manila"
  - name: "Bau"
    latitude: 7.40528
    longitude: 124.64972
    population: 6672
    dem: 162
    timezone: "Asia/Manila"
  - name: "Bantogon"
    latitude: 6.53333
    longitude: 124.03333
    population: 5379
    dem: 42
    timezone: "Asia/Manila"
  - name: "Banisilan"
    latitude: 7.49083
    longitude: 124.72417
    population: 5749
    dem: 391
    timezone: "Asia/Manila"
  - name: "Banga"
    latitude: 6.42389
    longitude: 124.77833
    population: 58855
    dem: 165
    timezone: "Asia/Manila"
  - name: "Baliton"
    latitude: 5.74361
    longitude: 125.23639
    population: 5809
    dem: 15
    timezone: "Asia/Manila"
  - name: "Bagontapay"
    latitude: 6.85889
    longitude: 124.90889
    population: 6747
    dem: 32
    timezone: "Asia/Manila"
  - name: "Amas"
    latitude: 7.05694
    longitude: 124.98389
    population: 6219
    dem: 107
    timezone: "Asia/Manila"
  - name: "Alabel"
    latitude: 6.10179
    longitude: 125.29048
    population: 43312
    dem: 40
    timezone: "Asia/Manila"
  - name: "Malandag"
    latitude: 6.3103
    longitude: 125.24756
    population: 12867
    dem: 198
    timezone: "Asia/Manila"
  - name: "Malingao"
    latitude: 7.16083
    longitude: 124.475
    population: 1121974
    dem: 5
    timezone: "Asia/Manila"
  - name: "Lopez Jaena"
    latitude: 6.47591
    longitude: 124.69828
    population: 5352
    dem: 124
    timezone: "Asia/Manila"
- name: "Cordillera Administrative Region"
  cities:
  - name: "Tuding"
    latitude: 16.41085
    longitude: 120.6422
    population: 7491
    dem: 1286
    timezone: "Asia/Manila"
  - name: "Tabuk"
    latitude: 17.47378
    longitude: 121.46799
    population: 27048
    dem: 141
    timezone: "Asia/Manila"
  - name: "Liwan"
    latitude: 17.5191
    longitude: 121.632
    population: 5286
    dem: 64
    timezone: "Asia/Manila"
  - name: "Pasil"
    latitude: 17.38333
    longitude: 121.13333
    population: 10109
    dem: 999
    timezone: "Asia/Manila"
  - name: "Monamon"
    latitude: 16.8833
    longitude: 120.8833
    population: 5371
    dem: 1957
    timezone: "Asia/Manila"
  - name: "Mankayan"
    latitude: 16.8632
    longitude: 120.7829
    population: 15886
    dem: 1203
    timezone: "Asia/Manila"
  - name: "Loacan"
    latitude: 16.55
    longitude: 120.66667
    population: 6371
    dem: 1045
    timezone: "Asia/Manila"
  - name: "La Trinidad"
    latitude: 16.455
    longitude: 120.5875
    population: 41258
    dem: 1318
    timezone: "Asia/Manila"
  - name: "Lagawe"
    latitude: 16.79997
    longitude: 121.11924
    population: 6819
    dem: 490
    timezone: "Asia/Manila"
  - name: "Kibungan"
    latitude: 16.695
    longitude: 120.6553
    population: 7912
    dem: 1274
    timezone: "Asia/Manila"
  - name: "Itogon"
    latitude: 16.36389
    longitude: 120.67694
    population: 28407
    dem: 808
    timezone: "Asia/Manila"
  - name: "Buguias"
    latitude: 16.72267
    longitude: 120.82834
    population: 6192
    dem: 1463
    timezone: "Asia/Manila"
  - name: "Bontoc"
    latitude: 17.08731
    longitude: 120.97685
    population: 10440
    dem: 864
    timezone: "Asia/Manila"
  - name: "Barlig"
    latitude: 17.03725
    longitude: 121.10384
    population: 6168
    dem: 1474
    timezone: "Asia/Manila"
  - name: "Baguio"
    latitude: 16.41639
    longitude: 120.59306
    population: 272714
    dem: 1493
    timezone: "Asia/Manila"
  - name: "Baculongan"
    latitude: 16.8
    longitude: 120.8333
    population: 11742
    dem: 1615
    timezone: "Asia/Manila"
- name: "Philippines"
  cities:
  - name: "Libertad"
    latitude: 8.25
    longitude: 124.23333
    population: 5210
    dem: -9999
    timezone: "Asia/Manila"
- name: "Zamboanga Peninsula"
  cities:
  - name: "Zamboanga"
    latitude: 6.91028
    longitude: 122.07389
    population: 457623
    dem: 9
    timezone: "Asia/Manila"
  - name: "Vitali"
    latitude: 7.37111
    longitude: 122.28861
    population: 9653
    dem: 11
    timezone: "Asia/Manila"
  - name: "Tucuran"
    latitude: 7.8524
    longitude: 123.5743
    population: 13148
    dem: 7
    timezone: "Asia/Manila"
  - name: "Titay"
    latitude: 7.8125
    longitude: 122.53444
    population: 11468
    dem: 139
    timezone: "Asia/Manila"
  - name: "Tambulig"
    latitude: 8.0702
    longitude: 123.5348
    population: 7488
    dem: 25
    timezone: "Asia/Manila"
  - name: "Talusan"
    latitude: 7.42667
    longitude: 122.81028
    population: 5783
    dem: 19
    timezone: "Asia/Manila"
  - name: "Taluksangay"
    latitude: 6.95417
    longitude: 122.18389
    population: 7343
    dem: 5
    timezone: "Asia/Manila"
  - name: "Talisayan"
    latitude: 6.98722
    longitude: 121.92722
    population: 5445
    dem: 15
    timezone: "Asia/Manila"
  - name: "Tabina"
    latitude: 7.4669
    longitude: 123.4081
    population: 5074
    dem: 1
    timezone: "Asia/Manila"
  - name: "Siocon"
    latitude: 7.70611
    longitude: 122.13528
    population: 5071
    dem: 8
    timezone: "Asia/Manila"
  - name: "Sindangan"
    latitude: 8.2376
    longitude: 122.9974
    population: 5718
    dem: 7
    timezone: "Asia/Manila"
  - name: "Salug"
    latitude: 8.11472
    longitude: 122.78333
    population: 6774
    dem: 28
    timezone: "Asia/Manila"
  - name: "Recodo"
    latitude: 6.95194
