---
name: "Solomon Islands"
iso: "SB"
iso3: "SLB"
code: "090"
capital: "Honiara"
area: 28450.0
population: 559198
continent: "OC"
currencyCode: "SBD"
currencyName: "Dollar"
phone: "677"
languages: "en-SB,tpi"
regions:
- name: "Central Province"
  cities:
  - name: "Tulagi"
    latitude: -9.10306
    longitude: 160.15056
    population: 1750
    dem: 0
    timezone: "Pacific/Guadalcanal"
- name: "Isabel Province"
  cities:
  - name: "Buala"
    latitude: -8.14497
    longitude: 159.59212
    population: 2700
    dem: 5
    timezone: "Pacific/Guadalcanal"
- name: "Rennell and Bellona"
- name: "Temotu Province"
  cities:
  - name: "Lata"
    latitude: -10.725
    longitude: 165.79722
    population: 553
    dem: 29
    timezone: "Pacific/Guadalcanal"
- name: "Malaita Province"
  cities:
  - name: "Auki"
    latitude: -8.76778
    longitude: 160.69778
    population: 6811
    dem: 18
    timezone: "Pacific/Guadalcanal"
- name: "Choiseul"
  cities:
  - name: "Taro"
    latitude: -6.71111
    longitude: 156.39722
    population: 0
    dem: 0
    timezone: "Pacific/Guadalcanal"
- name: "Guadalcanal Province"
  cities:
  - name: "Honiara"
    latitude: -9.43333
    longitude: 159.95
    population: 56298
    dem: 49
    timezone: "Pacific/Guadalcanal"
- name: "Western Province"
  cities:
  - name: "Gizo"
    latitude: -8.10303
    longitude: 156.84186
    population: 6154
    dem: 6
    timezone: "Pacific/Guadalcanal"
- name: "Honiara"
- name: "Makira-Ulawa Province"
  cities:
  - name: "Kirakira"
    latitude: -10.45442
    longitude: 161.92045
    population: 1122
    dem: 13
    timezone: "Pacific/Guadalcanal"
