---
name: "Sudan"
iso: "SD"
iso3: "SDN"
code: "729"
capital: "Khartoum"
area: 1861484.0
population: 35000000
continent: "AF"
currencyCode: "SDG"
currencyName: "Pound"
phone: "249"
postalCodeFormat: "#####"
postalCodeRegex: "^(\\d{5})$"
languages: "ar-SD,en,fia"
neighbours: "SS,TD,EG,ET,ER,LY,CF"
regions:
- name: "Northern"
  cities:
  - name: "Dongola"
    latitude: 19.18163
    longitude: 30.47689
    population: 13473
    dem: 226
    timezone: "Africa/Khartoum"
  - name: "Merowe"
    latitude: 18.47036
    longitude: 31.81126
    population: 10234
    dem: 255
    timezone: "Africa/Khartoum"
  - name: "Kuraymah"
    latitude: 18.55
    longitude: 31.85
    population: 19593
    dem: 255
    timezone: "Africa/Khartoum"
  - name: "Argo"
    latitude: 19.51667
    longitude: 30.41667
    population: 7716
    dem: 224
    timezone: "Africa/Khartoum"
  - name: "Ad Dabbah"
    latitude: 18.05
    longitude: 30.95
    population: 11626
    dem: 242
    timezone: "Africa/Khartoum"
- name: "Sennar"
  cities:
  - name: "Singa"
    latitude: 13.1483
    longitude: 33.93117
    population: 250000
    dem: 441
    timezone: "Africa/Khartoum"
  - name: "Sinnar"
    latitude: 13.56907
    longitude: 33.56718
    population: 130122
    dem: 427
    timezone: "Africa/Khartoum"
  - name: "Maiurno"
    latitude: 13.41667
    longitude: 33.66667
    population: 28727
    dem: 423
    timezone: "Africa/Khartoum"
  - name: "Kinana"
    latitude: 14.0361
    longitude: 33.1712
    population: 26233
    dem: 437
    timezone: "Africa/Khartoum"
  - name: "Jalqani"
    latitude: 12.4486
    longitude: 34.2186
    population: 9472
    dem: 454
    timezone: "Africa/Khartoum"
  - name: "As Suki"
    latitude: 13.31667
    longitude: 33.88333
    population: 33524
    dem: 428
    timezone: "Africa/Khartoum"
  - name: "Ad Dindar"
    latitude: 13.2
    longitude: 34.16667
    population: 15144
    dem: 437
    timezone: "Africa/Khartoum"
- name: "Al Qadarif State"
  cities:
  - name: "Doka"
    latitude: 13.51667
    longitude: 35.76667
    population: 19821
    dem: 643
    timezone: "Africa/Khartoum"
  - name: "Al Qadarif"
    latitude: 14.03493
    longitude: 35.38344
    population: 363945
    dem: 608
    timezone: "Africa/Khartoum"
  - name: "Al Hawatah"
    latitude: 13.41667
    longitude: 34.63333
    population: 24513
    dem: 445
    timezone: "Africa/Khartoum"
- name: "East Darfur"
  cities:
  - name: "El Daein"
    latitude: 11.46186
    longitude: 26.12583
    population: 264734
    dem: 478
    timezone: "Africa/Khartoum"
- name: "Red Sea"
  cities:
  - name: "Tokar"
    latitude: 18.4254
    longitude: 37.729
    population: 22250
    dem: 22
    timezone: "Africa/Khartoum"
  - name: "Sawakin"
    latitude: 19.1059
    longitude: 37.3321
    population: 28570
    dem: 4
    timezone: "Africa/Khartoum"
  - name: "Gebeit"
    latitude: 21.06667
    longitude: 36.31667
    population: 11095
    dem: 622
    timezone: "Africa/Khartoum"
  - name: "Port Sudan"
    latitude: 19.61745
    longitude: 37.21644
    population: 489725
    dem: 10
    timezone: "Africa/Khartoum"
- name: "Blue Nile"
  cities:
  - name: "Kurmuk"
    latitude: 10.55
    longitude: 34.28333
    population: 10375
    dem: 651
    timezone: "Africa/Khartoum"
  - name: "Ar Ruseris"
    latitude: 11.8659
    longitude: 34.3869
    population: 28862
    dem: 472
    timezone: "Africa/Khartoum"
  - name: "Ad-Damazin"
    latitude: 11.7891
    longitude: 34.3592
    population: 186051
    dem: 485
    timezone: "Africa/Khartoum"
- name: "West Kordofan State"
  cities:
  - name: "An Nuhud"
    latitude: 12.7
    longitude: 28.43333
    population: 108008
    dem: 571
    timezone: "Africa/Khartoum"
  - name: "Al Mijlad"
    latitude: 11.03333
    longitude: 27.73333
    population: 19997
    dem: 434
    timezone: "Africa/Khartoum"
  - name: "Al Lagowa"
    latitude: 11.4
    longitude: 29.13333
    population: 11024
    dem: 566
    timezone: "Africa/Khartoum"
  - name: "Abu Zabad"
    latitude: 12.35
    longitude: 29.25
    population: 15304
    dem: 559
    timezone: "Africa/Khartoum"
  - name: "El Fula"
    latitude: 11.71195
    longitude: 28.3462
    population: 0
    dem: 517
    timezone: "Africa/Khartoum"
- name: "White Nile"
  cities:
  - name: "Wad az Zaki"
    latitude: 14.4619
    longitude: 32.2065
    population: 9271
    dem: 390
    timezone: "Africa/Khartoum"
  - name: "Um Jar Al Gharbiyya"
    latitude: 13.8013
    longitude: 32.4078
    population: 9038
    dem: 384
    timezone: "Africa/Khartoum"
  - name: "Tandalti"
    latitude: 13.01667
    longitude: 31.86667
    population: 27275
    dem: 422
    timezone: "Africa/Khartoum"
  - name: "Rabak"
    latitude: 13.18087
    longitude: 32.73999
    population: 135281
    dem: 399
    timezone: "Africa/Khartoum"
  - name: "Marabba"
    latitude: 12.35
    longitude: 32.18333
    population: 12108
    dem: 401
    timezone: "Africa/Khartoum"
  - name: "Kosti"
    latitude: 13.1629
    longitude: 32.66347
    population: 345068
    dem: 387
    timezone: "Africa/Khartoum"
  - name: "Al Qitena"
    latitude: 14.8648
    longitude: 32.3668
    population: 18321
    dem: 387
    timezone: "Africa/Khartoum"
  - name: "Al Kawa"
    latitude: 13.7463
    longitude: 32.4996
    population: 10167
    dem: 385
    timezone: "Africa/Khartoum"
  - name: "Ad Douiem"
    latitude: 14.0012
    longitude: 32.3116
    population: 87068
    dem: 385
    timezone: "Africa/Khartoum"
- name: "North Kordofan"
  cities:
  - name: "Umm Ruwaba"
    latitude: 12.9061
    longitude: 31.2158
    population: 55742
    dem: 457
    timezone: "Africa/Khartoum"
  - name: "Barah"
    latitude: 13.7
    longitude: 30.36667
    population: 16969
    dem: 478
    timezone: "Africa/Khartoum"
  - name: "Ar Rahad"
    latitude: 12.71667
    longitude: 30.65
    population: 26273
    dem: 506
    timezone: "Africa/Khartoum"
  - name: "El Obeid"
    latitude: 13.18421
    longitude: 30.21669
    population: 393311
    dem: 573
    timezone: "Africa/Khartoum"
- name: "Al Jazirah State"
  cities:
  - name: "Wad Rawah"
    latitude: 15.16028
    longitude: 33.13972
    population: 10348
    dem: 394
    timezone: "Africa/Khartoum"
  - name: "Wad Medani"
    latitude: 14.40118
    longitude: 33.51989
    population: 332714
    dem: 410
    timezone: "Africa/Khartoum"
  - name: "Al Masallamiyya"
    latitude: 14.5748
    longitude: 33.3373
    population: 9373
    dem: 407
    timezone: "Africa/Khartoum"
  - name: "Al Manaqil"
    latitude: 14.2459
    longitude: 32.9891
    population: 128297
    dem: 413
    timezone: "Africa/Khartoum"
  - name: "Al Kiremit al `Arakiyyin"
    latitude: 14.3476
    longitude: 32.9437
    population: 9775
    dem: 405
    timezone: "Africa/Khartoum"
  - name: "Al Hilaliyya"
    latitude: 14.9398
    longitude: 33.234
    population: 17345
    dem: 398
    timezone: "Africa/Khartoum"
  - name: "Al Hasaheisa"
    latitude: 14.75264
    longitude: 33.29836
    population: 28735
    dem: 401
    timezone: "Africa/Khartoum"
- name: "South Kordofan"
  cities:
  - name: "Talodi"
    latitude: 10.63246
    longitude: 30.3797
    population: 13188
    dem: 485
    timezone: "Africa/Khartoum"
  - name: "Kadugli"
    latitude: 11.01111
    longitude: 29.71833
    population: 87666
    dem: 506
    timezone: "Africa/Khartoum"
  - name: "Dilling"
    latitude: 12.05
    longitude: 29.65
    population: 37113
    dem: 687
    timezone: "Africa/Khartoum"
  - name: "Al Fulah"
    latitude: 11.73292
    longitude: 28.35786
    population: 11238
    dem: 519
    timezone: "Africa/Khartoum"
  - name: "Abu Jibeha"
    latitude: 11.4562
    longitude: 31.2285
    population: 21790
    dem: 573
    timezone: "Africa/Khartoum"
- name: "West Darfur"
  cities:
  - name: "Geneina"
    latitude: 13.45262
    longitude: 22.44725
    population: 162981
    dem: 797
    timezone: "Africa/Khartoum"
- name: "River Nile"
  cities:
  - name: "Shendi"
    latitude: 16.6915
    longitude: 33.4341
    population: 53568
    dem: 366
    timezone: "Africa/Khartoum"
  - name: "Berber"
    latitude: 18.02158
    longitude: 33.98299
    population: 22395
    dem: 347
    timezone: "Africa/Khartoum"
  - name: "Atbara"
    latitude: 17.70217
    longitude: 33.98638
    population: 107930
    dem: 358
    timezone: "Africa/Khartoum"
  - name: "El Matama"
    latitude: 16.7095
    longitude: 33.3565
    population: 11366
    dem: 366
    timezone: "Africa/Khartoum"
  - name: "El Bauga"
    latitude: 18.26197
    longitude: 33.90812
    population: 19141
    dem: 348
    timezone: "Africa/Khartoum"
  - name: "Ed Damer"
    latitude: 17.59898
    longitude: 33.97205
    population: 103941
    dem: 354
    timezone: "Africa/Khartoum"
- name: "Khartoum"
  cities:
  - name: "Omdurman"
    latitude: 15.64453
    longitude: 32.47773
    population: 1200000
    dem: 391
    timezone: "Africa/Khartoum"
  - name: "Khartoum"
    latitude: 15.55177
    longitude: 32.53241
    population: 1974647
    dem: 381
    timezone: "Africa/Khartoum"
- name: "Kassala State"
  cities:
  - name: "Wagar"
    latitude: 16.1525
    longitude: 36.2032
    population: 11950
    dem: 421
    timezone: "Africa/Khartoum"
  - name: "Kassala"
    latitude: 15.45099
    longitude: 36.39998
    population: 401477
    dem: 507
    timezone: "Africa/Khartoum"
  - name: "Aroma"
    latitude: 15.81667
    longitude: 36.13333
    population: 12708
    dem: 443
    timezone: "Africa/Khartoum"
- name: "Central Darfur State"
  cities:
  - name: "Zalingei"
    latitude: 12.90918
    longitude: 23.47058
    population: 28687
    dem: 891
    timezone: "Africa/Khartoum"
- name: "South Darfur"
  cities:
  - name: "Nyala"
    latitude: 12.04888
    longitude: 24.88069
    population: 565734
    dem: 661
    timezone: "Africa/Khartoum"
  - name: "Gereida"
    latitude: 11.27543
    longitude: 25.14026
    population: 120000
    dem: 483
    timezone: "Africa/Khartoum"
- name: "North Darfur"
  cities:
  - name: "Umm Kaddadah"
    latitude: 13.60169
    longitude: 26.68759
    population: 10979
    dem: 601
    timezone: "Africa/Khartoum"
  - name: "Kutum"
    latitude: 14.2
    longitude: 24.66667
    population: 9849
    dem: 1159
    timezone: "Africa/Khartoum"
  - name: "El Fasher"
    latitude: 13.62793
    longitude: 25.34936
    population: 252609
    dem: 748
    timezone: "Africa/Khartoum"
