---
name: "Sweden"
iso: "SE"
iso3: "SWE"
code: "752"
capital: "Stockholm"
area: 449964.0
population: 9828655
continent: "EU"
currencyCode: "SEK"
currencyName: "Krona"
phone: "46"
postalCodeFormat: "### ##"
postalCodeRegex: "^(?:SE)?\\d{3}\\s\\d{2}$"
languages: "sv-SE,se,sma,fi-SE"
neighbours: "NO,FI"
regions:
- name: "Halland"
  cities:
  - name: "Varberg"
    latitude: 57.10557
    longitude: 12.25078
    population: 34248
    dem: 15
    timezone: "Europe/Stockholm"
  - name: "Laholm"
    latitude: 56.51207
    longitude: 13.04371
    population: 6527
    dem: 17
    timezone: "Europe/Stockholm"
  - name: "Kungsbacka"
    latitude: 57.48719
    longitude: 12.07612
    population: 18698
    dem: 6
    timezone: "Europe/Stockholm"
  - name: "Halmstad"
    latitude: 56.67446
    longitude: 12.85676
    population: 66124
    dem: 11
    timezone: "Europe/Stockholm"
  - name: "Falkenberg"
    latitude: 56.90552
    longitude: 12.49118
    population: 24099
    dem: 15
    timezone: "Europe/Stockholm"
  - name: "Asa"
    latitude: 57.35
    longitude: 12.11667
    population: 6084
    dem: 25
    timezone: "Europe/Stockholm"
  - name: "Onsala"
    latitude: 57.42531
    longitude: 12.02903
    population: 12275
    dem: 34
    timezone: "Europe/Stockholm"
- name: "Vaesterbottens laen"
  cities:
  - name: "Umea"
    latitude: 63.82842
    longitude: 20.25972
    population: 83249
    dem: 24
    timezone: "Europe/Stockholm"
  - name: "Skelleftea"
    latitude: 64.75067
    longitude: 20.95279
    population: 35516
    dem: 34
    timezone: "Europe/Stockholm"
  - name: "Holmsund"
    latitude: 63.70602
    longitude: 20.36409
    population: 5962
    dem: 12
    timezone: "Europe/Stockholm"
  - name: "Lycksele"
    latitude: 64.59537
    longitude: 18.67351
    population: 8545
    dem: 224
    timezone: "Europe/Stockholm"
- name: "Stockholm"
  cities:
  - name: "Vasastan"
    latitude: 59.34571
    longitude: 18.04985
    population: 58458
    dem: 35
    timezone: "Europe/Stockholm"
  - name: "Vallentuna"
    latitude: 59.53436
    longitude: 18.07758
    population: 31937
    dem: 20
    timezone: "Europe/Stockholm"
  - name: "Upplands Vaesby"
    latitude: 59.51839
    longitude: 17.91128
    population: 36534
    dem: 17
    timezone: "Europe/Stockholm"
  - name: "Tumba"
    latitude: 59.19858
    longitude: 17.83317
    population: 40832
    dem: 25
    timezone: "Europe/Stockholm"
  - name: "Tullinge"
    latitude: 59.2
    longitude: 17.9
    population: 16000
    dem: 58
    timezone: "Europe/Stockholm"
  - name: "Taby"
    latitude: 59.4439
    longitude: 18.06872
    population: 58123
    dem: 23
    timezone: "Europe/Stockholm"
  - name: "Sundbyberg"
    latitude: 59.36128
    longitude: 17.97114
    population: 34529
    dem: 24
    timezone: "Europe/Stockholm"
  - name: "Stockholm"
    latitude: 59.33258
    longitude: 18.0649
    population: 1515017
    dem: 28
    timezone: "Europe/Stockholm"
  - name: "Solna"
    latitude: 59.36004
    longitude: 18.00086
    population: 66909
    dem: 22
    timezone: "Europe/Stockholm"
  - name: "Sollentuna"
    latitude: 59.42804
    longitude: 17.95093
    population: 139606
    dem: 25
    timezone: "Europe/Stockholm"
  - name: "Soedertaelje"
    latitude: 59.19554
    longitude: 17.62525
    population: 70777
    dem: 29
    timezone: "Europe/Stockholm"
  - name: "Soedermalm"
    latitude: 59.31278
    longitude: 18.07577
    population: 127323
    dem: 39
    timezone: "Europe/Stockholm"
  - name: "Sigtuna"
    latitude: 59.61731
    longitude: 17.72361
    population: 9074
    dem: 16
    timezone: "Europe/Stockholm"
  - name: "Segeltorp"
    latitude: 59.27597
    longitude: 17.93072
    population: 10536
    dem: 41
    timezone: "Europe/Stockholm"
  - name: "Saltsjoebaden"
    latitude: 59.28333
    longitude: 18.3
    population: 9477
    dem: 14
    timezone: "Europe/Stockholm"
  - name: "Rasunda"
    latitude: 59.36588
    longitude: 17.99569
    population: 16877
    dem: 27
    timezone: "Europe/Stockholm"
  - name: "OEstermalm"
    latitude: 59.33879
    longitude: 18.08487
    population: 36418
    dem: 30
    timezone: "Europe/Stockholm"
  - name: "Nynaeshamn"
    latitude: 58.90337
    longitude: 17.94793
    population: 14532
    dem: 21
    timezone: "Europe/Stockholm"
  - name: "Nykvarn"
    latitude: 59.8
    longitude: 18.3
    population: 6032
    dem: 33
    timezone: "Europe/Stockholm"
  - name: "Nykvarn"
    latitude: 59.17718
    longitude: 17.4323
    population: 7327
    dem: 46
    timezone: "Europe/Stockholm"
  - name: "Norrtaelje"
    latitude: 59.75799
    longitude: 18.70496
    population: 19365
    dem: 13
    timezone: "Europe/Stockholm"
  - name: "Nacka"
    latitude: 59.31053
    longitude: 18.16372
    population: 25170
    dem: 49
    timezone: "Europe/Stockholm"
  - name: "Maersta"
    latitude: 59.62157
    longitude: 17.85476
    population: 27034
    dem: 19
    timezone: "Europe/Stockholm"
  - name: "Lidingoe"
    latitude: 59.36667
    longitude: 18.13333
    population: 42466
    dem: 30
    timezone: "Europe/Stockholm"
  - name: "Kungsholmen"
    latitude: 59.33183
    longitude: 18.04118
    population: 69363
    dem: 28
    timezone: "Europe/Stockholm"
  - name: "Kungsaengen"
    latitude: 59.47857
    longitude: 17.74834
    population: 10151
    dem: 39
    timezone: "Europe/Stockholm"
  - name: "Kista"
    latitude: 59.40316
    longitude: 17.94479
    population: 10254
    dem: 27
    timezone: "Europe/Stockholm"
  - name: "Jordbro"
    latitude: 59.14972
    longitude: 18.11667
    population: 10757
    dem: 52
    timezone: "Europe/Stockholm"
  - name: "Jaerna"
    latitude: 59.09165
    longitude: 17.56615
    population: 6038
    dem: 42
    timezone: "Europe/Stockholm"
  - name: "Jakobsberg"
    latitude: 59.42268
    longitude: 17.83508
    population: 24046
    dem: 25
    timezone: "Europe/Stockholm"
  - name: "Huddinge"
    latitude: 59.23705
    longitude: 17.98192
    population: 90182
    dem: 33
    timezone: "Europe/Stockholm"
  - name: "Haninge"
    latitude: 59.16775
    longitude: 18.14478
    population: 74968
    dem: 67
    timezone: "Europe/Stockholm"
  - name: "Handen"
    latitude: 59.16809
    longitude: 18.13796
    population: 11524
    dem: 66
    timezone: "Europe/Stockholm"
  - name: "Gustavsberg"
    latitude: 59.32684
    longitude: 18.38975
    population: 20774
    dem: 7
    timezone: "Europe/Stockholm"
  - name: "Fittja"
    latitude: 59.24868
    longitude: 17.85991
    population: 7500
    dem: 31
    timezone: "Europe/Stockholm"
  - name: "Ekeroe"
    latitude: 59.291
    longitude: 17.81212
    population: 11505
    dem: 13
    timezone: "Europe/Stockholm"
  - name: "Djursholm"
    latitude: 59.39926
    longitude: 18.05619
    population: 8856
    dem: 22
    timezone: "Europe/Stockholm"
  - name: "Bromma"
    latitude: 59.34
    longitude: 17.94
    population: 61000
    dem: 11
    timezone: "Europe/Stockholm"
  - name: "Bro"
    latitude: 59.51667
    longitude: 17.63333
    population: 8266
    dem: 21
    timezone: "Europe/Stockholm"
  - name: "Brevik"
    latitude: 59.35
    longitude: 18.2
    population: 8024
    dem: 41
    timezone: "Europe/Stockholm"
  - name: "Boo"
    latitude: 59.33333
    longitude: 18.28333
    population: 24052
    dem: 37
    timezone: "Europe/Stockholm"
  - name: "Bergshamra"
    latitude: 59.38083
    longitude: 18.03427
    population: 7300
    dem: 36
    timezone: "Europe/Stockholm"
  - name: "Arsta"
    latitude: 59.2978
    longitude: 18.0514
    population: 16807
    dem: 39
    timezone: "Europe/Stockholm"
  - name: "Alta"
    latitude: 59.26667
    longitude: 18.18333
    population: 9274
    dem: 46
    timezone: "Europe/Stockholm"
  - name: "Akersberga"
    latitude: 59.47944
    longitude: 18.29967
    population: 32659
    dem: 9
    timezone: "Europe/Stockholm"
  - name: "Fisksaetra"
    latitude: 59.29153
    longitude: 18.2549
    population: 8117
    dem: 30
    timezone: "Europe/Stockholm"
  - name: "Akalla"
    latitude: 59.41465
    longitude: 17.91398
    population: 8153
    dem: 42
    timezone: "Europe/Stockholm"
  - name: "Tensta"
    latitude: 59.3939
    longitude: 17.90111
    population: 17083
    dem: 32
    timezone: "Europe/Stockholm"
  - name: "Alby"
    latitude: 59.2335
    longitude: 17.8538
    population: 11400
    dem: 32
    timezone: "Europe/Stockholm"
- name: "Gotland"
  cities:
  - name: "Visby"
    latitude: 57.64089
    longitude: 18.29602
    population: 23402
    dem: 22
    timezone: "Europe/Stockholm"
- name: "Joenkoepings laen"
  cities:
  - name: "Vetlanda"
    latitude: 57.42887
    longitude: 15.07762
    population: 13430
    dem: 187
    timezone: "Europe/Stockholm"
  - name: "Vaernamo"
    latitude: 57.18604
    longitude: 14.04001
    population: 19061
    dem: 156
    timezone: "Europe/Stockholm"
  - name: "Vaggeryd"
    latitude: 57.49807
    longitude: 14.14842
    population: 5122
    dem: 203
    timezone: "Europe/Stockholm"
  - name: "Tranas"
    latitude: 58.03717
    longitude: 14.9782
    population: 14550
    dem: 164
    timezone: "Europe/Stockholm"
  - name: "Saevsjoe"
    latitude: 57.40327
    longitude: 14.66244
    population: 5374
    dem: 226
    timezone: "Europe/Stockholm"
  - name: "Naessjoe"
    latitude: 57.65307
    longitude: 14.69676
    population: 17719
    dem: 303
    timezone: "Europe/Stockholm"
  - name: "Mullsjoe"
    latitude: 57.9171
    longitude: 13.87831
    population: 5584
    dem: 256
    timezone: "Europe/Stockholm"
  - name: "Joenkoeping"
    latitude: 57.78145
    longitude: 14.15618
    population: 93797
    dem: 100
    timezone: "Europe/Stockholm"
  - name: "Huskvarna"
    latitude: 57.78596
    longitude: 14.30214
    population: 21500
    dem: 217
    timezone: "Europe/Stockholm"
  - name: "Habo"
    latitude: 57.91185
    longitude: 14.07444
    population: 7740
    dem: 182
    timezone: "Europe/Stockholm"
  - name: "Gislaved"
    latitude: 57.3044
    longitude: 13.54078
    population: 10180
    dem: 167
    timezone: "Europe/Stockholm"
  - name: "Eksjoe"
    latitude: 57.66643
    longitude: 14.97205
    population: 10157
    dem: 215
    timezone: "Europe/Stockholm"
  - name: "Bankeryd"
    latitude: 57.86021
    longitude: 14.124
    population: 8506
    dem: 116
    timezone: "Europe/Stockholm"
  - name: "Anderstorp"
    latitude: 57.28333
    longitude: 13.63333
    population: 5076
    dem: 159
    timezone: "Europe/Stockholm"
- name: "Norrbotten"
  cities:
  - name: "Pitea"
    latitude: 65.31717
    longitude: 21.47944
    population: 23067
    dem: 6
    timezone: "Europe/Stockholm"
  - name: "Malmberget"
    latitude: 67.17529
    longitude: 20.65495
    population: 6017
    dem: 418
    timezone: "Europe/Stockholm"
  - name: "Lulea"
    latitude: 65.58415
    longitude: 22.15465
    population: 43574
    dem: 17
    timezone: "Europe/Stockholm"
  - name: "Kiruna"
    latitude: 67.85572
    longitude: 20.22513
    population: 17037
    dem: 579
    timezone: "Europe/Stockholm"
  - name: "Kalix"
    latitude: 65.85298
    longitude: 23.15645
    population: 7495
    dem: -9999
    timezone: "Europe/Stockholm"
  - name: "Haparanda"
    latitude: 65.83549
    longitude: 24.13676
    population: 6679
    dem: 5
    timezone: "Europe/Stockholm"
  - name: "Gaellivare"
    latitude: 67.13387
    longitude: 20.65278
    population: 10362
    dem: 363
    timezone: "Europe/Stockholm"
  - name: "Boden"
    latitude: 65.82518
    longitude: 21.68864
    population: 16830
    dem: 10
    timezone: "Europe/Stockholm"
- name: "Blekinge"
  cities:
  - name: "Soelvesborg"
    latitude: 56.05205
    longitude: 14.57525
    population: 8972
    dem: 15
    timezone: "Europe/Stockholm"
  - name: "Ronneby"
    latitude: 56.20999
    longitude: 15.27602
    population: 12612
    dem: 5
    timezone: "Europe/Stockholm"
  - name: "Olofstroem"
    latitude: 56.2773
    longitude: 14.53402
    population: 7526
    dem: 44
    timezone: "Europe/Stockholm"
  - name: "Karlskrona"
    latitude: 56.16156
    longitude: 15.58661
    population: 36477
    dem: 18
    timezone: "Europe/Stockholm"
  - name: "Karlshamn"
    latitude: 56.1706
    longitude: 14.86188
    population: 20112
    dem: 14
    timezone: "Europe/Stockholm"
- name: "Vaestra Goetalands laen"
  cities:
  - name: "Vargarda"
    latitude: 58.03706
    longitude: 12.80907
    population: 5384
    dem: 109
    timezone: "Europe/Stockholm"
  - name: "Vaenersborg"
    latitude: 58.38075
    longitude: 12.3234
    population: 23119
    dem: 54
    timezone: "Europe/Stockholm"
  - name: "Ulricehamn"
    latitude: 57.79159
    longitude: 13.41422
    population: 10629
    dem: 189
    timezone: "Europe/Stockholm"
  - name: "Uddevalla"
    latitude: 58.34784
    longitude: 11.9424
    population: 34781
    dem: 13
    timezone: "Europe/Stockholm"
  - name: "Trollhaettan"
    latitude: 58.28365
    longitude: 12.28864
    population: 48573
    dem: 49
    timezone: "Europe/Stockholm"
  - name: "Torslanda"
    latitude: 57.72432
    longitude: 11.77013
    population: 10129
    dem: 26
    timezone: "Europe/Stockholm"
  - name: "Tidaholm"
    latitude: 58.18035
    longitude: 13.95824
    population: 8175
    dem: 148
    timezone: "Europe/Stockholm"
  - name: "Tibro"
    latitude: 58.42453
    longitude: 14.16162
    population: 8396
    dem: 117
    timezone: "Europe/Stockholm"
  - name: "Surte"
    latitude: 57.82533
    longitude: 12.01604
    population: 6003
    dem: 8
    timezone: "Europe/Stockholm"
  - name: "Stroemstad"
    latitude: 58.93945
    longitude: 11.1712
    population: 7176
    dem: 5
    timezone: "Europe/Stockholm"
  - name: "Stenungsund"
    latitude: 58.07046
    longitude: 11.8181
    population: 13093
    dem: 6
    timezone: "Europe/Stockholm"
  - name: "Skoevde"
    latitude: 58.39118
    longitude: 13.84506
    population: 36842
    dem: 152
    timezone: "Europe/Stockholm"
  - name: "Skara"
    latitude: 58.38659
    longitude: 13.43836
    population: 11437
    dem: 120
    timezone: "Europe/Stockholm"
  - name: "Partille"
    latitude: 57.7395
    longitude: 12.10642
    population: 28648
    dem: 11
    timezone: "Europe/Stockholm"
  - name: "Moelnlycke"
    latitude: 57.65893
    longitude: 12.11792
    population: 17579
    dem: 55
    timezone: "Europe/Stockholm"
  - name: "Moelndal"
    latitude: 57.6554
    longitude: 12.01378
    population: 59430
    dem: 9
    timezone: "Europe/Stockholm"
  - name: "Mariestad"
    latitude: 58.70971
    longitude: 13.82367
    population: 16122
    dem: 56
    timezone: "Europe/Stockholm"
  - name: "Lysekil"
    latitude: 58.27429
    longitude: 11.43576
    population: 7734
    dem: 12
    timezone: "Europe/Stockholm"
  - name: "Lindome"
    latitude: 57.56667
    longitude: 12.08333
    population: 10942
    dem: 11
    timezone: "Europe/Stockholm"
  - name: "Lidkoeping"
    latitude: 58.50517
    longitude: 13.15765
    population: 22988
    dem: 52
    timezone: "Europe/Stockholm"
  - name: "Lerum"
    latitude: 57.77051
    longitude: 12.26904
    population: 26913
    dem: 20
    timezone: "Europe/Stockholm"
  - name: "Landvetter"
    latitude: 57.68665
    longitude: 12.21169
    population: 8839
    dem: 63
    timezone: "Europe/Stockholm"
  - name: "Kungaelv"
    latitude: 57.87096
    longitude: 11.98054
    population: 24101
    dem: 13
    timezone: "Europe/Stockholm"
  - name: "Kinna"
    latitude: 57.50728
    longitude: 12.69463
    population: 15019
    dem: 65
    timezone: "Europe/Stockholm"
  - name: "Kallered"
    latitude: 57.60992
    longitude: 12.05106
    population: 6784
    dem: 15
    timezone: "Europe/Stockholm"
  - name: "Hoenoe"
    latitude: 57.68972
    longitude: 11.64972
    population: 5293
    dem: 5
    timezone: "Europe/Stockholm"
  - name: "Hjo"
    latitude: 58.30133
    longitude: 14.28784
    population: 6203
    dem: 98
    timezone: "Europe/Stockholm"
  - name: "Grabo"
    latitude: 57.83625
    longitude: 12.29954
    population: 6021
    dem: 73
    timezone: "Europe/Stockholm"
  - name: "Goetene"
    latitude: 58.52824
    longitude: 13.49458
    population: 5027
    dem: 79
    timezone: "Europe/Stockholm"
  - name: "Goeteborg"
    latitude: 57.70716
    longitude: 11.96679
    population: 572799
    dem: 10
    timezone: "Europe/Stockholm"
  - name: "Fristad"
    latitude: 57.82483
    longitude: 13.01064
    population: 5409
    dem: 152
    timezone: "Europe/Stockholm"
  - name: "Falkoeping"
    latitude: 58.17347
    longitude: 13.55068
    population: 17170
    dem: 217
    timezone: "Europe/Stockholm"
  - name: "Boras"
    latitude: 57.72101
    longitude: 12.9401
    population: 71700
    dem: 143
    timezone: "Europe/Stockholm"
  - name: "Bjoerlanda"
    latitude: 57.76667
    longitude: 11.83333
    population: 23088
    dem: 8
    timezone: "Europe/Stockholm"
  - name: "Billdal"
    latitude: 57.56667
    longitude: 11.93333
    population: 14874
    dem: 17
    timezone: "Europe/Stockholm"
  - name: "Amal"
    latitude: 59.051
    longitude: 12.70492
    population: 9373
    dem: 52
    timezone: "Europe/Stockholm"
  - name: "Alingsas"
    latitude: 57.93033
    longitude: 12.53345
    population: 26329
    dem: 66
    timezone: "Europe/Stockholm"
  - name: "Akarp"
    latitude: 58.23333
    longitude: 13.65
    population: 5393
    dem: 161
    timezone: "Europe/Stockholm"
  - name: "Majorna"
    latitude: 57.69195
    longitude: 11.91605
    population: 29254
    elevation: 10
    dem: 8
    timezone: "Europe/Stockholm"
  - name: "Hammarkullen"
    latitude: 57.78049
    longitude: 12.03604
    population: 7914
    dem: 91
    timezone: "Europe/Stockholm"
  - name: "Gardsten"
    latitude: 57.8048
    longitude: 12.02883
    population: 8025
    dem: 103
    timezone: "Europe/Stockholm"
  - name: "Loevgaerdet"
    latitude: 57.81555
    longitude: 12.03861
    population: 7113
    dem: 93
    timezone: "Europe/Stockholm"
- name: "Vaermlands laen"
  cities:
  - name: "Sunne"
    latitude: 59.83764
    longitude: 13.14302
    population: 5026
    dem: 71
    timezone: "Europe/Stockholm"
  - name: "Skoghall"
    latitude: 59.32324
    longitude: 13.46552
    population: 13605
    dem: 56
    timezone: "Europe/Stockholm"
  - name: "Skare"
    latitude: 59.43333
    longitude: 13.43333
    population: 5444
    dem: 52
    timezone: "Europe/Stockholm"
  - name: "Saeffle"
    latitude: 59.13229
    longitude: 12.92888
    population: 9150
    dem: 60
    timezone: "Europe/Stockholm"
  - name: "Kristinehamn"
    latitude: 59.30978
    longitude: 14.10808
    population: 18557
    dem: 55
    timezone: "Europe/Stockholm"
  - name: "Kil"
    latitude: 59.50234
    longitude: 13.31277
    population: 7627
    dem: 101
    timezone: "Europe/Stockholm"
  - name: "Karlstad"
    latitude: 59.3793
    longitude: 13.50357
    population: 61492
    dem: 58
    timezone: "Europe/Stockholm"
  - name: "Grums"
    latitude: 59.35141
    longitude: 13.11105
    population: 5040
    dem: 64
    timezone: "Europe/Stockholm"
  - name: "Forshaga"
    latitude: 59.52541
    longitude: 13.48127
    population: 6361
    dem: 63
    timezone: "Europe/Stockholm"
  - name: "Filipstad"
    latitude: 59.71236
    longitude: 14.16831
    population: 6119
    dem: 137
    timezone: "Europe/Stockholm"
  - name: "Arvika"
    latitude: 59.65528
    longitude: 12.58518
    population: 13926
    dem: 52
    timezone: "Europe/Stockholm"
- name: "OEstergoetlands laen"
  cities:
  - name: "Vadstena"
    latitude: 58.44863
    longitude: 14.88969
    population: 5674
    dem: 97
    timezone: "Europe/Stockholm"
  - name: "Soederkoeping"
    latitude: 58.48057
    longitude: 16.32221
    population: 7418
    dem: 8
    timezone: "Europe/Stockholm"
  - name: "Norrkoeping"
    latitude: 58.59419
    longitude: 16.1826
    population: 93765
    dem: 12
    timezone: "Europe/Stockholm"
  - name: "Motala"
    latitude: 58.53706
    longitude: 15.03649
    population: 30944
    dem: 107
    timezone: "Europe/Stockholm"
  - name: "Mjoelby"
    latitude: 58.32595
    longitude: 15.12365
    population: 12858
    dem: 121
    timezone: "Europe/Stockholm"
  - name: "Malmslaett"
    latitude: 58.41102
    longitude: 15.51647
    population: 5074
    dem: 88
    timezone: "Europe/Stockholm"
  - name: "Ljungsbro"
    latitude: 58.51667
    longitude: 15.5
    population: 6763
    dem: 68
    timezone: "Europe/Stockholm"
  - name: "Linkoeping"
    latitude: 58.41086
    longitude: 15.62157
    population: 106502
    dem: 58
    timezone: "Europe/Stockholm"
  - name: "Krokek"
    latitude: 58.67231
    longitude: 16.36741
    population: 5053
    dem: 45
    timezone: "Europe/Stockholm"
  - name: "Finspang"
    latitude: 58.70578
    longitude: 15.76739
    population: 12807
    dem: 46
    timezone: "Europe/Stockholm"
  - name: "Atvidaberg"
    latitude: 58.20152
    longitude: 15.9977
    population: 7014
    dem: 94
    timezone: "Europe/Stockholm"
  - name: "Aby"
    latitude: 58.66667
    longitude: 16.18333
    population: 6917
    dem: 27
    timezone: "Europe/Stockholm"
- name: "Vaestmanlands laen"
  cities:
  - name: "Vaesteras"
    latitude: 59.61617
    longitude: 16.55276
    population: 117746
    dem: 16
    timezone: "Europe/Stockholm"
  - name: "Surahammar"
    latitude: 59.70725
    longitude: 16.22188
    population: 6270
    dem: 72
    timezone: "Europe/Stockholm"
  - name: "Sala"
    latitude: 59.91993
    longitude: 16.60655
    population: 13087
    dem: 62
    timezone: "Europe/Stockholm"
  - name: "Kungsoer"
    latitude: 59.42245
    longitude: 16.09656
    population: 5885
    dem: 30
    timezone: "Europe/Stockholm"
  - name: "Koeping"
    latitude: 59.51404
    longitude: 15.99255
    population: 18355
    dem: 14
    timezone: "Europe/Stockholm"
  - name: "Hallstahammar"
    latitude: 59.61395
    longitude: 16.22846
    population: 10787
    dem: 35
    timezone: "Europe/Stockholm"
  - name: "Fagersta"
    latitude: 60.00418
    longitude: 15.79316
    population: 11936
    dem: 110
    timezone: "Europe/Stockholm"
  - name: "Arboga"
    latitude: 59.39387
    longitude: 15.83882
    population: 10841
    dem: 18
    timezone: "Europe/Stockholm"
- name: "Dalarna"
  cities:
  - name: "Smedjebacken"
    latitude: 60.14181
    longitude: 15.41416
    population: 5258
    dem: 105
    timezone: "Europe/Stockholm"
  - name: "Raettvik"
    latitude: 60.88632
    longitude: 15.11787
    population: 5160
    elevation: 166
    dem: 174
    timezone: "Europe/Stockholm"
  - name: "Orsa"
    latitude: 61.12034
    longitude: 14.6155
    population: 5349
    dem: 169
    timezone: "Europe/Stockholm"
  - name: "Mora"
    latitude: 61.00704
    longitude: 14.54316
    population: 12602
    dem: 162
    timezone: "Europe/Stockholm"
  - name: "Ludvika"
    latitude: 60.14959
    longitude: 15.18776
    population: 15245
    dem: 143
    timezone: "Europe/Stockholm"
  - name: "Leksand"
    latitude: 60.7303
    longitude: 14.99994
    population: 6107
    dem: 163
    timezone: "Europe/Stockholm"
  - name: "Hedemora"
    latitude: 60.27973
    longitude: 15.98855
    population: 7371
    dem: 101
    timezone: "Europe/Stockholm"
  - name: "Falun"
    latitude: 60.60357
    longitude: 15.62597
    population: 37000
    dem: 97
    timezone: "Europe/Stockholm"
  - name: "Borlaenge"
    latitude: 60.4858
    longitude: 15.43714
    population: 41955
    dem: 124
    timezone: "Europe/Stockholm"
  - name: "Avesta"
    latitude: 60.14274
    longitude: 16.16295
    population: 11949
    dem: 89
    timezone: "Europe/Stockholm"
- name: "Jaemtlands laen"
  cities:
  - name: "OEstersund"
    latitude: 63.1792
    longitude: 14.63566
    population: 49806
    dem: 328
    timezone: "Europe/Stockholm"
- name: "Kronoberg"
  cities:
  - name: "Vaexjoe"
    latitude: 56.87767
    longitude: 14.80906
    population: 65383
    dem: 169
    timezone: "Europe/Stockholm"
  - name: "Ljungby"
    latitude: 56.83324
    longitude: 13.94082
    population: 15785
    dem: 142
    timezone: "Europe/Stockholm"
  - name: "Alvesta"
    latitude: 56.89935
    longitude: 14.55559
    population: 8627
    dem: 152
    timezone: "Europe/Stockholm"
  - name: "AElmhult"
    latitude: 56.55146
    longitude: 14.13827
    population: 9495
    dem: 144
    timezone: "Europe/Stockholm"
- name: "Skane laen"
  cities:
  - name: "Ystad"
    latitude: 55.42966
    longitude: 13.82041
    population: 18806
    dem: 8
    timezone: "Europe/Stockholm"
  - name: "Vellinge"
    latitude: 55.47124
    longitude: 13.01971
    population: 6496
    dem: 13
    timezone: "Europe/Stockholm"
  - name: "Trelleborg"
    latitude: 55.37514
    longitude: 13.15691
    population: 29316
    dem: 8
    timezone: "Europe/Stockholm"
  - name: "Tomelilla"
    latitude: 55.54293
    longitude: 13.9546
    population: 6826
    dem: 65
    timezone: "Europe/Stockholm"
  - name: "Svedala"
    latitude: 55.50788
    longitude: 13.23515
    population: 11796
    dem: 48
    timezone: "Europe/Stockholm"
  - name: "Staffanstorp"
    latitude: 55.64277
    longitude: 13.20638
    population: 15373
    dem: 17
    timezone: "Europe/Stockholm"
  - name: "Soedra Sandby"
    latitude: 55.71677
    longitude: 13.34659
    population: 6306
    dem: 31
    timezone: "Europe/Stockholm"
  - name: "Skurup"
    latitude: 55.47839
    longitude: 13.50186
    population: 8040
    dem: 55
    timezone: "Europe/Stockholm"
  - name: "Skare"
    latitude: 55.38333
    longitude: 13.05
    population: 5173
    dem: 2
    timezone: "Europe/Stockholm"
  - name: "Sjoebo"
    latitude: 55.63135
    longitude: 13.70622
    population: 7910
    dem: 50
    timezone: "Europe/Stockholm"
  - name: "Simrishamn"
    latitude: 55.55653
    longitude: 14.35037
    population: 6779
    dem: 12
    timezone: "Europe/Stockholm"
  - name: "Rydebaeck"
    latitude: 55.96667
    longitude: 12.76667
    population: 5904
    dem: 6
    timezone: "Europe/Stockholm"
  - name: "Perstorp"
    latitude: 56.13829
    longitude: 13.39476
    population: 5847
    dem: 93
    timezone: "Europe/Stockholm"
  - name: "Oxie"
    latitude: 55.54014
    longitude: 13.09605
    population: 12665
    dem: 36
    timezone: "Europe/Stockholm"
  - name: "Osby"
    latitude: 56.38165
    longitude: 13.99364
    population: 7554
    dem: 85
    timezone: "Europe/Stockholm"
  - name: "OErkelljunga"
    latitude: 56.28338
    longitude: 13.27773
    population: 5193
    dem: 72
    timezone: "Europe/Stockholm"
  - name: "OEdakra"
    latitude: 56.10412
    longitude: 12.7477
    population: 5231
    dem: 29
    timezone: "Europe/Stockholm"
  - name: "Malmoe"
    latitude: 55.60587
    longitude: 13.00073
    population: 301706
    elevation: 10
    dem: 12
    timezone: "Europe/Stockholm"
  - name: "Lund"
    latitude: 55.70584
    longitude: 13.19321
    population: 87244
    dem: 51
    timezone: "Europe/Stockholm"
  - name: "Lomma"
    latitude: 55.67244
    longitude: 13.06849
    population: 12368
    dem: 1
    timezone: "Europe/Stockholm"
  - name: "Loeddekoepinge"
    latitude: 55.76667
    longitude: 13.01667
    population: 6481
    dem: 10
    timezone: "Europe/Stockholm"
  - name: "Landskrona"
    latitude: 55.8708
    longitude: 12.83016
    population: 32229
    dem: 7
    timezone: "Europe/Stockholm"
  - name: "Kristianstad"
    latitude: 56.03129
    longitude: 14.15242
    population: 39762
    dem: 8
    timezone: "Europe/Stockholm"
  - name: "Klippan"
    latitude: 56.13559
    longitude: 13.13086
    population: 8411
    dem: 36
    timezone: "Europe/Stockholm"
  - name: "Kaevlinge"
    latitude: 55.79188
    longitude: 13.11021
    population: 9320
    dem: 13
    timezone: "Europe/Stockholm"
  - name: "Hoerby"
    latitude: 55.85238
    longitude: 13.66094
    population: 7459
    dem: 81
    timezone: "Europe/Stockholm"
  - name: "Hoeoer"
    latitude: 55.93444
    longitude: 13.5385
    population: 12152
    dem: 81
    timezone: "Europe/Stockholm"
  - name: "Hoellviken"
    latitude: 55.40982
    longitude: 12.9558
    population: 14889
    dem: 4
    timezone: "Europe/Stockholm"
  - name: "Hoeganaes"
    latitude: 56.19971
    longitude: 12.55795
    population: 14778
    dem: 6
    timezone: "Europe/Stockholm"
  - name: "Helsingborg"
    latitude: 56.04673
    longitude: 12.69437
    population: 104250
    dem: 13
    timezone: "Europe/Stockholm"
  - name: "Haessleholm"
    latitude: 56.15905
    longitude: 13.76638
    population: 19309
    dem: 58
    timezone: "Europe/Stockholm"
  - name: "Esloev"
    latitude: 55.83928
    longitude: 13.30393
    population: 18592
    dem: 68
    timezone: "Europe/Stockholm"
  - name: "Dalby"
    latitude: 55.66655
    longitude: 13.34976
    population: 6302
    dem: 76
    timezone: "Europe/Stockholm"
  - name: "Bunkeflostrand"
    latitude: 55.54478
    longitude: 12.92375
    population: 13048
    dem: 4
    timezone: "Europe/Stockholm"
  - name: "Bromoella"
    latitude: 56.07551
    longitude: 14.46958
    population: 7854
    dem: 10
    timezone: "Europe/Stockholm"
  - name: "Bjuv"
    latitude: 56.08372
    longitude: 12.91914
    population: 10602
    dem: 23
    timezone: "Europe/Stockholm"
  - name: "Bjaerred"
    latitude: 55.71667
    longitude: 13.01667
    population: 9844
    dem: 7
    timezone: "Europe/Stockholm"
  - name: "Bastad"
    latitude: 56.42689
    longitude: 12.85339
    population: 5146
    dem: 14
    timezone: "Europe/Stockholm"
  - name: "Astorp"
    latitude: 56.13566
    longitude: 12.9443
    population: 9215
    dem: 33
    timezone: "Europe/Stockholm"
  - name: "Arloev"
    latitude: 55.63248
    longitude: 13.07141
    population: 9108
    dem: 7
    timezone: "Europe/Stockholm"
  - name: "AEngelholm"
    latitude: 56.2428
    longitude: 12.86219
    population: 23240
    dem: 11
    timezone: "Europe/Stockholm"
  - name: "Akarp"
    latitude: 55.65396
    longitude: 13.11107
    population: 5959
    dem: 8
    timezone: "Europe/Stockholm"
  - name: "Ahus"
    latitude: 55.91667
    longitude: 14.28333
    population: 9840
    dem: 1
    timezone: "Europe/Stockholm"
  - name: "Skanoer med Falsterbo"
    latitude: 55.4
    longitude: 12.85
    population: 7077
    dem: 4
    timezone: "Europe/Stockholm"
- name: "Uppsala"
  cities:
  - name: "Uppsala"
    latitude: 59.85882
    longitude: 17.63889
    population: 149245
    dem: 20
    timezone: "Europe/Stockholm"
  - name: "Tierp"
    latitude: 60.34269
    longitude: 17.51812
    population: 5826
    dem: 19
    timezone: "Europe/Stockholm"
  - name: "Storvreta"
    latitude: 59.95933
    longitude: 17.70588
    population: 6340
    dem: 39
    timezone: "Europe/Stockholm"
  - name: "Skutskaer"
    latitude: 60.62507
    longitude: 17.41552
    population: 6279
    dem: 3
    timezone: "Europe/Stockholm"
  - name: "Saevja"
    latitude: 59.81872
    longitude: 17.69958
    population: 9723
    dem: 36
    timezone: "Europe/Stockholm"
  - name: "Knivsta"
    latitude: 59.72564
    longitude: 17.78753
    population: 7977
    dem: 18
    timezone: "Europe/Stockholm"
  - name: "Gamla Uppsala"
    latitude: 59.89817
    longitude: 17.63386
    population: 16231
    dem: 34
    timezone: "Europe/Stockholm"
  - name: "Enkoeping"
    latitude: 59.63607
    longitude: 17.07768
    population: 22553
    dem: 16
    timezone: "Europe/Stockholm"
  - name: "Balsta"
    latitude: 59.5671
    longitude: 17.52781
    population: 13138
    dem: 14
    timezone: "Europe/Stockholm"
- name: "OErebro laen"
  cities:
  - name: "OErebro"
    latitude: 59.27412
    longitude: 15.2066
    population: 115765
    dem: 35
    timezone: "Europe/Stockholm"
  - name: "Nora"
    latitude: 59.51926
    longitude: 15.03979
    population: 6597
    dem: 104
    timezone: "Europe/Stockholm"
  - name: "Lindesberg"
    latitude: 59.59202
    longitude: 15.2304
    population: 9571
    dem: 74
    timezone: "Europe/Stockholm"
  - name: "Kumla"
    latitude: 59.1277
    longitude: 15.14341
    population: 16663
    dem: 57
    timezone: "Europe/Stockholm"
  - name: "Karlskoga"
    latitude: 59.32667
    longitude: 14.52386
    population: 27490
    dem: 119
    timezone: "Europe/Stockholm"
  - name: "Hallsberg"
    latitude: 59.06463
    longitude: 15.10993
    population: 8146
    dem: 55
    timezone: "Europe/Stockholm"
  - name: "Degerfors"
    latitude: 59.23797
    longitude: 14.43077
    population: 7190
    dem: 112
    timezone: "Europe/Stockholm"
- name: "Kalmar"
  cities:
  - name: "Vimmerby"
    latitude: 57.66588
    longitude: 15.85515
    population: 8037
    dem: 124
    timezone: "Europe/Stockholm"
  - name: "Vaestervik"
    latitude: 57.7584
    longitude: 16.63733
    population: 21178
    dem: 11
    timezone: "Europe/Stockholm"
  - name: "Sodra Sandby"
    latitude: 56.56667
    longitude: 16.61667
    population: 5941
    dem: 13
    timezone: "Europe/Stockholm"
  - name: "Oskarshamn"
    latitude: 57.26455
    longitude: 16.44837
    population: 18287
    dem: 22
    timezone: "Europe/Stockholm"
  - name: "Nybro"
    latitude: 56.74461
    longitude: 15.90714
    population: 13039
    dem: 85
    timezone: "Europe/Stockholm"
  - name: "Lindsdal"
    latitude: 56.73333
    longitude: 16.3
    population: 5709
    dem: 18
    timezone: "Europe/Stockholm"
  - name: "Kalmar"
    latitude: 56.66157
    longitude: 16.36163
    population: 38408
    dem: 7
    timezone: "Europe/Stockholm"
  - name: "Hultsfred"
    latitude: 57.48815
    longitude: 15.84357
    population: 5510
    dem: 104
    timezone: "Europe/Stockholm"
  - name: "Faerjestaden"
    latitude: 56.6499
    longitude: 16.46859
    population: 5645
    dem: 3
    timezone: "Europe/Stockholm"
- name: "Vaesternorrlands laen"
  cities:
  - name: "Timra"
    latitude: 62.48654
    longitude: 17.32613
    population: 10495
    dem: 1
    timezone: "Europe/Stockholm"
  - name: "Sundsvall"
    latitude: 62.39129
    longitude: 17.3063
    population: 57606
    dem: 26
    timezone: "Europe/Stockholm"
  - name: "Solleftea"
    latitude: 63.16667
    longitude: 17.26667
    population: 7399
    dem: 2
    timezone: "Europe/Stockholm"
  - name: "OErnskoeldsvik"
    latitude: 63.29091
    longitude: 18.71525
    population: 32493
    dem: 1
    timezone: "Europe/Stockholm"
  - name: "Kvissleby"
    latitude: 62.29361
    longitude: 17.375
    population: 8785
    dem: 1
    timezone: "Europe/Stockholm"
  - name: "Kramfors"
    latitude: 62.93161
    longitude: 17.77646
    population: 6582
    dem: 1
    timezone: "Europe/Stockholm"
  - name: "Haernoesand"
    latitude: 62.63228
    longitude: 17.93794
    population: 18426
    dem: 25
    timezone: "Europe/Stockholm"
  - name: "Vi"
    latitude: 62.43333
    longitude: 17.41667
    population: 5841
    dem: 65
    timezone: "Europe/Stockholm"
- name: "Soedermanlands laen"
  cities:
  - name: "Trosa"
    latitude: 58.89621
    longitude: 17.54812
    population: 5836
    dem: 8
    timezone: "Europe/Stockholm"
  - name: "Torshaella"
    latitude: 59.41667
    longitude: 16.46667
    population: 8928
    dem: 13
    timezone: "Europe/Stockholm"
  - name: "Straengnaes"
    latitude: 59.37741
    longitude: 17.03119
    population: 13693
    dem: 14
    timezone: "Europe/Stockholm"
  - name: "Oxeloesund"
    latitude: 58.67057
    longitude: 17.10152
    population: 11157
    dem: 11
    timezone: "Europe/Stockholm"
  - name: "Nykoeping"
    latitude: 58.753
    longitude: 17.00788
    population: 32224
    dem: 20
    timezone: "Europe/Stockholm"
  - name: "Katrineholm"
    latitude: 58.99587
    longitude: 16.20721
    population: 23283
    dem: 51
    timezone: "Europe/Stockholm"
  - name: "Gnesta"
    latitude: 59.04751
    longitude: 17.31191
    population: 5772
    dem: 19
    timezone: "Europe/Stockholm"
  - name: "Flen"
    latitude: 59.05834
    longitude: 16.58781
    population: 6594
    dem: 37
    timezone: "Europe/Stockholm"
  - name: "Eskilstuna"
    latitude: 59.36661
    longitude: 16.5077
    population: 67359
    dem: 27
    timezone: "Europe/Stockholm"
- name: "Gaevleborgs laen"
  cities:
  - name: "Valbo"
    latitude: 60.65
    longitude: 17.03333
    population: 7147
    dem: 17
    timezone: "Europe/Stockholm"
  - name: "Soederhamn"
    latitude: 61.30373
    longitude: 17.05921
    population: 12259
    dem: 2
    timezone: "Europe/Stockholm"
  - name: "Sandviken"
    latitude: 60.61667
    longitude: 16.76667
    population: 24724
    dem: 66
    timezone: "Europe/Stockholm"
  - name: "Ljusdal"
    latitude: 61.82883
    longitude: 16.09126
    population: 7259
    dem: 132
    timezone: "Europe/Stockholm"
  - name: "Hudiksvall"
    latitude: 61.72744
    longitude: 17.10558
    population: 16081
    dem: 2
    timezone: "Europe/Stockholm"
  - name: "Hofors"
    latitude: 60.54573
    longitude: 16.28668
    population: 6090
    dem: 114
    timezone: "Europe/Stockholm"
  - name: "Gaevle"
    latitude: 60.67452
    longitude: 17.14174
    population: 74884
    dem: 3
    timezone: "Europe/Stockholm"
  - name: "Bollnaes"
    latitude: 61.34817
    longitude: 16.39464
    population: 13716
    dem: 38
    timezone: "Europe/Stockholm"
