---
name: "Thailand"
iso: "TH"
iso3: "THA"
code: "764"
capital: "Bangkok"
area: 514000.0
population: 67089500
continent: "AS"
currencyCode: "THB"
currencyName: "Baht"
phone: "66"
postalCodeFormat: "#####"
postalCodeRegex: "^(\\d{5})$"
languages: "th,en"
neighbours: "LA,MM,KH,MY"
regions:
- name: "Changwat Lamphun"
  cities:
  - name: "Pa Sang"
    latitude: 18.52617
    longitude: 98.93936
    population: 15607
    dem: 295
    timezone: "Asia/Bangkok"
  - name: "Mae Tha"
    latitude: 18.46456
    longitude: 99.14026
    population: 10048
    dem: 406
    timezone: "Asia/Bangkok"
  - name: "Lamphun"
    latitude: 18.58054
    longitude: 99.00745
    population: 43196
    dem: 296
    timezone: "Asia/Bangkok"
- name: "Changwat Kamphaeng Phet"
  cities:
  - name: "Lan Krabue"
    latitude: 16.60003
    longitude: 99.84889
    population: 7633
    dem: 58
    timezone: "Asia/Bangkok"
  - name: "Khanu Woralaksaburi"
    latitude: 16.0617
    longitude: 99.86058
    population: 21889
    dem: 52
    timezone: "Asia/Bangkok"
  - name: "Kamphaeng Phet"
    latitude: 16.48344
    longitude: 99.52153
    population: 58787
    dem: 83
    timezone: "Asia/Bangkok"
- name: "Changwat Chaiyaphum"
  cities:
  - name: "Phu Khiao"
    latitude: 16.3765
    longitude: 102.12853
    population: 17122
    dem: 213
    timezone: "Asia/Bangkok"
  - name: "Kaset Sombun"
    latitude: 16.28053
    longitude: 101.95422
    population: 16996
    dem: 234
    timezone: "Asia/Bangkok"
  - name: "Kaeng Khro"
    latitude: 16.10864
    longitude: 102.25808
    population: 29056
    dem: 205
    timezone: "Asia/Bangkok"
  - name: "Chaiyaphum"
    latitude: 15.81047
    longitude: 102.02881
    population: 58350
    dem: 188
    timezone: "Asia/Bangkok"
  - name: "Bamnet Narong"
    latitude: 15.50189
    longitude: 101.68982
    population: 14890
    dem: 213
    timezone: "Asia/Bangkok"
- name: "Changwat Udon Thani"
  cities:
  - name: "Ban Nong Wua So"
    latitude: 17.2675
    longitude: 103.22472
    population: 21722
    dem: 181
    timezone: "Asia/Bangkok"
  - name: "Nong Wua So"
    latitude: 17.16261
    longitude: 102.57272
    population: 7503
    dem: 239
    timezone: "Asia/Bangkok"
  - name: "Udon Thani"
    latitude: 17.41567
    longitude: 102.78589
    population: 247231
    dem: 177
    timezone: "Asia/Bangkok"
  - name: "Nam Som"
    latitude: 17.77036
    longitude: 102.18947
    population: 19324
    dem: 231
    timezone: "Asia/Bangkok"
  - name: "Kut Chap"
    latitude: 17.4257
    longitude: 102.56692
    population: 24696
    dem: 197
    timezone: "Asia/Bangkok"
  - name: "Ban Phan Don"
    latitude: 17.14272
    longitude: 102.97261
    population: 29211
    dem: 180
    timezone: "Asia/Bangkok"
  - name: "Ban Dung"
    latitude: 17.699
    longitude: 103.25957
    population: 19479
    dem: 178
    timezone: "Asia/Bangkok"
- name: "Changwat Tak"
  cities:
  - name: "Tak"
    latitude: 16.86968
    longitude: 99.12898
    population: 24149
    dem: 113
    timezone: "Asia/Bangkok"
  - name: "Mae Sot"
    latitude: 16.71667
    longitude: 98.56667
    population: 44563
    dem: 213
    timezone: "Asia/Bangkok"
  - name: "Mae Ramat"
    latitude: 16.98403
    longitude: 98.51665
    population: 17316
    dem: 184
    timezone: "Asia/Bangkok"
  - name: "Ban Tak"
    latitude: 17.04325
    longitude: 99.08128
    population: 18384
    dem: 148
    timezone: "Asia/Bangkok"
- name: "Changwat Phangnga"
  cities:
  - name: "Phang Nga"
    latitude: 8.45091
    longitude: 98.52985
    population: 9676
    dem: 15
    timezone: "Asia/Bangkok"
  - name: "Ban Phru Nai"
    latitude: 7.95458
    longitude: 98.58989
    population: 5713
    dem: 26
    timezone: "Asia/Bangkok"
  - name: "Ban Ao Nang"
    latitude: 8.0458
    longitude: 98.81035
    population: 8000
    dem: 10
    timezone: "Asia/Bangkok"
- name: "Changwat Chumphon"
  cities:
  - name: "Lang Suan"
    latitude: 9.94561
    longitude: 99.07847
    population: 16142
    dem: 11
    timezone: "Asia/Bangkok"
  - name: "Chumphon"
    latitude: 10.4957
    longitude: 99.17971
    population: 55835
    dem: 8
    timezone: "Asia/Bangkok"
  - name: "Ban Nam Yuen"
    latitude: 9.87686
    longitude: 98.86592
    population: 12335
    dem: 48
    timezone: "Asia/Bangkok"
- name: "Changwat Nakhon Nayok"
  cities:
  - name: "Nakhon Nayok"
    latitude: 14.20463
    longitude: 101.21295
    population: 21309
    dem: 12
    timezone: "Asia/Bangkok"
- name: "Changwat Yala"
  cities:
  - name: "Yala"
    latitude: 6.53995
    longitude: 101.28128
    population: 93558
    dem: 24
    timezone: "Asia/Bangkok"
  - name: "Betong"
    latitude: 5.77434
    longitude: 101.07231
    population: 29604
    dem: 269
    timezone: "Asia/Bangkok"
- name: "Changwat Nakhon Si Thammarat"
  cities:
  - name: "Tham Phannara"
    latitude: 8.42045
    longitude: 99.39517
    population: 7119
    dem: 54
    timezone: "Asia/Bangkok"
  - name: "Thung Song"
    latitude: 8.16453
    longitude: 99.68039
    population: 28223
    dem: 57
    timezone: "Asia/Bangkok"
  - name: "Ron Phibun"
    latitude: 8.17911
    longitude: 99.85425
    population: 26621
    elevation: 37
    dem: 27
    timezone: "Asia/Bangkok"
  - name: "Nakhon Si Thammarat"
    latitude: 8.43333
    longitude: 99.96667
    population: 120836
    dem: 8
    timezone: "Asia/Bangkok"
  - name: "Chawang"
    latitude: 8.42614
    longitude: 99.50472
    population: 10923
    dem: 33
    timezone: "Asia/Bangkok"
  - name: "Pak Phanang"
    latitude: 8.35109
    longitude: 100.20195
    population: 25014
    dem: 4
    timezone: "Asia/Bangkok"
- name: "Changwat Nong Bua Lamphu"
  cities:
  - name: "Na Klang"
    latitude: 17.3072
    longitude: 102.18886
    population: 31024
    dem: 253
    timezone: "Asia/Bangkok"
  - name: "Si Bun Rueang"
    latitude: 16.96705
    longitude: 102.27607
    population: 12842
    dem: 211
    timezone: "Asia/Bangkok"
  - name: "Non Sang"
    latitude: 16.8687
    longitude: 102.56642
    population: 11819
    dem: 186
    timezone: "Asia/Bangkok"
  - name: "Nong Bua Lamphu"
    latitude: 17.20406
    longitude: 102.44068
    population: 34401
    dem: 217
    timezone: "Asia/Bangkok"
- name: "Changwat Chon Buri"
  cities:
  - name: "Si Racha"
    latitude: 13.17372
    longitude: 100.93111
    population: 178916
    dem: 13
    timezone: "Asia/Bangkok"
  - name: "Sattahip"
    latitude: 12.66644
    longitude: 100.90073
    population: 65444
    dem: 4
    timezone: "Asia/Bangkok"
  - name: "Phan Thong"
    latitude: 13.46804
    longitude: 101.09532
    population: 18708
    dem: 5
    timezone: "Asia/Bangkok"
  - name: "Phanat Nikhom"
    latitude: 13.44581
    longitude: 101.18445
    population: 21924
    dem: 12
    timezone: "Asia/Bangkok"
  - name: "Chon Buri"
    latitude: 13.3622
    longitude: 100.98345
    population: 219164
    dem: 8
    timezone: "Asia/Bangkok"
  - name: "Pattaya"
    latitude: 12.93333
    longitude: 100.88333
    population: 97296
    dem: 9
    timezone: "Asia/Bangkok"
  - name: "Bang Lamung"
    latitude: 13.04704
    longitude: 100.92891
    population: 39620
    dem: 7
    timezone: "Asia/Bangkok"
  - name: "Ban Bueng"
    latitude: 13.311
    longitude: 101.11214
    population: 23509
    dem: 67
    timezone: "Asia/Bangkok"
  - name: "Ban Talat Bueng"
    latitude: 13.07147
    longitude: 101.00314
    population: 26113
    dem: 42
    timezone: "Asia/Bangkok"
- name: "Changwat Ratchaburi"
  cities:
  - name: "Ratchaburi"
    latitude: 13.53671
    longitude: 99.81712
    population: 92448
    dem: 8
    timezone: "Asia/Bangkok"
  - name: "Photharam"
    latitude: 13.69234
    longitude: 99.84969
    population: 36248
    dem: 12
    timezone: "Asia/Bangkok"
  - name: "Damnoen Saduak"
    latitude: 13.51825
    longitude: 99.95469
    population: 23296
    dem: 6
    timezone: "Asia/Bangkok"
  - name: "Chom Bueng"
    latitude: 13.62
    longitude: 99.59169
    population: 15143
    dem: 89
    timezone: "Asia/Bangkok"
  - name: "Ban Pong"
    latitude: 13.81629
    longitude: 99.87739
    population: 57559
    dem: 16
    timezone: "Asia/Bangkok"
  - name: "Bang Phae"
    latitude: 13.69157
    longitude: 99.92982
    population: 29548
    dem: 11
    timezone: "Asia/Bangkok"
- name: "Changwat Nakhon Phanom"
  cities:
  - name: "That Phanom"
    latitude: 16.93636
    longitude: 104.71039
    population: 14424
    dem: 147
    timezone: "Asia/Bangkok"
  - name: "Na Wa"
    latitude: 17.4897
    longitude: 104.10056
    population: 12989
    dem: 160
    timezone: "Asia/Bangkok"
  - name: "Nakhon Phanom"
    latitude: 17.41081
    longitude: 104.77856
    population: 34595
    dem: 154
    timezone: "Asia/Bangkok"
- name: "Changwat Satun"
  cities:
  - name: "Satun"
    latitude: 6.62314
    longitude: 100.06676
    population: 34544
    dem: 15
    timezone: "Asia/Bangkok"
- name: "Changwat Narathiwat"
  cities:
  - name: "Tak Bai"
    latitude: 6.25947
    longitude: 102.05461
    population: 17241
    dem: 9
    timezone: "Asia/Bangkok"
  - name: "Ban Su-ngai Pa Di"
    latitude: 6.07239
    longitude: 101.87172
    population: 14274
    dem: 29
    timezone: "Asia/Bangkok"
  - name: "Su-ngai Kolok"
    latitude: 6.02977
    longitude: 101.96586
    population: 42776
    dem: 19
    timezone: "Asia/Bangkok"
  - name: "Ra-ngae"
    latitude: 6.29678
    longitude: 101.72844
    population: 16862
    dem: 25
    timezone: "Asia/Bangkok"
  - name: "Narathiwat"
    latitude: 6.42639
    longitude: 101.82308
    population: 47771
    dem: 9
    timezone: "Asia/Bangkok"
- name: "Changwat Roi Et"
  cities:
  - name: "Suwannaphum"
    latitude: 15.60348
    longitude: 103.80207
    population: 12221
    dem: 136
    timezone: "Asia/Bangkok"
  - name: "Roi Et"
    latitude: 16.0567
    longitude: 103.65309
    population: 39328
    dem: 148
    timezone: "Asia/Bangkok"
  - name: "Waeng"
    latitude: 16.30006
    longitude: 103.97786
    population: 13317
    dem: 148
    timezone: "Asia/Bangkok"
  - name: "Pho Chai"
    latitude: 16.32827
    longitude: 103.77033
    population: 13671
    dem: 162
    timezone: "Asia/Bangkok"
  - name: "Moeiwadi"
    latitude: 16.38944
    longitude: 104.1572
    population: 5609
    dem: 176
    timezone: "Asia/Bangkok"
  - name: "Kaset Wisai"
    latitude: 15.65558
    longitude: 103.58361
    population: 18569
    dem: 145
    timezone: "Asia/Bangkok"
  - name: "Ban Selaphum"
    latitude: 16.01667
    longitude: 103.95
    population: 17412
    dem: 133
    timezone: "Asia/Bangkok"
- name: "Changwat Phrae"
  cities:
  - name: "Long"
    latitude: 18.07422
    longitude: 99.83073
    population: 11802
    dem: 139
    timezone: "Asia/Bangkok"
  - name: "Rong Kwang"
    latitude: 18.33903
    longitude: 100.31736
    population: 12087
    dem: 212
    timezone: "Asia/Bangkok"
  - name: "Phrae"
    latitude: 18.14589
    longitude: 100.14103
    population: 38538
    dem: 162
    timezone: "Asia/Bangkok"
  - name: "Den Chai"
    latitude: 17.98372
    longitude: 100.05217
    population: 17019
    dem: 159
    timezone: "Asia/Bangkok"
- name: "Changwat Lop Buri"
  cities:
  - name: "Lop Buri"
    latitude: 14.79808
    longitude: 100.65397
    population: 57761
    dem: 20
    timezone: "Asia/Bangkok"
  - name: "Chai Badan"
    latitude: 15.2
    longitude: 101.13333
    population: 25196
    dem: 44
    timezone: "Asia/Bangkok"
- name: "Changwat Samut Sakhon"
  cities:
  - name: "Samut Sakhon"
    latitude: 13.54753
    longitude: 100.27362
    population: 63498
    dem: 14
    timezone: "Asia/Bangkok"
  - name: "Krathum Baen"
    latitude: 13.6533
    longitude: 100.25972
    population: 72819
    dem: 6
    timezone: "Asia/Bangkok"
  - name: "Ban Phaeo"
    latitude: 13.59072
    longitude: 100.10748
    population: 41904
    dem: 6
    timezone: "Asia/Bangkok"
- name: "Changwat Phichit"
  cities:
  - name: "Wang Sai Phun"
    latitude: 16.3885
    longitude: 100.53801
    population: 8899
    dem: 50
    timezone: "Asia/Bangkok"
  - name: "Thap Khlo"
    latitude: 16.16003
    longitude: 100.59656
    population: 15528
    dem: 51
    timezone: "Asia/Bangkok"
  - name: "Taphan Hin"
    latitude: 16.22095
    longitude: 100.41978
    population: 21895
    dem: 36
    timezone: "Asia/Bangkok"
  - name: "Phichit"
    latitude: 16.44184
    longitude: 100.34879
    population: 35760
    dem: 44
    timezone: "Asia/Bangkok"
  - name: "Bang Mun Nak"
    latitude: 16.02781
    longitude: 100.37917
    population: 15616
    dem: 33
    timezone: "Asia/Bangkok"
- name: "Changwat Buri Ram"
  cities:
  - name: "Satuek"
    latitude: 15.29703
    longitude: 103.29192
    population: 11481
    dem: 135
    timezone: "Asia/Bangkok"
  - name: "Prakhon Chai"
    latitude: 14.60592
    longitude: 103.12081
    population: 15564
    dem: 166
    timezone: "Asia/Bangkok"
  - name: "Nong Ki"
    latitude: 14.68679
    longitude: 102.538
    population: 13592
    dem: 219
    timezone: "Asia/Bangkok"
  - name: "Nang Rong"
    latitude: 14.6377
    longitude: 102.79138
    population: 21961
    dem: 192
    timezone: "Asia/Bangkok"
  - name: "Buri Ram"
    latitude: 14.99433
    longitude: 103.10392
    population: 28283
    dem: 158
    timezone: "Asia/Bangkok"
- name: "Bangkok"
  cities:
  - name: "Bangkok"
    latitude: 13.75398
    longitude: 100.50144
    population: 5104476
    dem: 12
    timezone: "Asia/Bangkok"
- name: "Changwat Trat"
  cities:
  - name: "Trat"
    latitude: 12.24364
    longitude: 102.51514
    population: 21590
    dem: 7
    timezone: "Asia/Bangkok"
  - name: "Bo Rai"
    latitude: 12.57283
    longitude: 102.53714
    population: 13620
    dem: 29
    timezone: "Asia/Bangkok"
- name: "Changwat Mae Hong Son"
  cities:
  - name: "Mae Hong Son"
    latitude: 19.30029
    longitude: 97.96852
    population: 9109
    dem: 258
    timezone: "Asia/Bangkok"
- name: "Changwat Nakhon Sawan"
  cities:
  - name: "Lat Yao"
    latitude: 15.751
    longitude: 99.78925
    population: 17506
    dem: 62
    timezone: "Asia/Bangkok"
  - name: "Phayuha Khiri"
    latitude: 15.45525
    longitude: 100.13533
    population: 12271
    dem: 27
    timezone: "Asia/Bangkok"
  - name: "Phai Sali"
    latitude: 15.60003
    longitude: 100.64937
    population: 13088
    dem: 55
    timezone: "Asia/Bangkok"
  - name: "Nong Bua"
    latitude: 15.86458
    longitude: 100.58581
    population: 14160
    dem: 43
    timezone: "Asia/Bangkok"
  - name: "Nakhon Sawan"
    latitude: 15.70472
    longitude: 100.13717
    population: 91802
    dem: 31
    timezone: "Asia/Bangkok"
- name: "Changwat Saraburi"
  cities:
  - name: "Saraburi"
    latitude: 14.53333
    longitude: 100.91667
    population: 67763
    dem: 22
    timezone: "Asia/Bangkok"
  - name: "Phra Phutthabat"
    latitude: 14.72526
    longitude: 100.79536
    population: 57008
    dem: 50
    timezone: "Asia/Bangkok"
  - name: "Nong Khae"
    latitude: 14.34062
    longitude: 100.86733
    population: 41067
    dem: 9
    timezone: "Asia/Bangkok"
  - name: "Kaeng Khoi"
    latitude: 14.58617
    longitude: 100.99758
    population: 30332
    dem: 23
    timezone: "Asia/Bangkok"
  - name: "Ban Mo"
    latitude: 14.61544
    longitude: 100.72731
    population: 15959
    dem: 13
    timezone: "Asia/Bangkok"
- name: "Changwat Khon Kaen"
  cities:
  - name: "Phon"
    latitude: 15.816
    longitude: 102.59981
    population: 14596
    dem: 177
    timezone: "Asia/Bangkok"
  - name: "Kranuan"
    latitude: 16.70672
    longitude: 103.07878
    population: 13475
    dem: 218
    timezone: "Asia/Bangkok"
  - name: "Khon Kaen"
    latitude: 16.44671
    longitude: 102.833
    population: 147579
    dem: 167
    timezone: "Asia/Bangkok"
  - name: "Chum Phae"
    latitude: 16.5443
    longitude: 102.09924
    population: 46335
    dem: 227
    timezone: "Asia/Bangkok"
  - name: "Ban Phai"
    latitude: 16.05997
    longitude: 102.73097
    population: 35583
    dem: 174
    timezone: "Asia/Bangkok"
- name: "Changwat Nan"
  cities:
  - name: "Nan"
    latitude: 18.78378
    longitude: 100.77899
    population: 24670
    dem: 205
    timezone: "Asia/Bangkok"
  - name: "Chiang Klang"
    latitude: 19.29378
    longitude: 100.86169
    population: 13244
    dem: 266
    timezone: "Asia/Bangkok"
- name: "Changwat Yasothon"
  cities:
  - name: "Yasothon"
    latitude: 15.79408
    longitude: 104.1451
    population: 21643
    dem: 135
    timezone: "Asia/Bangkok"
- name: "Changwat Uttaradit"
  cities:
  - name: "Uttaradit"
    latitude: 17.62557
    longitude: 100.09421
    population: 58313
    dem: 68
    timezone: "Asia/Bangkok"
- name: "Changwat Phatthalung"
  cities:
  - name: "Phatthalung"
    latitude: 7.61786
    longitude: 100.07792
    population: 43522
    dem: 14
    timezone: "Asia/Bangkok"
- name: "Changwat Ubon Ratchathani"
  cities:
  - name: "Warin Chamrap"
    latitude: 15.19319
    longitude: 104.8628
    population: 43102
    dem: 136
    timezone: "Asia/Bangkok"
  - name: "Ubon Ratchathani"
    latitude: 15.23844
    longitude: 104.84866
    population: 122533
    dem: 125
    timezone: "Asia/Bangkok"
  - name: "Phibun Mangsahan"
    latitude: 15.24467
    longitude: 105.22908
    population: 19883
    dem: 127
    timezone: "Asia/Bangkok"
  - name: "Det Udom"
    latitude: 14.90598
    longitude: 105.07836
    population: 35669
    dem: 137
    timezone: "Asia/Bangkok"
  - name: "Sawang Wirawong"
    latitude: 15.24158
    longitude: 105.0922
    population: 7773
    dem: 138
    timezone: "Asia/Bangkok"
- name: "Changwat Surat Thani"
  cities:
  - name: "Don Sak"
    latitude: 9.31676
    longitude: 99.69184
    population: 12422
    dem: 11
    timezone: "Asia/Bangkok"
  - name: "Wiang Sa"
    latitude: 8.63585
    longitude: 99.3666
    population: 11933
    dem: 41
    timezone: "Asia/Bangkok"
  - name: "Surat Thani"
    latitude: 9.14011
    longitude: 99.33311
    population: 127201
    dem: 10
    timezone: "Asia/Bangkok"
  - name: "Tha Kham"
    latitude: 9.11072
    longitude: 99.23208
    population: 25810
    dem: 10
    timezone: "Asia/Bangkok"
  - name: "Tha Khanon"
    latitude: 9.0302
    longitude: 98.95286
    population: 7300
    dem: 22
    timezone: "Asia/Bangkok"
  - name: "Chaiya"
    latitude: 9.38625
    longitude: 99.19861
    population: 12223
    dem: 11
    timezone: "Asia/Bangkok"
  - name: "Chai Buri"
    latitude: 8.46222
    longitude: 99.07631
    population: 6126
    dem: 46
    timezone: "Asia/Bangkok"
  - name: "Ko Samui"
    latitude: 9.53567
    longitude: 99.93567
    population: 50000
    dem: 8
    timezone: "Asia/Bangkok"
  - name: "Ban Na San"
    latitude: 8.80036
    longitude: 99.36372
    population: 21900
    dem: 40
    timezone: "Asia/Bangkok"
  - name: "Ko Pha Ngan"
    latitude: 9.75778
    longitude: 100.02914
    population: 11846
    dem: 430
    timezone: "Asia/Bangkok"
- name: "Changwat Samut Songkhram"
  cities:
  - name: "Samut Songkhram"
    latitude: 13.41456
    longitude: 100.00264
    population: 35065
    dem: 7
    timezone: "Asia/Bangkok"
- name: "Changwat Chanthaburi"
  cities:
  - name: "Tha Mai"
    latitude: 12.62137
    longitude: 102.00481
    population: 22445
    dem: 4
    timezone: "Asia/Bangkok"
  - name: "Pong Nam Ron"
    latitude: 12.90575
    longitude: 102.26225
    population: 8878
    dem: 252
    timezone: "Asia/Bangkok"
  - name: "Laem Sing"
    latitude: 12.48164
    longitude: 102.07375
    population: 16066
    dem: 6
    timezone: "Asia/Bangkok"
  - name: "Khlung"
    latitude: 12.45467
    longitude: 102.22142
    population: 13286
    dem: 8
    timezone: "Asia/Bangkok"
  - name: "Chanthaburi"
    latitude: 12.60961
    longitude: 102.10447
    population: 99819
    dem: 7
    timezone: "Asia/Bangkok"
- name: "Changwat Bueng Kan"
  cities:
  - name: "Seka"
    latitude: 17.92851
    longitude: 103.95519
    population: 16493
    dem: 158
    timezone: "Asia/Bangkok"
  - name: "Bueng Kan"
    latitude: 18.36303
    longitude: 103.65194
    population: 9712
    dem: 160
    timezone: "Asia/Bangkok"
- name: "Changwat Pattani"
  cities:
  - name: "Yaring"
    latitude: 6.86617
    longitude: 101.36894
    population: 31111
    dem: 6
    timezone: "Asia/Bangkok"
  - name: "Sai Buri"
    latitude: 6.70131
    longitude: 101.61675
    population: 14356
    dem: 12
    timezone: "Asia/Bangkok"
  - name: "Pattani"
    latitude: 6.86814
    longitude: 101.25009
    population: 43690
    dem: 8
    timezone: "Asia/Bangkok"
  - name: "Nong Chik"
    latitude: 6.84356
    longitude: 101.17803
    population: 11385
    dem: 6
    timezone: "Asia/Bangkok"
- name: "Changwat Samut Prakan"
  cities:
  - name: "Ban Khlong Bang Sao Thong"
    latitude: 13.64172
    longitude: 100.83272
    population: 31153
    dem: 4
    timezone: "Asia/Bangkok"
  - name: "Samut Prakan"
    latitude: 13.59934
    longitude: 100.59675
    population: 388920
    dem: 5
    timezone: "Asia/Bangkok"
  - name: "Phra Pradaeng"
    latitude: 13.65855
    longitude: 100.53362
    population: 171333
    dem: 5
    timezone: "Asia/Bangkok"
  - name: "Bang Bo District"
    latitude: 13.58333
    longitude: 100.81667
    population: 28376
    dem: 4
    timezone: "Asia/Bangkok"
- name: "Changwat Krabi"
  cities:
  - name: "Krabi"
    latitude: 8.07257
    longitude: 98.91052
    population: 31219
    dem: 14
    timezone: "Asia/Bangkok"
  - name: "Ko Lanta"
    latitude: 7.53362
    longitude: 99.08647
    population: 6090
    dem: 51
    timezone: "Asia/Bangkok"
  - name: "Nuea Khlong"
    latitude: 8.07143
    longitude: 98.99933
    population: 12217
    dem: 10
    timezone: "Asia/Bangkok"
  - name: "Ao Luek"
    latitude: 8.37803
    longitude: 98.72117
    population: 9628
    dem: 15
    timezone: "Asia/Bangkok"
  - name: "Saladan"
    latitude: 7.61342
    longitude: 99.03651
    population: 7946
    dem: 14
    timezone: "Asia/Bangkok"
- name: "Changwat Prachuap Khiri Khan"
  cities:
  - name: "Sam Roi Yot"
    latitude: 12.27081
    longitude: 99.87203
    population: 19709
    dem: 17
    timezone: "Asia/Bangkok"
  - name: "Pran Buri"
    latitude: 12.38487
    longitude: 99.90157
    population: 47293
    dem: 10
    timezone: "Asia/Bangkok"
  - name: "Prachuap Khiri Khan"
    latitude: 11.82098
    longitude: 99.7841
    population: 33521
    dem: 13
    timezone: "Asia/Bangkok"
  - name: "Kui Buri"
    latitude: 12.08283
    longitude: 99.85431
    population: 19046
    dem: 15
    timezone: "Asia/Bangkok"
  - name: "Hua Hin"
    latitude: 12.57065
    longitude: 99.95876
    population: 50456
    dem: 10
    timezone: "Asia/Bangkok"
  - name: "Bang Saphan"
    latitude: 11.21259
    longitude: 99.51167
    population: 15134
    dem: 12
    timezone: "Asia/Bangkok"
- name: "Changwat Mukdahan"
  cities:
  - name: "Mukdahan"
    latitude: 16.54531
    longitude: 104.72351
    population: 40480
    dem: 145
    timezone: "Asia/Bangkok"
- name: "Changwat Phra Nakhon Si Ayutthaya"
  cities:
  - name: "Wang Noi"
    latitude: 14.22689
    longitude: 100.7155
    population: 15865
    dem: 5
    timezone: "Asia/Bangkok"
  - name: "Tha Ruea"
    latitude: 14.56739
    longitude: 100.72598
    population: 19116
    dem: 13
    timezone: "Asia/Bangkok"
  - name: "Phra Nakhon Si Ayutthaya"
    latitude: 14.35167
    longitude: 100.57739
    population: 81962
    dem: 7
    timezone: "Asia/Bangkok"
  - name: "Phak Hai"
    latitude: 14.45736
    longitude: 100.36989
    population: 19386
    dem: 11
    timezone: "Asia/Bangkok"
  - name: "Nakhon Luang"
    latitude: 14.46281
    longitude: 100.60832
    population: 15008
    dem: 9
    timezone: "Asia/Bangkok"
  - name: "Bang Pa-in"
    latitude: 14.22783
    longitude: 100.57589
    population: 20484
    dem: 8
    timezone: "Asia/Bangkok"
  - name: "Bang Ban"
    latitude: 14.37395
    longitude: 100.48528
    population: 16588
    dem: 10
    timezone: "Asia/Bangkok"
  - name: "Ban Bang Kadi Pathum Thani"
    latitude: 13.99904
    longitude: 100.54962
    population: 27911
    dem: 3
    timezone: "Asia/Bangkok"
- name: "Changwat Loei"
  cities:
  - name: "Wang Saphung"
    latitude: 17.30097
    longitude: 101.7685
    population: 15747
    dem: 254
    timezone: "Asia/Bangkok"
  - name: "Phu Kradueng"
    latitude: 16.88425
    longitude: 101.88467
    population: 16079
    dem: 268
    timezone: "Asia/Bangkok"
  - name: "Loei"
    latitude: 17.49052
    longitude: 101.72749
    population: 35273
    dem: 244
    timezone: "Asia/Bangkok"
- name: "Changwat Si Sa Ket"
  cities:
  - name: "Si Sa Ket"
    latitude: 15.11481
    longitude: 104.32938
    population: 44751
    dem: 134
    timezone: "Asia/Bangkok"
  - name: "Phrai Bueng"
    latitude: 14.74833
    longitude: 104.36261
    population: 11494
    dem: 151
    timezone: "Asia/Bangkok"
  - name: "Kantharalak"
    latitude: 14.64056
    longitude: 104.64992
    population: 36621
    dem: 160
    timezone: "Asia/Bangkok"
- name: "Changwat Pathum Thani"
  cities:
  - name: "Pathum Thani"
    latitude: 14.01346
    longitude: 100.53049
    population: 24547
    dem: 4
    timezone: "Asia/Bangkok"
  - name: "Khlong Luang"
    latitude: 14.06467
    longitude: 100.64578
    population: 118551
    dem: 7
    timezone: "Asia/Bangkok"
  - name: "Ban Lam Luk Ka"
    latitude: 13.97738
    longitude: 100.77776
    population: 60700
    dem: 6
    timezone: "Asia/Bangkok"
- name: "Changwat Maha Sarakham"
  cities:
  - name: "Wapi Pathum"
    latitude: 15.84523
    longitude: 103.37678
    population: 10198
    dem: 147
    timezone: "Asia/Bangkok"
  - name: "Phayakkhaphum Phisai"
    latitude: 15.51631
    longitude: 103.19367
    population: 10212
    dem: 139
    timezone: "Asia/Bangkok"
  - name: "Maha Sarakham"
    latitude: 16.18483
    longitude: 103.30067
    population: 51584
    dem: 155
    timezone: "Asia/Bangkok"
  - name: "Kosum Phisai"
    latitude: 16.24858
    longitude: 103.06739
    population: 10672
    dem: 160
    timezone: "Asia/Bangkok"
- name: "Changwat Suphan Buri"
  cities:
  - name: "Suphan Buri"
    latitude: 14.47418
    longitude: 100.12218
    population: 53399
    dem: 12
    timezone: "Asia/Bangkok"
  - name: "Doembang Nangbuat"
    latitude: 14.83333
    longitude: 100.1
    population: 14671
    dem: 16
    timezone: "Asia/Bangkok"
  - name: "Ban Sam Chuk"
    latitude: 14.74219
    longitude: 100.09531
    population: 13438
    dem: 13
    timezone: "Asia/Bangkok"
- name: "Changwat Phitsanulok"
  cities:
  - name: "Phitsanulok"
    latitude: 16.82481
    longitude: 100.25858
    population: 103427
    dem: 50
    timezone: "Asia/Bangkok"
  - name: "Nakhon Thai"
    latitude: 17.10056
    longitude: 100.83739
    population: 12345
    dem: 211
    timezone: "Asia/Bangkok"
  - name: "Bang Rakam"
    latitude: 16.75847
    longitude: 100.11742
    population: 16841
    dem: 47
    timezone: "Asia/Bangkok"
  - name: "Bang Krathum"
    latitude: 16.57831
    longitude: 100.30034
    population: 18874
    dem: 45
    timezone: "Asia/Bangkok"
- name: "Changwat Lampang"
  cities:
  - name: "Thoen"
    latitude: 17.61289
    longitude: 99.21612
    population: 18459
    dem: 170
    timezone: "Asia/Bangkok"
  - name: "Lampang"
    latitude: 18.29232
    longitude: 99.49277
    population: 156139
    dem: 238
    timezone: "Asia/Bangkok"
- name: "Changwat Nakhon Ratchasima"
  cities:
  - name: "Ban Huai Thalaeng"
    latitude: 14.98333
    longitude: 102.65
    population: 15352
    dem: 195
    timezone: "Asia/Bangkok"
  - name: "Sung Noen"
    latitude: 14.8992
    longitude: 101.82075
    population: 14365
    dem: 216
    timezone: "Asia/Bangkok"
  - name: "Soeng Sang"
    latitude: 14.42642
    longitude: 102.46058
    population: 14138
    dem: 266
    timezone: "Asia/Bangkok"
  - name: "Phimai"
    latitude: 15.22324
    longitude: 102.49473
    population: 13084
    dem: 157
    timezone: "Asia/Bangkok"
  - name: "Pak Chong"
    latitude: 14.70802
    longitude: 101.41614
    population: 48999
    dem: 307
    timezone: "Asia/Bangkok"
  - name: "Non Thai"
    latitude: 15.1958
    longitude: 102.07145
    population: 11959
    dem: 177
    timezone: "Asia/Bangkok"
  - name: "Non Sung"
    latitude: 15.18014
    longitude: 102.25695
    population: 18399
    dem: 170
    timezone: "Asia/Bangkok"
  - name: "Nakhon Ratchasima"
    latitude: 14.97066
    longitude: 102.10196
    population: 208781
    dem: 187
    timezone: "Asia/Bangkok"
  - name: "Khon Buri"
    latitude: 14.52541
    longitude: 102.24591
    population: 18596
    dem: 218
    timezone: "Asia/Bangkok"
  - name: "Kham Sakae Saeng"
    latitude: 15.33221
    longitude: 102.17278
    population: 11018
    dem: 189
    timezone: "Asia/Bangkok"
  - name: "Dan Khun Thot"
    latitude: 15.2085
    longitude: 101.77138
    population: 15580
    dem: 214
    timezone: "Asia/Bangkok"
  - name: "Chok Chai"
    latitude: 14.72844
    longitude: 102.16524
    population: 23337
    dem: 195
    timezone: "Asia/Bangkok"
  - name: "Bua Yai"
    latitude: 15.58552
    longitude: 102.42587
    population: 16832
    dem: 177
    timezone: "Asia/Bangkok"
  - name: "Amphoe Sikhiu"
    latitude: 14.89944
    longitude: 101.70833
    population: 28681
    dem: 232
    timezone: "Asia/Bangkok"
- name: "Changwat Sing Buri"
  cities:
  - name: "Sing Buri"
    latitude: 14.88786
    longitude: 100.40464
    population: 20046
    dem: 18
    timezone: "Asia/Bangkok"
  - name: "Bang Racham"
    latitude: 14.892
    longitude: 100.31728
    population: 15313
    dem: 14
    timezone: "Asia/Bangkok"
- name: "Changwat Uthai Thani"
  cities:
  - name: "Thap Than"
    latitude: 15.46063
    longitude: 99.89166
    population: 16615
    dem: 45
    timezone: "Asia/Bangkok"
  - name: "Lan Sak"
    latitude: 15.45289
    longitude: 99.57606
    population: 13905
    dem: 112
    timezone: "Asia/Bangkok"
  - name: "Huai Khot"
    latitude: 15.29095
    longitude: 99.61661
    population: 5940
    dem: 106
    timezone: "Asia/Bangkok"
  - name: "Uthai Thani"
    latitude: 15.37939
    longitude: 100.0245
    population: 22219
    dem: 28
    timezone: "Asia/Bangkok"
- name: "Changwat Sukhothai"
  cities:
  - name: "Sukhothai"
    latitude: 17.00778
    longitude: 99.823
    population: 37000
    dem: 53
    timezone: "Asia/Bangkok"
  - name: "Si Satchanalai"
    latitude: 17.51692
    longitude: 99.75978
    population: 25942
    dem: 77
    timezone: "Asia/Bangkok"
  - name: "Sawankhalok"
    latitude: 17.31597
    longitude: 99.83186
    population: 19805
    dem: 67
    timezone: "Asia/Bangkok"
  - name: "Khiri Mat"
    latitude: 16.83333
    longitude: 99.8
    population: 11272
    dem: 53
    timezone: "Asia/Bangkok"
  - name: "Ban Na"
    latitude: 17.01717
    longitude: 99.73283
    population: 40174
    dem: 59
    timezone: "Asia/Bangkok"
  - name: "Ban Dan Lan Hoi"
    latitude: 17.00683
    longitude: 99.57497
    population: 5791
    dem: 87
    timezone: "Asia/Bangkok"
- name: "Changwat Amnat Charoen"
  cities:
  - name: "Amnat Charoen"
    latitude: 15.85851
    longitude: 104.62883
    population: 34769
    dem: 161
    timezone: "Asia/Bangkok"
- name: "Changwat Trang"
  cities:
  - name: "Trang"
    latitude: 7.55633
    longitude: 99.61141
    population: 66713
    dem: 27
    timezone: "Asia/Bangkok"
  - name: "Kantang"
    latitude: 7.40542
    longitude: 99.51561
    population: 14156
    dem: 11
    timezone: "Asia/Bangkok"
  - name: "Huai Yot"
    latitude: 7.78937
    longitude: 99.63469
    population: 16586
    dem: 54
    timezone: "Asia/Bangkok"
- name: "Changwat Kanchanaburi"
  cities:
  - name: "Tha Muang"
    latitude: 13.96118
    longitude: 99.64122
    population: 26746
    dem: 27
    timezone: "Asia/Bangkok"
  - name: "Tha Maka"
    latitude: 13.9
    longitude: 99.76667
    population: 52907
    dem: 15
    timezone: "Asia/Bangkok"
  - name: "Sangkhla Buri"
    latitude: 15.15553
    longitude: 98.45361
    population: 10000
    dem: 211
    timezone: "Asia/Bangkok"
  - name: "Phanom Thuan"
    latitude: 14.13031
    longitude: 99.69858
    population: 12469
    dem: 19
    timezone: "Asia/Bangkok"
  - name: "Kanchanaburi"
    latitude: 14.00412
    longitude: 99.54832
    population: 63699
    dem: 33
    timezone: "Asia/Bangkok"
  - name: "Bo Phloi"
    latitude: 14.32517
    longitude: 99.51467
    population: 16786
    dem: 96
    timezone: "Asia/Bangkok"
- name: "Changwat Ranong"
  cities:
  - name: "Ranong"
    latitude: 9.96583
    longitude: 98.63476
    population: 24561
    dem: 38
    timezone: "Asia/Bangkok"
- name: "Changwat Chiang Rai"
  cities:
  - name: "Mae Sai"
    latitude: 20.43353
    longitude: 99.87617
    population: 27520
    dem: 437
    timezone: "Asia/Bangkok"
  - name: "Mae Chan"
    latitude: 20.14675
    longitude: 99.85256
    population: 37672
    dem: 416
    timezone: "Asia/Bangkok"
  - name: "Chiang Rai"
    latitude: 19.90858
    longitude: 99.8325
    population: 78756
    dem: 401
    timezone: "Asia/Bangkok"
  - name: "Pa Daet"
    latitude: 19.50489
    longitude: 99.99241
    population: 13624
    dem: 384
    timezone: "Asia/Bangkok"
  - name: "Chiang Saen"
    latitude: 20.27511
    longitude: 100.08689
    population: 10807
    dem: 373
    timezone: "Asia/Bangkok"
  - name: "Chiang Khong"
    latitude: 20.26125
    longitude: 100.40461
    population: 14505
    dem: 358
    timezone: "Asia/Bangkok"
- name: "Changwat Sa Kaeo"
  cities:
  - name: "Wang Nam Yen"
    latitude: 13.50325
    longitude: 102.18115
    population: 16299
    dem: 112
    timezone: "Asia/Bangkok"
  - name: "Sa Kaeo"
    latitude: 13.81411
    longitude: 102.07222
    population: 28497
    dem: 41
    timezone: "Asia/Bangkok"
  - name: "Aranyaprathet"
    latitude: 13.69276
    longitude: 102.50128
    population: 20236
    dem: 48
    timezone: "Asia/Bangkok"
- name: "Changwat Prachin Buri"
  cities:
  - name: "Prachin Buri"
    latitude: 14.04992
    longitude: 101.36864
    population: 32600
    dem: 10
    timezone: "Asia/Bangkok"
  - name: "Kabin Buri"
    latitude: 13.95114
    longitude: 101.71769
    population: 20212
    dem: 21
    timezone: "Asia/Bangkok"
- name: "Changwat Rayong"
  cities:
  - name: "Rayong"
    latitude: 12.68095
    longitude: 101.25798
    population: 106737
    dem: 7
    timezone: "Asia/Bangkok"
  - name: "Klaeng"
    latitude: 12.77972
    longitude: 101.64831
    population: 55619
    dem: 11
    timezone: "Asia/Bangkok"
  - name: "Ban Phe"
    latitude: 12.62824
    longitude: 101.43757
    population: 17414
    dem: 7
    timezone: "Asia/Bangkok"
  - name: "Ban Chang"
    latitude: 12.72543
    longitude: 101.05531
    population: 28204
    dem: 49
    timezone: "Asia/Bangkok"
- name: "Changwat Nakhon Pathom"
  cities:
  - name: "Sam Phran"
    latitude: 13.72698
    longitude: 100.21526
    population: 37115
    dem: 7
    timezone: "Asia/Bangkok"
  - name: "Nakhon Pathom"
    latitude: 13.8196
    longitude: 100.04427
    population: 117927
    dem: 11
    timezone: "Asia/Bangkok"
  - name: "Bang Len"
    latitude: 14.02188
    longitude: 100.17183
    population: 17914
    dem: 7
    timezone: "Asia/Bangkok"
- name: "Changwat Songkhla"
  cities:
  - name: "Na Mom"
    latitude: 6.95856
    longitude: 100.55683
    population: 7537
    dem: 38
    timezone: "Asia/Bangkok"
  - name: "Ban Mai"
    latitude: 7.20411
    longitude: 100.54508
    population: 86899
    dem: 6
    timezone: "Asia/Bangkok"
  - name: "Songkhla"
    latitude: 7.19882
    longitude: 100.5951
    population: 84264
    dem: 12
    timezone: "Asia/Bangkok"
  - name: "Sadao"
    latitude: 6.63883
    longitude: 100.42342
    population: 46236
    dem: 50
    timezone: "Asia/Bangkok"
  - name: "Ranot"
    latitude: 7.77768
    longitude: 100.32134
    population: 19780
    dem: 7
    timezone: "Asia/Bangkok"
  - name: "Hat Yai"
    latitude: 7.00836
    longitude: 100.47668
    population: 191696
    dem: 12
    timezone: "Asia/Bangkok"
- name: "Changwat Chai Nat"
  cities:
  - name: "Chai Nat"
    latitude: 15.18636
    longitude: 100.12353
    population: 15469
    dem: 26
    timezone: "Asia/Bangkok"
- name: "Changwat Phayao"
  cities:
  - name: "Mae Chai"
    latitude: 19.34597
    longitude: 99.814
    population: 5094
    dem: 407
    timezone: "Asia/Bangkok"
  - name: "Phayao"
    latitude: 19.19203
    longitude: 99.87883
    population: 21058
    dem: 409
    timezone: "Asia/Bangkok"
  - name: "Dok Kham Tai"
    latitude: 19.16242
    longitude: 99.99342
    population: 23824
    dem: 394
    timezone: "Asia/Bangkok"
  - name: "Pong"
    latitude: 19.14931
    longitude: 100.27522
    population: 14392
    dem: 300
    timezone: "Asia/Bangkok"
  - name: "Chiang Kham"
    latitude: 19.52331
    longitude: 100.3
    population: 14092
    dem: 396
    timezone: "Asia/Bangkok"
- name: "Changwat Phetchaburi"
  cities:
  - name: "Phetchaburi"
    latitude: 13.11189
    longitude: 99.94467
    population: 46601
    dem: 7
    timezone: "Asia/Bangkok"
  - name: "Khao Yoi"
    latitude: 13.24025
    longitude: 99.82428
    population: 18506
    dem: 13
    timezone: "Asia/Bangkok"
  - name: "Cha-am"
    latitude: 12.8
    longitude: 99.96667
    population: 49375
    dem: 5
    timezone: "Asia/Bangkok"
  - name: "Tha Yang"
    latitude: 12.95772
    longitude: 99.90555
    population: 42602
    dem: 11
    timezone: "Asia/Bangkok"
- name: "Changwat Phetchabun"
  cities:
  - name: "Wichian Buri"
    latitude: 15.65778
    longitude: 101.10603
    population: 39272
    dem: 72
    timezone: "Asia/Bangkok"
  - name: "Phetchabun"
    latitude: 16.41904
    longitude: 101.16056
    population: 50656
    dem: 120
    timezone: "Asia/Bangkok"
  - name: "Nong Phai"
    latitude: 15.99025
    longitude: 101.06183
    population: 27756
    dem: 111
    timezone: "Asia/Bangkok"
  - name: "Lom Sak"
    latitude: 16.77983
    longitude: 101.24225
    population: 17309
    dem: 147
    timezone: "Asia/Bangkok"
  - name: "Chon Daen"
    latitude: 16.18953
    longitude: 100.85958
    population: 17567
    dem: 106
    timezone: "Asia/Bangkok"
- name: "Changwat Ang Thong"
  cities:
  - name: "Wiset Chaichan"
    latitude: 14.5945
    longitude: 100.33825
    population: 19129
    dem: 12
    timezone: "Asia/Bangkok"
  - name: "Pho Thong"
    latitude: 14.66731
    longitude: 100.40878
    population: 12200
    dem: 12
    timezone: "Asia/Bangkok"
  - name: "Ban Thai Tan"
    latitude: 14.62161
    longitude: 100.48739
    population: 14430
    dem: 11
    timezone: "Asia/Bangkok"
  - name: "Ang Thong"
    latitude: 14.58839
    longitude: 100.45283
    population: 13738
    dem: 12
    timezone: "Asia/Bangkok"
  - name: "Chaiyo"
    latitude: 14.67639
    longitude: 100.46861
    population: 13255
    dem: 14
    timezone: "Asia/Bangkok"
- name: "Phuket Province"
  cities:
  - name: "Ban Talat Yai"
    latitude: 7.88481
    longitude: 98.40008
    population: 52192
    dem: 8
    timezone: "Asia/Bangkok"
  - name: "Ban Talat Nua"
    latitude: 7.88489
    longitude: 98.38557
    population: 23381
    dem: 10
    timezone: "Asia/Bangkok"
  - name: "Phuket"
    latitude: 7.89059
    longitude: 98.3981
    population: 89072
    dem: 28
    timezone: "Asia/Bangkok"
  - name: "Kathu"
    latitude: 7.91779
    longitude: 98.33322
    population: 34835
    dem: 36
    timezone: "Asia/Bangkok"
  - name: "Rawai"
    latitude: 7.77965
    longitude: 98.32532
    population: 13623
    dem: 12
    timezone: "Asia/Bangkok"
  - name: "Ban Ko Kaeo"
    latitude: 7.93599
    longitude: 98.39664
    population: 10136
    dem: 42
    timezone: "Asia/Bangkok"
  - name: "Ban Karon"
    latitude: 7.84769
    longitude: 98.2985
    population: 7094
    dem: 15
    timezone: "Asia/Bangkok"
  - name: "Wichit"
    latitude: 7.8894
    longitude: 98.38523
    population: 38701
    dem: 14
    timezone: "Asia/Bangkok"
  - name: "Patong"
    latitude: 7.89607
    longitude: 98.29661
    population: 14797
    dem: 8
    timezone: "Asia/Bangkok"
  - name: "Ban Chalong"
    latitude: 7.84468
    longitude: 98.33897
    population: 18072
    dem: 13
    timezone: "Asia/Bangkok"
  - name: "Ban Ratsada"
    latitude: 7.90963
    longitude: 98.40248
    population: 33534
    dem: 12
    timezone: "Asia/Bangkok"
- name: "Changwat Sakon Nakhon"
  cities:
  - name: "Sawang Daen Din"
    latitude: 17.47531
    longitude: 103.45753
    population: 16825
    dem: 169
    timezone: "Asia/Bangkok"
  - name: "Sakon Nakhon"
    latitude: 17.16116
    longitude: 104.14725
    population: 76237
    dem: 165
    timezone: "Asia/Bangkok"
- name: "Changwat Surin"
  cities:
  - name: "Surin"
    latitude: 14.88181
    longitude: 103.49364
    population: 46673
    dem: 150
    timezone: "Asia/Bangkok"
- name: "Changwat Kalasin"
  cities:
  - name: "Nong Kung Si"
    latitude: 16.65
    longitude: 103.3
    population: 17001
    dem: 183
    timezone: "Asia/Bangkok"
  - name: "Yang Talat"
    latitude: 16.39982
    longitude: 103.36785
    population: 13360
    dem: 148
    timezone: "Asia/Bangkok"
  - name: "Kuchinarai"
    latitude: 16.541
    longitude: 104.05004
    population: 20532
    dem: 169
    timezone: "Asia/Bangkok"
  - name: "Khao Wong"
    latitude: 16.70008
    longitude: 104.09019
    population: 15184
    dem: 194
    timezone: "Asia/Bangkok"
  - name: "Kamalasai"
    latitude: 16.33839
    longitude: 103.57564
    population: 23393
    dem: 146
    timezone: "Asia/Bangkok"
  - name: "Kalasin"
    latitude: 16.43281
    longitude: 103.50658
    population: 55102
    dem: 152
    timezone: "Asia/Bangkok"
  - name: "Huai Mek"
    latitude: 16.58975
    longitude: 103.23547
    population: 12352
    dem: 181
    timezone: "Asia/Bangkok"
- name: "Changwat Nong Khai"
  cities:
  - name: "Tha Bo"
    latitude: 17.85003
    longitude: 102.58139
    population: 35292
    dem: 182
    timezone: "Asia/Bangkok"
  - name: "Si Chiang Mai"
    latitude: 17.95639
    longitude: 102.58667
    population: 14068
    dem: 175
    timezone: "Asia/Bangkok"
  - name: "Phon Charoen"
    latitude: 18.03333
    longitude: 103.16667
    population: 15208
    dem: 170
    timezone: "Asia/Bangkok"
  - name: "Nong Khai"
    latitude: 17.87847
    longitude: 102.742
    population: 63609
    dem: 168
    timezone: "Asia/Bangkok"
- name: "Changwat Chachoengsao"
  cities:
  - name: "Phanom Sarakham"
    latitude: 13.74872
    longitude: 101.34888
    population: 16057
    dem: 8
    timezone: "Asia/Bangkok"
  - name: "Chachoengsao"
    latitude: 13.6882
    longitude: 101.07156
    population: 49741
    dem: 4
    timezone: "Asia/Bangkok"
  - name: "Bang Pakong"
    latitude: 13.54297
    longitude: 100.99333
    population: 25620
    dem: 8
    timezone: "Asia/Bangkok"
  - name: "Bang Nam Priao"
    latitude: 13.84739
    longitude: 101.05306
    population: 8642
    dem: 6
    timezone: "Asia/Bangkok"
  - name: "Bang Khla"
    latitude: 13.72144
    longitude: 101.20814
    population: 13528
    dem: 5
    timezone: "Asia/Bangkok"
- name: "Chiang Mai Province"
  cities:
  - name: "San Pa Tong"
    latitude: 18.62828
    longitude: 98.89572
    population: 17773
    dem: 300
    timezone: "Asia/Bangkok"
  - name: "San Kamphaeng"
    latitude: 18.74486
    longitude: 99.11953
    population: 32950
    dem: 311
    timezone: "Asia/Bangkok"
  - name: "Hang Dong"
    latitude: 18.68703
    longitude: 98.91939
    population: 17931
    dem: 311
    timezone: "Asia/Bangkok"
  - name: "Fang"
    latitude: 19.91689
    longitude: 99.2145
    population: 7635
    dem: 471
    timezone: "Asia/Bangkok"
  - name: "Chom Thong"
    latitude: 18.41742
    longitude: 98.67428
    population: 12488
    dem: 287
    timezone: "Asia/Bangkok"
  - name: "Chiang Mai"
    latitude: 18.79038
    longitude: 98.98468
    population: 200952
    dem: 313
    timezone: "Asia/Bangkok"
- name: "Changwat Nonthaburi"
  cities:
  - name: "Pak Kret"
    latitude: 13.91301
    longitude: 100.49883
    population: 182926
    dem: 8
    timezone: "Asia/Bangkok"
  - name: "Mueang Nonthaburi"
    latitude: 13.86075
    longitude: 100.51477
    population: 291555
    dem: 1
    timezone: "Asia/Bangkok"
  - name: "Bang Yai"
    latitude: 13.84341
    longitude: 100.36251
    population: 14012
    dem: 5
    timezone: "Asia/Bangkok"
  - name: "Bang Kruai"
    latitude: 13.805
    longitude: 100.47283
    population: 78305
    dem: 7
    timezone: "Asia/Bangkok"
  - name: "Bang Bua Thong"
    latitude: 13.91783
    longitude: 100.42403
    population: 41567
    dem: 5
    timezone: "Asia/Bangkok"
