---
name: "Vietnam"
iso: "VN"
iso3: "VNM"
code: "704"
capital: "Hanoi"
area: 329560.0
population: 89571130
continent: "AS"
currencyCode: "VND"
currencyName: "Dong"
phone: "84"
postalCodeFormat: "######"
postalCodeRegex: "^(\\d{6})$"
languages: "vi,en,fr,zh,km"
neighbours: "CN,LA,KH"
regions:
- name: "Tinh Thua Thien-Hue"
  cities:
  - name: "Hue"
    latitude: 16.4619
    longitude: 107.59546
    population: 287217
    dem: 8
    timezone: "Asia/Ho_Chi_Minh"
- name: "Long An"
  cities:
  - name: "Tan An"
    latitude: 10.53589
    longitude: 106.41366
    population: 64801
    dem: 4
    timezone: "Asia/Ho_Chi_Minh"
  - name: "Can Giuoc"
    latitude: 10.60857
    longitude: 106.67135
    population: 152200
    dem: 6
    timezone: "Asia/Ho_Chi_Minh"
- name: "Tinh Ba Ria-Vung Tau"
  cities:
  - name: "Vung Tau"
    latitude: 10.34599
    longitude: 107.08426
    population: 209683
    dem: 10
    timezone: "Asia/Ho_Chi_Minh"
  - name: "Thanh Pho Ba Ria"
    latitude: 10.49629
    longitude: 107.16841
    population: 0
    dem: 8
    timezone: "Asia/Ho_Chi_Minh"
- name: "Tinh Bac Kan"
  cities:
  - name: "Bac Kan"
    latitude: 22.14701
    longitude: 105.83481
    population: 17701
    dem: 150
    timezone: "Asia/Ho_Chi_Minh"
- name: "Tinh Quang Ninh"
  cities:
  - name: "Thanh Pho Uong Bi"
    latitude: 21.03433
    longitude: 106.77049
    population: 63829
    dem: 11
    timezone: "Asia/Ho_Chi_Minh"
  - name: "Mong Cai"
    latitude: 21.52471
    longitude: 107.96619
    population: 72960
    dem: 9
    timezone: "Asia/Ho_Chi_Minh"
  - name: "Ha Long"
    latitude: 20.95045
    longitude: 107.07336
    population: 148066
    dem: 8
    timezone: "Asia/Ho_Chi_Minh"
  - name: "Cam Pha Mines"
    latitude: 21.01667
    longitude: 107.3
    population: 135477
    dem: 209
    timezone: "Asia/Ho_Chi_Minh"
- name: "Tinh Lang Son"
  cities:
  - name: "Lang Son"
    latitude: 21.85264
    longitude: 106.76101
    population: 55981
    dem: 265
    timezone: "Asia/Ho_Chi_Minh"
- name: "Tinh Tay Ninh"
  cities:
  - name: "Tay Ninh"
    latitude: 11.31004
    longitude: 106.09828
    population: 36456
    dem: 18
    timezone: "Asia/Ho_Chi_Minh"
  - name: "Phu Khuong"
    latitude: 11.28333
    longitude: 106.13333
    population: 47966
    dem: 18
    timezone: "Asia/Ho_Chi_Minh"
- name: "Tinh Khanh Hoa"
  cities:
  - name: "Nha Trang"
    latitude: 12.24507
    longitude: 109.19432
    population: 283441
    dem: 10
    timezone: "Asia/Ho_Chi_Minh"
  - name: "Cam Ranh"
    latitude: 11.92144
    longitude: 109.15913
    population: 146771
    dem: 15
    timezone: "Asia/Ho_Chi_Minh"
- name: "Tinh GJong Thap"
  cities:
  - name: "Sa Dec"
    latitude: 10.29085
    longitude: 105.75635
    population: 60073
    dem: 6
    timezone: "Asia/Ho_Chi_Minh"
  - name: "Cao Lanh"
    latitude: 10.46017
    longitude: 105.63294
    population: 63770
    dem: 5
    timezone: "Asia/Ho_Chi_Minh"
- name: "Tinh Kien Giang"
  cities:
  - name: "Rach Gia"
    latitude: 10.01245
    longitude: 105.08091
    population: 228356
    dem: 13
    timezone: "Asia/Ho_Chi_Minh"
  - name: "Duong GJong"
    latitude: 10.21716
    longitude: 103.95929
    population: 15000
    dem: 8
    timezone: "Asia/Ho_Chi_Minh"
  - name: "Ha Tien"
    latitude: 10.3831
    longitude: 104.48753
    population: 40000
    dem: 8
    timezone: "Asia/Ho_Chi_Minh"
- name: "Tinh Phu Tho"
  cities:
  - name: "Viet Tri"
    latitude: 21.32274
    longitude: 105.40198
    population: 93475
    dem: 25
    timezone: "Asia/Ho_Chi_Minh"
- name: "Tinh Vinh Phuc"
  cities:
  - name: "Vinh Yen"
    latitude: 21.30891
    longitude: 105.60489
    population: 17876
    dem: 19
    timezone: "Asia/Ho_Chi_Minh"
- name: "Tinh Ben Tre"
  cities:
  - name: "Ben Tre"
    latitude: 10.24147
    longitude: 106.37585
    population: 59442
    dem: 5
    timezone: "Asia/Ho_Chi_Minh"
  - name: "Ap Tan Ngai"
    latitude: 10.23333
    longitude: 106.28333
    population: 8887
    dem: 5
    timezone: "Asia/Ho_Chi_Minh"
- name: "Tinh Bac Giang"
  cities:
  - name: "Bac Giang"
    latitude: 21.27307
    longitude: 106.1946
    population: 53728
    dem: 14
    timezone: "Asia/Ho_Chi_Minh"
- name: "Tinh Dien Bien"
  cities:
  - name: "Dien Bien Phu"
    latitude: 21.38602
    longitude: 103.02301
    population: 40282
    dem: 485
    timezone: "Asia/Ho_Chi_Minh"
- name: "Tinh Soc Trang"
  cities:
  - name: "Soc Trang"
    latitude: 9.59995
    longitude: 105.97193
    population: 114453
    dem: 7
    timezone: "Asia/Ho_Chi_Minh"
- name: "Tinh Ha Nam"
  cities:
  - name: "Phu Ly"
    latitude: 20.54531
    longitude: 105.91221
    population: 31801
    dem: 8
    timezone: "Asia/Ho_Chi_Minh"
- name: "Tinh Lai Chau"
  cities:
  - name: "Lai Chau"
    latitude: 22.39644
    longitude: 103.45824
    population: 0
    dem: 919
    timezone: "Asia/Ho_Chi_Minh"
- name: "Tinh Binh Thuan"
  cities:
  - name: "Phan Thiet"
    latitude: 10.92889
    longitude: 108.10208
    population: 160652
    dem: 10
    timezone: "Asia/Ho_Chi_Minh"
  - name: "La Gi"
    latitude: 10.65993
    longitude: 107.77206
    population: 160652
    dem: 8
    timezone: "Asia/Ho_Chi_Minh"
- name: "Tinh Bac Ninh"
  cities:
  - name: "Bac Ninh"
    latitude: 21.18608
    longitude: 106.07631
    population: 43564
    dem: 9
    timezone: "Asia/Ho_Chi_Minh"
  - name: "Cung Kiem"
    latitude: 21.18697
    longitude: 106.16076
    population: 80000
    elevation: 12
    dem: 8
    timezone: "Asia/Ho_Chi_Minh"
- name: "Tinh Tuyen Quang"
  cities:
  - name: "Tuyen Quang"
    latitude: 21.82356
    longitude: 105.21424
    population: 36430
    dem: 35
    timezone: "Asia/Ho_Chi_Minh"
- name: "Tinh Hoa Binh"
  cities:
  - name: "Hoa Binh"
    latitude: 20.81717
    longitude: 105.33759
    population: 105260
    dem: 31
    timezone: "Asia/Ho_Chi_Minh"
- name: "Tinh Thai Binh"
  cities:
  - name: "Thai Binh"
    latitude: 20.45
    longitude: 106.34002
    population: 53071
    dem: 6
    timezone: "Asia/Ho_Chi_Minh"
- name: "Tinh Ca Mau"
  cities:
  - name: "Ca Mau"
    latitude: 9.17682
    longitude: 105.15242
    population: 111894
    dem: 5
    timezone: "Asia/Ho_Chi_Minh"
- name: "Tinh Quang Binh"
  cities:
  - name: "Kwang Binh"
    latitude: 17.46885
    longitude: 106.62226
    population: 31040
    dem: 9
    timezone: "Asia/Ho_Chi_Minh"
- name: "Thanh Pho Ha Noi"
  cities:
  - name: "Son Tay"
    latitude: 21.14053
    longitude: 105.50686
    population: 40636
    dem: 16
    timezone: "Asia/Ho_Chi_Minh"
  - name: "Hanoi"
    latitude: 21.0245
    longitude: 105.84117
    population: 1431270
    dem: 10
    timezone: "Asia/Ho_Chi_Minh"
  - name: "Ha Dong"
    latitude: 20.97136
    longitude: 105.77876
    population: 50877
    dem: 13
    timezone: "Asia/Ho_Chi_Minh"
- name: "Tinh Ninh Binh"
  cities:
  - name: "Ninh Binh"
    latitude: 20.25809
    longitude: 105.97965
    population: 36864
    dem: 7
    timezone: "Asia/Ho_Chi_Minh"
- name: "Tinh Lam GJong"
  cities:
  - name: "GJuc Trong"
    latitude: 11.73559
    longitude: 108.3733
    population: 161232
    dem: 939
    timezone: "Asia/Ho_Chi_Minh"
  - name: "Da Lat"
    latitude: 11.94646
    longitude: 108.44193
    population: 197000
    dem: 1483
    timezone: "Asia/Ho_Chi_Minh"
  - name: "Bao Loc"
    latitude: 11.54798
    longitude: 107.80772
    population: 151915
    dem: 841
    timezone: "Asia/Ho_Chi_Minh"
  - name: "GJinh Van"
    latitude: 11.78624
    longitude: 108.24282
    population: 16036
    dem: 848
    timezone: "Asia/Ho_Chi_Minh"
- name: "Tinh Ha Giang"
  cities:
  - name: "Ha Giang"
    latitude: 22.82333
    longitude: 104.98357
    population: 32690
    dem: 107
    timezone: "Asia/Ho_Chi_Minh"
- name: "Tinh Son La"
  cities:
  - name: "Son La"
    latitude: 21.3256
    longitude: 103.91882
    population: 19054
    dem: 608
    timezone: "Asia/Ho_Chi_Minh"
- name: "Tinh Cao Bang"
  cities:
  - name: "Cao Bang"
    latitude: 22.66568
    longitude: 106.25786
    population: 41112
    dem: 197
    timezone: "Asia/Ho_Chi_Minh"
- name: "Tinh Nam GJinh"
  cities:
  - name: "Nam Dinh"
    latitude: 20.43389
    longitude: 106.17729
    population: 193499
    dem: 5
    timezone: "Asia/Ho_Chi_Minh"
- name: "Tinh Binh Phuoc"
  cities:
  - name: "Binh Long"
    latitude: 11.64711
    longitude: 106.60586
    population: 15000
    dem: 126
    timezone: "Asia/Ho_Chi_Minh"
  - name: "Don Luan"
    latitude: 11.53495
    longitude: 106.88324
    population: 23978
    dem: 90
    timezone: "Asia/Ho_Chi_Minh"
- name: "Ho Chi Minh City"
  cities:
  - name: "Ho Chi Minh City"
    latitude: 10.82302
    longitude: 106.62965
    population: 3467331
    dem: 7
    timezone: "Asia/Ho_Chi_Minh"
  - name: "Cu Chi"
    latitude: 10.97333
    longitude: 106.49325
    population: 75000
    dem: 14
    timezone: "Asia/Ho_Chi_Minh"
  - name: "Can Gio"
    latitude: 10.41115
    longitude: 106.95474
    population: 55137
    dem: 5
    timezone: "Asia/Ho_Chi_Minh"
- name: "Tinh Yen Bai"
  cities:
  - name: "Yen Bai"
    latitude: 21.72288
    longitude: 104.9113
    population: 96540
    dem: 45
    timezone: "Asia/Ho_Chi_Minh"
- name: "Tinh Hai Duong"
  cities:
  - name: "Hai Duong"
    latitude: 20.94099
    longitude: 106.33302
    population: 58030
    dem: 8
    timezone: "Asia/Ho_Chi_Minh"
- name: "Dak Nong"
  cities:
  - name: "Gia Nghia"
    latitude: 12.00423
    longitude: 107.69074
    population: 0
    dem: 616
    timezone: "Asia/Ho_Chi_Minh"
- name: "Tinh Thai Nguyen"
  cities:
  - name: "Thai Nguyen"
    latitude: 21.59422
    longitude: 105.84817
    population: 133877
    dem: 36
    timezone: "Asia/Ho_Chi_Minh"
- name: "Tinh Nghe An"
  cities:
  - name: "Yen Vinh"
    latitude: 18.66667
    longitude: 105.66667
    population: 107082
    dem: 12
    timezone: "Asia/Ho_Chi_Minh"
  - name: "Vinh"
    latitude: 18.67337
    longitude: 105.69232
    population: 163759
    dem: 12
    timezone: "Asia/Ho_Chi_Minh"
- name: "Tinh Quang Tri"
  cities:
  - name: "Dong Ha"
    latitude: 16.81625
    longitude: 107.10031
    population: 17662
    dem: 21
    timezone: "Asia/Ho_Chi_Minh"
- name: "GJak Lak Province"
  cities:
  - name: "Buon Ma Thuot"
    latitude: 12.66747
    longitude: 108.03775
    population: 146975
    dem: 459
    timezone: "Asia/Ho_Chi_Minh"
- name: "Tinh Tra Vinh"
  cities:
  - name: "Tra Vinh"
    latitude: 9.94719
    longitude: 106.34225
    population: 57408
    dem: 5
    timezone: "Asia/Ho_Chi_Minh"
- name: "Tinh Ha Tinh"
  cities:
  - name: "Ha Tinh"
    latitude: 18.34282
    longitude: 105.90569
    population: 27728
    dem: 8
    timezone: "Asia/Ho_Chi_Minh"
- name: "Tinh Binh GJinh"
  cities:
  - name: "Qui Nhon"
    latitude: 13.77648
    longitude: 109.22367
    population: 210338
    dem: 7
    timezone: "Asia/Ho_Chi_Minh"
- name: "Tinh Bac Lieu"
  cities:
  - name: "Bac Lieu"
    latitude: 9.29414
    longitude: 105.72776
    population: 107911
    dem: 5
    timezone: "Asia/Ho_Chi_Minh"
- name: "Tinh Phu Yen"
  cities:
  - name: "Tuy Hoa"
    latitude: 13.09546
    longitude: 109.32094
    population: 69596
    dem: 8
    timezone: "Asia/Ho_Chi_Minh"
  - name: "Song Cau"
    latitude: 13.4556
    longitude: 109.22348
    population: 94066
    dem: 10
    timezone: "Asia/Ho_Chi_Minh"
- name: "Gia Lai"
  cities:
  - name: "Pleiku"
    latitude: 13.98333
    longitude: 108.0
    population: 114225
    dem: 760
    timezone: "Asia/Ho_Chi_Minh"
- name: "Tinh Thanh Hoa"
  cities:
  - name: "Thanh Hoa"
    latitude: 19.8
    longitude: 105.76667
    population: 112473
    dem: 5
    timezone: "Asia/Ho_Chi_Minh"
  - name: "Bim Son"
    latitude: 20.07806
    longitude: 105.86028
    population: 53754
    dem: 7
    timezone: "Asia/Ho_Chi_Minh"
- name: "Kon Tum"
  cities:
  - name: "Kon Tum"
    latitude: 14.35451
    longitude: 108.00759
    population: 47409
    dem: 543
    timezone: "Asia/Ho_Chi_Minh"
- name: "Thanh Pho Hai Phong"
  cities:
  - name: "Haiphong"
    latitude: 20.86481
    longitude: 106.68345
    population: 602695
    dem: 12
    timezone: "Asia/Ho_Chi_Minh"
  - name: "Cat Ba"
    latitude: 20.72779
    longitude: 107.04819
    population: 30000
    dem: 24
    timezone: "Asia/Ho_Chi_Minh"
- name: "Tinh GJong Nai"
  cities:
  - name: "Bien Hoa"
    latitude: 10.94469
    longitude: 106.82432
    population: 407208
    dem: 6
    timezone: "Asia/Ho_Chi_Minh"
- name: "An Giang"
  cities:
  - name: "Long Xuyen"
    latitude: 10.38639
    longitude: 105.43518
    population: 158153
    dem: 8
    timezone: "Asia/Ho_Chi_Minh"
  - name: "Cho Dok"
    latitude: 10.7
    longitude: 105.11667
    population: 70239
    dem: 10
    timezone: "Asia/Ho_Chi_Minh"
- name: "Tinh Tien Giang"
  cities:
  - name: "My Tho"
    latitude: 10.36004
    longitude: 106.35996
    population: 122310
    dem: 2
    timezone: "Asia/Ho_Chi_Minh"
- name: "Thanh Pho Can Tho"
  cities:
  - name: "Can Tho"
    latitude: 10.03711
    longitude: 105.78825
    population: 259598
    dem: 3
    timezone: "Asia/Ho_Chi_Minh"
- name: "Hau Giang Province"
  cities:
  - name: "Vi Thanh"
    latitude: 9.78449
    longitude: 105.47012
    population: 24477
    dem: 3
    timezone: "Asia/Ho_Chi_Minh"
- name: "Tinh Binh Duong"
  cities:
  - name: "Thu Dau Mot"
    latitude: 10.9804
    longitude: 106.6519
    population: 91009
    dem: 20
    timezone: "Asia/Ho_Chi_Minh"
- name: "Tinh Ninh Thuan"
  cities:
  - name: "Phan Rang-Thap Cham"
    latitude: 11.56432
    longitude: 108.98858
    population: 91520
    dem: 8
    timezone: "Asia/Ho_Chi_Minh"
- name: "Tinh Hung Yen"
  cities:
  - name: "Hung Yen"
    latitude: 20.64637
    longitude: 106.05112
    population: 40273
    dem: 11
    timezone: "Asia/Ho_Chi_Minh"
- name: "Tinh Vinh Long"
  cities:
  - name: "Vinh Long"
    latitude: 10.25369
    longitude: 105.9722
    population: 103314
    dem: 1
    timezone: "Asia/Ho_Chi_Minh"
- name: "Tinh Quang Nam"
  cities:
  - name: "Tam Ky"
    latitude: 15.57364
    longitude: 108.47403
    population: 59000
    dem: 11
    timezone: "Asia/Ho_Chi_Minh"
  - name: "Hoi An"
    latitude: 15.87944
    longitude: 108.335
    population: 32757
    dem: 13
    timezone: "Asia/Ho_Chi_Minh"
- name: "Tinh Lao Cai"
  cities:
  - name: "Sa Pa"
    latitude: 22.34023
    longitude: 103.84415
    population: 138622
    elevation: 1500
    dem: 1522
    timezone: "Asia/Ho_Chi_Minh"
  - name: "Lao Cai"
    latitude: 22.48556
    longitude: 103.97066
    population: 36502
    dem: 86
    timezone: "Asia/Ho_Chi_Minh"
- name: "Tinh Quang Ngai"
  cities:
  - name: "Quang Ngai"
    latitude: 15.12047
    longitude: 108.79232
    population: 32992
    dem: 13
    timezone: "Asia/Ho_Chi_Minh"
- name: "Thanh Pho GJa Nang"
  cities:
  - name: "Da Nang"
    latitude: 16.06778
    longitude: 108.22083
    population: 752493
    dem: 11
    timezone: "Asia/Ho_Chi_Minh"
