---
name: "Zimbabwe"
iso: "ZW"
iso3: "ZWE"
code: "716"
capital: "Harare"
area: 390580.0
population: 13061000
continent: "AF"
currencyCode: "ZWL"
currencyName: "Dollar"
phone: "263"
languages: "en-ZW,sn,nr,nd"
neighbours: "ZA,MZ,BW,ZM"
regions:
- name: "Mashonaland West Province"
  cities:
  - name: "Norton"
    latitude: -17.88333
    longitude: 30.7
    population: 52054
    dem: 1364
    timezone: "Africa/Harare"
  - name: "Mhangura"
    latitude: -16.89387
    longitude: 30.16828
    population: 6503
    dem: 1182
    timezone: "Africa/Harare"
  - name: "Karoi"
    latitude: -16.80993
    longitude: 29.69247
    population: 25030
    dem: 1259
    timezone: "Africa/Harare"
  - name: "Kariba"
    latitude: -16.51667
    longitude: 28.8
    population: 25531
    dem: 679
    timezone: "Africa/Harare"
  - name: "Kadoma"
    latitude: -18.33328
    longitude: 29.91534
    population: 79174
    dem: 1176
    timezone: "Africa/Harare"
  - name: "Chinhoyi"
    latitude: -17.36667
    longitude: 30.2
    population: 61739
    dem: 1153
    timezone: "Africa/Harare"
  - name: "Chegutu"
    latitude: -18.13021
    longitude: 30.14074
    population: 47294
    dem: 1187
    timezone: "Africa/Harare"
  - name: "Chakari"
    latitude: -18.06294
    longitude: 29.89246
    population: 6472
    dem: 1107
    timezone: "Africa/Harare"
  - name: "Banket"
    latitude: -17.38333
    longitude: 30.4
    population: 9641
    dem: 1277
    timezone: "Africa/Harare"
- name: "Harare Province"
  cities:
  - name: "Harare"
    latitude: -17.82772
    longitude: 31.05337
    population: 1542813
    dem: 1494
    timezone: "Africa/Harare"
  - name: "Epworth"
    latitude: -17.89
    longitude: 31.1475
    population: 123250
    dem: 1508
    timezone: "Africa/Harare"
  - name: "Chitungwiza"
    latitude: -18.01274
    longitude: 31.07555
    population: 340360
    dem: 1435
    timezone: "Africa/Harare"
- name: "Matabeleland South Province"
  cities:
  - name: "Gwanda"
    latitude: -20.93622
    longitude: 29.00698
    population: 14450
    dem: 966
    timezone: "Africa/Harare"
  - name: "Beitbridge"
    latitude: -22.21667
    longitude: 30.0
    population: 26459
    dem: 461
    timezone: "Africa/Harare"
- name: "Manicaland Province"
  cities:
  - name: "Rusape"
    latitude: -18.52785
    longitude: 32.12843
    population: 29292
    dem: 1415
    timezone: "Africa/Harare"
  - name: "Penhalonga"
    latitude: -18.89112
    longitude: 32.69781
    population: 7681
    dem: 1364
    timezone: "Africa/Harare"
  - name: "Mutare"
    latitude: -18.9707
    longitude: 32.67086
    population: 184205
    dem: 1116
    timezone: "Africa/Harare"
  - name: "Chipinge"
    latitude: -20.18833
    longitude: 32.62365
    population: 18860
    dem: 1109
    timezone: "Africa/Harare"
- name: "Mashonaland East Province"
  cities:
  - name: "Ruwa"
    latitude: -17.88972
    longitude: 31.24472
    population: 30000
    dem: 1562
    timezone: "Africa/Harare"
  - name: "Mutoko"
    latitude: -17.39699
    longitude: 32.22677
    population: 9532
    dem: 1285
    timezone: "Africa/Harare"
  - name: "Murehwa"
    latitude: -17.64322
    longitude: 31.784
    population: 8559
    dem: 1365
    timezone: "Africa/Harare"
  - name: "Marondera"
    latitude: -18.18527
    longitude: 31.55193
    population: 57082
    dem: 1668
    timezone: "Africa/Harare"
  - name: "Chivhu"
    latitude: -19.02112
    longitude: 30.89218
    population: 10369
    dem: 1450
    timezone: "Africa/Harare"
- name: "Mashonaland Central Province"
  cities:
  - name: "Shamva"
    latitude: -17.31159
    longitude: 31.57561
    population: 10317
    dem: 947
    timezone: "Africa/Harare"
  - name: "Mvurwi"
    latitude: -17.03333
    longitude: 30.85
    population: 7970
    dem: 1495
    timezone: "Africa/Harare"
  - name: "Mount Darwin"
    latitude: -16.77251
    longitude: 31.58381
    population: 6349
    dem: 955
    timezone: "Africa/Harare"
  - name: "Mazowe"
    latitude: -17.50404
    longitude: 30.97388
    population: 9966
    dem: 1249
    timezone: "Africa/Harare"
  - name: "Glendale"
    latitude: -17.35514
    longitude: 31.06718
    population: 9768
    dem: 1143
    timezone: "Africa/Harare"
  - name: "Bindura"
    latitude: -17.30192
    longitude: 31.33056
    population: 37423
    dem: 1118
    timezone: "Africa/Harare"
- name: "Matabeleland North Province"
  cities:
  - name: "Victoria Falls"
    latitude: -17.93285
    longitude: 25.83066
    population: 35761
    dem: 961
    timezone: "Africa/Harare"
  - name: "Lupane"
    latitude: -18.93149
    longitude: 27.80696
    population: 1200
    dem: 1016
    timezone: "Africa/Harare"
  - name: "Inyati"
    latitude: -19.67563
    longitude: 28.84687
    population: 8402
    dem: 1333
    timezone: "Africa/Harare"
  - name: "Hwange"
    latitude: -18.36446
    longitude: 26.49877
    population: 33210
    dem: 767
    timezone: "Africa/Harare"
- name: "Bulawayo Province"
  cities:
  - name: "Bulawayo"
    latitude: -20.15
    longitude: 28.58333
    population: 699385
    dem: 1348
    timezone: "Africa/Harare"
- name: "Masvingo Province"
  cities:
  - name: "Zvishavane"
    latitude: -20.32674
    longitude: 30.06648
    population: 35896
    dem: 998
    timezone: "Africa/Harare"
  - name: "Masvingo"
    latitude: -20.06373
    longitude: 30.82766
    population: 76290
    dem: 1091
    timezone: "Africa/Harare"
  - name: "Mashava"
    latitude: -20.03665
    longitude: 30.48225
    population: 12994
    dem: 1046
    timezone: "Africa/Harare"
  - name: "Chiredzi"
    latitude: -21.05
    longitude: 31.66667
    population: 28205
    dem: 436
    timezone: "Africa/Harare"
- name: "Midlands Province"
  cities:
  - name: "Shurugwi"
    latitude: -19.67016
    longitude: 30.00589
    population: 17075
    dem: 1483
    timezone: "Africa/Harare"
  - name: "Redcliff"
    latitude: -19.03333
    longitude: 29.78333
    population: 33197
    dem: 1232
    timezone: "Africa/Harare"
  - name: "Kwekwe"
    latitude: -18.92809
    longitude: 29.81486
    population: 99149
    dem: 1203
    timezone: "Africa/Harare"
  - name: "Gweru"
    latitude: -19.45
    longitude: 29.81667
    population: 146073
    dem: 1412
    timezone: "Africa/Harare"
  - name: "Gokwe"
    latitude: -18.20476
    longitude: 28.9349
    population: 18942
    dem: 1237
    timezone: "Africa/Harare"
